FMT, 128, 89, FMT, BBnNZ, Type,Length,Name,Format,Columns
FMT, 129, 31, PARM, QNf, TimeUS,Name,Value
FMT, 130, 46, GPS, QBIHBcLLefffB, TimeUS,Status,GMS,GWk,NSats,HDop,Lat,Lng,Alt,Spd,GCrs,VZ,U
FMT, 131, 46, GPS2, QBIHBcLLefffB, TimeUS,Status,GMS,GWk,NSats,HDop,Lat,Lng,Alt,Spd,GCrs,VZ,U
FMT, 196, 24, GPA, QCCCCBI, TimeUS,VDop,HAcc,VAcc,SAcc,VV,SMS
FMT, 197, 24, GPA2, QCCCCBI, TimeUS,VDop,HAcc,VAcc,SAcc,VV,SMS
FMT, 132, 49, IMU, QffffffIIfBB, TimeUS,GyrX,GyrY,GyrZ,AccX,AccY,AccZ,ErrG,ErrA,Temp,GyHlt,AcHlt
FMT, 133, 75, MSG, QZ, TimeUS,Message
FMT, 134, 39, RCIN, QHHHHHHHHHHHHHH, TimeUS,C1,C2,C3,C4,C5,C6,C7,C8,C9,C10,C11,C12,C13,C14
FMT, 135, 39, RCOU, QHHHHHHHHHHHHHH, TimeUS,C1,C2,C3,C4,C5,C6,C7,C8,C9,C10,C11,C12,C13,C14
FMT, 136, 15, RSSI, Qf, TimeUS,RXRSSI
FMT, 138, 33, BARO, QffcfIf, TimeUS,Alt,Press,Temp,CRt,SMS,Offset
FMT, 139, 21, POWR, QffH, TimeUS,Vcc,VServo,Flags
FMT, 146, 45, CMD, QHHHfffffff, TimeUS,CTot,CNum,CId,Prm1,Prm2,Prm3,Prm4,Lat,Lng,Alt
FMT, 147, 20, RAD, QBBBBBHH, TimeUS,RSSI,RemRSSI,TxBuf,Noise,RemNoise,RxErrors,Fixed
FMT, 149, 43, CAM, QIHLLeeeccC, TimeUS,GPSTime,GPSWeek,Lat,Lng,Alt,RelAlt,GPSAlt,Roll,Pitch,Yaw
FMT, 218, 43, TRIG, QIHLLeeeccC, TimeUS,GPSTime,GPSWeek,Lat,Lng,Alt,RelAlt,GPSAlt,Roll,Pitch,Yaw
FMT, 166, 30, ARSP, QffcffB, TimeUS,Airspeed,DiffPress,Temp,RawPress,Offset,U
FMT, 168, 23, CURR, Qfff, TimeUS,Volt,Curr,CurrTot
FMT, 169, 23, CUR2, Qfff, TimeUS,Volt,Curr,CurrTot
FMT, 167, 27, ATT, QccccCCCC, TimeUS,DesRoll,Roll,DesPitch,Pitch,DesYaw,Yaw,ErrRP,ErrYaw
FMT, 170, 34, MAG, QhhhhhhhhhBI, TimeUS,MagX,MagY,MagZ,OfsX,OfsY,OfsZ,MOfsX,MOfsY,MOfsZ,Health,S
FMT, 173, 14, MODE, QMBB, TimeUS,Mode,ModeNum,Rsn
FMT, 198, 15, RFND, QCC, TimeUS,Dist1,Dist2
FMT, 209, 33, DMS, IIIIIBBBBBBBBBB, TimeMS,N,Dp,RT,RS,Er,Fa,Fmn,Fmx,Pa,Pmn,Pmx,Sa,Smn,Smx
FMT, 137, 49, IMU2, QffffffIIfBB, TimeUS,GyrX,GyrY,GyrZ,AccX,AccY,AccZ,ErrG,ErrA,Temp,GyHlt,AcHlt
FMT, 150, 49, IMU3, QffffffIIfBB, TimeUS,GyrX,GyrY,GyrZ,AccX,AccY,AccZ,ErrG,ErrA,Temp,GyHlt,AcHlt
FMT, 140, 29, AHR2, QccCfLL, TimeUS,Roll,Pitch,Yaw,Alt,Lat,Lng
FMT, 184, 27, POS, QLLff, TimeUS,Lat,Lng,Alt,RelAlt
FMT, 141, 29, SIM, QccCfLL, TimeUS,Roll,Pitch,Yaw,Alt,Lat,Lng
FMT, 142, 51, EKF1, QccCfffffffccc, TimeUS,Roll,Pitch,Yaw,VN,VE,VD,dPD,PN,PE,PD,GX,GY,GZ
FMT, 143, 30, EKF2, Qbbbcchhhhhh, TimeUS,Ratio,AZ1bias,AZ2bias,VWN,VWE,MN,ME,MD,MX,MY,MZ
FMT, 144, 31, EKF3, Qcccccchhhc, TimeUS,IVN,IVE,IVD,IPN,IPE,IPD,IMX,IMY,IMZ,IVT
FMT, 145, 34, EKF4, QcccccccbbHBHH, TimeUS,SV,SP,SH,SMX,SMY,SMZ,SVT,OFN,OFE,FS,TS,SS,GPS
FMT, 164, 28, EKF5, QBhhhcccCC, TimeUS,NI,FIX,FIY,AFI,HAGL,offset,RI,rng,Herr
FMT, 200, 51, NKF1, QccCfffffffccc, TimeUS,Roll,Pitch,Yaw,VN,VE,VD,dPD,PN,PE,PD,GX,GY,GZ
FMT, 201, 35, NKF2, QbccccchhhhhhB, TimeUS,AZbias,GSX,GSY,GSZ,VWN,VWE,MN,ME,MD,MX,MY,MZ,MI
FMT, 202, 33, NKF3, Qcccccchhhcc, TimeUS,IVN,IVE,IVD,IPN,IPE,IPD,IMX,IMY,IMZ,IYAW,IVT
FMT, 203, 35, NKF4, QcccccfbbHBHHb, TimeUS,SV,SP,SH,SM,SVT,errRP,OFN,OFE,FS,TS,SS,GPS,PI
FMT, 204, 40, NKF5, QBhhhcccCCfff, TimeUS,NI,FIX,FIY,AFI,HAGL,offset,RI,rng,Herr,eAng,eVel,ePos
FMT, 205, 51, NKF6, QccCfffffffccc, TimeUS,Roll,Pitch,Yaw,VN,VE,VD,dPD,PN,PE,PD,GX,GY,GZ
FMT, 206, 35, NKF7, QbccccchhhhhhB, TimeUS,AZbias,GSX,GSY,GSZ,VWN,VWE,MN,ME,MD,MX,MY,MZ,MI
FMT, 207, 33, NKF8, Qcccccchhhcc, TimeUS,IVN,IVE,IVD,IPN,IPE,IPD,IMX,IMY,IMZ,IYAW,IVT
FMT, 208, 35, NKF9, QcccccfbbHBHHb, TimeUS,SV,SP,SH,SM,SVT,errRP,OFN,OFE,FS,TS,SS,GPS,PI
FMT, 151, 34, TERR, QBLLHffHH, TimeUS,Status,Lat,Lng,Spacing,TerrH,CHeight,Pending,Loaded
FMT, 152, 18, UBX1, QBHBBH, TimeUS,Instance,noisePerMS,jamInd,aPower,agcCnt
FMT, 153, 16, UBX2, QBbBbB, TimeUS,Instance,ofsI,magI,ofsQ,magQ
FMT, 154, 18, UBY1, QBHBBH, TimeUS,Instance,noisePerMS,jamInd,aPower,agcCnt
FMT, 155, 16, UBY2, QBbBbB, TimeUS,Instance,ofsI,magI,ofsQ,magQ
FMT, 174, 42, GRAW, QIHBBddfBbB, TimeUS,WkMS,Week,numSV,sv,cpMes,prMes,doMes,mesQI,cno,lli
FMT, 175, 24, GRXH, QdHbBB, TimeUS,rcvTime,week,leapS,numMeas,recStat
FMT, 176, 41, GRXS, QddfBBBHBBBBB, TimeUS,prMes,cpMes,doMes,gnss,sv,freq,lock,cno,prD,cpD,doD,trk
FMT, 177, 63, SBFE, QIHBBdddfffff, TimeUS,TOW,WN,Mode,Err,Lat,Lng,Height,Undul,Vn,Ve,Vu,COG
FMT, 156, 19, ESC1, Qcccc, TimeUS,RPM,Volt,Curr,Temp
FMT, 157, 19, ESC2, Qcccc, TimeUS,RPM,Volt,Curr,Temp
FMT, 158, 19, ESC3, Qcccc, TimeUS,RPM,Volt,Curr,Temp
FMT, 159, 19, ESC4, Qcccc, TimeUS,RPM,Volt,Curr,Temp
FMT, 160, 19, ESC5, Qcccc, TimeUS,RPM,Volt,Curr,Temp
FMT, 161, 19, ESC6, Qcccc, TimeUS,RPM,Volt,Curr,Temp
FMT, 162, 19, ESC7, Qcccc, TimeUS,RPM,Volt,Curr,Temp
FMT, 163, 19, ESC8, Qcccc, TimeUS,RPM,Volt,Curr,Temp
FMT, 171, 34, MAG2, QhhhhhhhhhBI, TimeUS,MagX,MagY,MagZ,OfsX,OfsY,OfsZ,MOfsX,MOfsY,MOfsZ,Health,S
FMT, 172, 34, MAG3, QhhhhhhhhhBI, TimeUS,MagX,MagY,MagZ,OfsX,OfsY,OfsZ,MOfsX,MOfsY,MOfsZ,Health,S
FMT, 178, 31, ACC1, QQfff, TimeUS,SampleUS,AccX,AccY,AccZ
FMT, 179, 31, ACC2, QQfff, TimeUS,SampleUS,AccX,AccY,AccZ
FMT, 180, 31, ACC3, QQfff, TimeUS,SampleUS,AccX,AccY,AccZ
FMT, 181, 31, GYR1, QQfff, TimeUS,SampleUS,GyrX,GyrY,GyrZ
FMT, 182, 31, GYR2, QQfff, TimeUS,SampleUS,GyrX,GyrY,GyrZ
FMT, 183, 31, GYR3, QQfff, TimeUS,SampleUS,GyrX,GyrY,GyrZ
FMT, 185, 35, PIDR, Qffffff, TimeUS,Des,P,I,D,FF,AFF
FMT, 186, 35, PIDP, Qffffff, TimeUS,Des,P,I,D,FF,AFF
FMT, 187, 35, PIDY, Qffffff, TimeUS,Des,P,I,D,FF,AFF
FMT, 188, 35, PIDA, Qffffff, TimeUS,Des,P,I,D,FF,AFF
FMT, 189, 35, PIDS, Qffffff, TimeUS,Des,P,I,D,FF,AFF
FMT, 165, 33, BAR2, QffcfIf, TimeUS,Alt,Press,Temp,CRt,SMS,Offset
FMT, 199, 33, BAR3, QffcfI, TimeUS,Alt,Press,Temp,CRt,SMS
FMT, 190, 35, VIBE, QfffIII, TimeUS,VibeX,VibeY,VibeZ,Clip0,Clip1,Clip2
FMT, 191, 47, IMT, Qfffffffff, TimeUS,DelT,DelvT,DelaT,DelAX,DelAY,DelAZ,DelVX,DelVY,DelVZ
FMT, 192, 47, IMT2, Qfffffffff, TimeUS,DelT,DelvT,DelaT,DelAX,DelAY,DelAZ,DelVX,DelVY,DelVZ
FMT, 193, 47, IMT3, Qfffffffff, TimeUS,DelT,DelvT,DelaT,DelAX,DelAY,DelAZ,DelVX,DelVY,DelVZ
FMT, 194, 24, ORGN, QBLLe, TimeUS,Type,Lat,Lng,Alt
FMT, 195, 19, RPM, Qff, TimeUS,rpm1,rpm2
FMT, 219, 47, GMB1, Iffffffffff, TimeMS,dt,dax,day,daz,dvx,dvy,dvz,jx,jy,jz
FMT, 220, 44, GMB2, IBfffffffff, TimeMS,es,ex,ey,ez,rx,ry,rz,tx,ty,tz
FMT, 221, 13, GMB3, Ihhh, TimeMS,rl_torque_cmd,el_torque_cmd,az_torque_cmd
FMT, 222, 59, RATE, Qffffffffffff, TimeUS,RDes,R,ROut,PDes,P,POut,YDes,Y,YOut,ADes,A,AOut
FMT, 223, 23, RALY, QBBLLh, TimeUS,Tot,Seq,Lat,Lng,Alt
FMT, 210, 23, SBPH, QIII, TimeUS,CrcError,LastInject,IARhyp
FMT, 215, 80, SBR1, QHHBZ, TimeUS,msg_type,sender_id,msg_len,d1
FMT, 216, 205, SBR2, QHZZZ, TimeUS,msg_type,d2,d3,d4
FMT, 25, 41, ATUN, QBBfffffff, TimeUS,Axis,TuneStep,Targ,Min,Max,RP,RD,SP,ddt
FMT, 26, 19, ATDE, Qff, TimeUS,Angle,Rate
FMT, 31, 22, PTUN, QBfHHH, TimeUS,Param,TunVal,CtrlIn,TunLo,TunHi
FMT, 12, 28, OF, QBffff, TimeUS,Qual,flowX,flowY,bodyX,bodyY
FMT, 5, 51, NTUN, Qffffffffff, TimeUS,DPosX,DPosY,PosX,PosY,DVelX,DVelY,VelX,VelY,DAccX,DAccY
FMT, 4, 51, CTUN, Qffffffeccfhh, TimeUS,ThI,ABst,ThO,ThH,DAlt,Alt,BAlt,DSAlt,SAlt,TAlt,DCRt,CRt
FMT, 6, 28, PM, QHHIhBHI, TimeUS,NLon,NLoop,MaxT,PMT,I2CErr,INSErr,LogDrop
FMT, 30, 27, MOTB, Qffff, TimeUS,LiftMax,BatVolt,BatRes,ThLimit
FMT, 13, 12, EV, QB, TimeUS,Id
FMT, 20, 14, D16, QBh, TimeUS,Id,Value
FMT, 21, 14, DU16, QBH, TimeUS,Id,Value
FMT, 22, 16, D32, QBi, TimeUS,Id,Value
FMT, 23, 16, DU32, QBI, TimeUS,Id,Value
FMT, 24, 16, DFLT, QBf, TimeUS,Id,Value
FMT, 19, 13, ERR, QBB, TimeUS,Subsys,ECode
FMT, 32, 19, HELI, Qff, TimeUS,DRRPM,ERRPM
FMT, 33, 29, PL, QBBffff, TimeUS,Heal,TAcq,pX,pY,vX,vY
FMT, 34, 36, GUID, QBffffff, TimeUS,Type,pX,pY,pZ,vX,vY,vZ
FMT, 35, 32, THRO, QBffffbbbb, TimeUS,Stage,Vel,VelZ,Acc,AccEfZ,Throw,AttOk,HgtOk,PosOk
FMT, 36, 44, PRX, QBffffffff, TimeUS,Health,D0,D45,D90,D135,D180,D225,D270,D315
EV, 148882198, 10
MODE, 148882206, AltHold, 2, 1
FMT, 254, 31, CTRL, Qfffff, TimeUS,RMSRollP,RMSRollD,RMSPitchP,RMSPitchD,RMSYaw
MSG, 148952786, APM:Copter V3.4.6 (5221448a)
MSG, 148952790, New mission
MSG, 148952794, Frame: QUAD
MODE, 148952797, AltHold, 2, 1
CURR, 148980280, 11.69827, 0, 0
CUR2, 148980289, 11.67653, 0, 3.756867
MAG, 148980305, 84, 18, -221, -208, 24, -34, 0, 0, 0, 1, 148980297
MAG2, 148980305, 83, 71, -262, -121, 141, -76, 0, 0, 0, 1, 148980300
DU32, 148980323, 7, 17163736
TERR, 148981955, 2, -34.0729029, 18.8399735, 100, 81.26822, -0.001243591, 0, 336
BARO, 148982739, 0.6574324, 102031.5, 26.26, 0.2121577, 148982, 0
CTUN, 148982757, 0, 0, 0, 0.4812081, 0.7956455, 0.7956455, 0.65, 0.00, 0.00, 0, 0, 3
ATT, 148982850, 0.00, -3.06, 0.00, 1.12, 328.72, 328.22, 0.00, 0.06
NKF1, 148982856, -3.06, 1.12, 328.21, -0.05736057, 0.02306483, -0.03641785, 0, -1.668938, 0.1387232, -0.7956455, -0.01, 0.01, 0.19
NKF2, 148982856, 0, 0.00, 0.00, 0.00, 0.00, 0.00, 79, 0, -241, 0, 0, 0, 0
NKF3, 148982856, -0.01, 0.03, 0.04, -0.44, -0.47, -0.05, 0, 0, 0, -1.83, 0.00
NKF4, 148982856, 0.01, 0.03, 0.00, 0.02, 0.00, 0.0001937704, 0, 0, 0, 16, 9087, 0, 0
NKF5, 148982856, 0, 0, 0, 0, 0.18, -0.59, 0.08, 0.09, 0.15, 0.001519689, 0.005372304, 0.01096709
AHR2, 148982887, -2.86, 1.02, 333.12, 84.45, -34.072899, 18.8399782
POS, 148982894, -34.0729029, 18.8399735, 83.8, 0.7956455
RATE, 148982898, 17.83986, 0.006913173, 0.04190426, 5.70619, 0.03430638, 0.0132623, 203.9227, -0.1808735, 0.6412396, -1474.961, -0.582695, 0
MOTB, 148982905, 1, 1, 0, 1
RCIN, 148982908, 1493, 1492, 982, 2002, 1550, 1494, 982, 982, 982, 982, 982, 982, 1494, 1494
RCOU, 148982913, 982, 982, 982, 982, 0, 0, 0, 0, 0, 0, 0, 0, 0, 0
VIBE, 148982920, 0.01899881, 0.02053612, 0.03441023, 0, 0, 0
CTRL, 148982926, 0.04213373, 0.0001531719, 0.01337532, 0.0001338826, 0.640881
IMU, 148982936, -0.0001334946, 0.0008274943, 0.0003276501, 0.4491405, 0.5292442, -9.766405, 0, 0, 0, 1, 1
IMU, 149022748, -3.589262E-05, 0.0005552134, -0.0003533423, 0.4498533, 0.533078, -9.77716, 0, 0, 0, 1, 1
GPS, 149040140, 3, 34508000, 1958, 11, 0.92, -34.072899, 18.8399784, 80.71, 0.01414214, 135, -0.06, 1
GPA, 149040140, 1.84, 2.92, 6.17, 0.84, 1, 149040
IMU, 149062724, -0.0007689589, 0.0005519214, -0.000403996, 0.4574765, 0.5223866, -9.791984, 0, 0, 0, 1, 1
CURR, 149080229, 11.74176, 0, 0
CUR2, 149080236, 11.72002, 0, 3.756867
MAG, 149080251, 84, 17, -225, -208, 24, -34, 0, 0, 0, 1, 149080243
MAG2, 149080251, 81, 81, -256, -121, 141, -76, 0, 0, 0, 1, 149080246
BARO, 149082699, 0.6794385, 102031.2, 26.27, 0.1155942, 149082, 0
CTUN, 149082723, 0, 0, 0, 0.4812081, 0.798111, 0.798111, 0.67, 0.00, 0.00, 0, 0, 3
ATT, 149082783, 0.00, -3.06, 0.00, 1.12, 328.71, 328.22, 0.00, 0.05
NKF1, 149082789, -3.06, 1.12, 328.21, -0.05558351, 0.02436794, -0.03747788, 0, -1.658852, 0.1513676, -0.798111, -0.01, 0.01, 0.19
NKF2, 149082789, 0, 0.00, 0.00, 0.00, 0.00, 0.00, 79, 0, -241, 0, 0, 0, 0
NKF3, 149082789, -0.04, 0.00, 0.02, -0.42, -0.46, 0.00, 0, 0, 0, -6.16, 0.00
NKF4, 149082789, 0.01, 0.02, 0.00, 0.07, 0.00, 0.0001587344, 0, 0, 0, 16, 9087, 0, 0
NKF5, 149082789, 0, 0, 0, 0, 0.18, -0.60, 0.08, 0.09, 0.15, 0.001508419, 0.005799817, 0.02220832
AHR2, 149082817, -2.85, 1.02, 333.08, 84.47, -34.072899, 18.8399784
POS, 149082825, -34.0729029, 18.8399736, 83.8, 0.798111
RATE, 149082828, 17.83058, -0.008567716, 0.04199924, 5.719707, 0.03747979, 0.01346956, 203.922, -0.196734, 0.6412796, -1517.599, 1.872349, 0
MOTB, 149082835, 1, 1, 0, 1
RCIN, 149082837, 1493, 1492, 982, 2002, 1550, 1494, 982, 982, 982, 982, 982, 982, 1494, 1494
RCOU, 149082843, 982, 982, 982, 982, 0, 0, 0, 0, 0, 0, 0, 0, 0, 0
VIBE, 149082850, 0.01792448, 0.01907138, 0.03100157, 0, 0, 0
CTRL, 149082854, 0.04210702, 0.0001397545, 0.01338874, 0.0001271016, 0.6410093
IMU, 149102681, -0.0001524581, 0.001233072, -0.0004396267, 0.449253, 0.5277402, -9.787373, 0, 0, 0, 1, 1
IMU, 149142669, -0.0004899996, 0.0005547025, 0.0003775977, 0.4660192, 0.5289962, -9.771868, 0, 0, 0, 1, 1
CURR, 149180218, 11.65478, 0, 0
CUR2, 149180226, 11.65478, 0, 3.756867
MAG, 149180241, 84, 12, -226, -208, 24, -34, 0, 0, 0, 1, 149180233
MAG2, 149180241, 83, 76, -255, -121, 141, -76, 0, 0, 0, 1, 149180236
BARO, 149182764, 0.847235, 102029.3, 26.27, -0.0849994, 149182, 0
CTUN, 149182786, 0, 0, 0, 0.4812081, 0.8009803, 0.8009803, 0.84, 0.00, 0.00, 0, 0, 3
ATT, 149182846, 0.00, -3.06, 0.00, 1.12, 328.71, 328.21, 0.00, 0.05
NKF1, 149182852, -3.06, 1.12, 328.20, -0.05297285, 0.02544131, -0.03829436, 0, -1.64634, 0.1662737, -0.8009803, -0.01, 0.01, 0.19
NKF2, 149182852, 0, 0.00, 0.00, 0.00, 0.00, 0.00, 79, 0, -241, 0, 0, 0, 0
NKF3, 149182852, -0.04, 0.00, 0.02, -0.42, -0.46, -0.13, 0, 0, 0, -1.85, 0.00
NKF4, 149182852, 0.01, 0.02, 0.00, 0.02, 0.00, 0.0001471671, 0, 0, 0, 16, 9087, 0, 0
NKF5, 149182852, 0, 0, 0, 0, 0.18, -0.60, 0.08, 0.09, 0.15, 0.001294255, 0.004527629, 0.008651835
AHR2, 149182880, -2.83, 1.02, 333.05, 84.64, -34.072899, 18.8399784
POS, 149182887, -34.0729027, 18.8399738, 83.81, 0.8009803
RATE, 149182890, 17.82453, -0.02384759, 0.04201364, 5.715429, 0.06883731, 0.01322123, 203.9254, -0.2784708, 0.641381, -1550.766, 1.21069, 0
MOTB, 149182896, 1, 1, 0, 1
RCIN, 149182899, 1493, 1492, 982, 2002, 1550, 1494, 982, 982, 982, 982, 982, 982, 1494, 1494
RCOU, 149182903, 982, 982, 982, 982, 0, 0, 0, 0, 0, 0, 0, 0, 0, 0
VIBE, 149182910, 0.0181496, 0.0196245, 0.03030148, 0, 0, 0
CTRL, 149182914, 0.04207022, 0.0001427195, 0.01338331, 0.0001176906, 0.6411104
IMU, 149182922, -0.0006715135, 0.001431205, -0.001373264, 0.4524528, 0.5155321, -9.784971, 0, 0, 0, 1, 1
IMU, 149222649, -0.001132939, 0.0007093995, 0.0001038518, 0.4596135, 0.5289764, -9.776665, 0, 0, 0, 1, 1
GPS, 149260118, 3, 34508200, 1958, 11, 0.92, -34.0728992, 18.8399785, 80.59, 0.1931321, 248.7495, -0.01, 1
GPA, 149260118, 1.84, 2.92, 6.18, 0.90, 1, 149260
IMU, 149262662, -0.0009475372, -0.0001943925, -0.0001979236, 0.4460379, 0.5296308, -9.783554, 0, 0, 0, 1, 1
CURR, 149280213, 11.74176, 0, 0
CUR2, 149280220, 11.67653, 0, 3.756867
MAG, 149280234, 90, 8, -221, -208, 24, -34, 0, 0, 0, 1, 149280227
MAG2, 149280234, 83, 70, -253, -121, 141, -76, 0, 0, 0, 1, 149280230
BARO, 149282638, 0.7619613, 102030.3, 26.27, -0.009696713, 149282, 0
CTUN, 149282659, 0, 0, 0, 0.4812081, 0.8030336, 0.8030336, 0.76, 0.00, 0.00, 0, 0, 3
ATT, 149282721, 0.00, -3.06, 0.00, 1.12, 328.70, 328.20, 0.02, 0.05
NKF1, 149282727, -3.06, 1.12, 328.19, -0.0516458, 0.02674941, -0.0387767, 0, -1.638872, 0.1772189, -0.8030336, -0.01, 0.01, 0.19
NKF2, 149282727, 0, 0.00, 0.00, 0.00, 0.00, 0.00, 79, 0, -241, 0, 0, 0, 0
NKF3, 149282727, -0.04, 0.00, 0.02, -0.42, -0.46, -0.11, 0, 0, 0, -3.31, 0.00
NKF4, 149282727, 0.01, 0.02, 0.00, 0.03, 0.00, 0.0001391775, 0, 0, 0, 16, 9087, 0, 0
NKF5, 149282727, 0, 0, 0, 0, 0.18, -0.60, 0.08, 0.09, 0.15, 0.001175676, 0.006496809, 0.01791845
AHR2, 149282753, -2.83, 1.01, 333.06, 84.56, -34.0728992, 18.8399785
POS, 149282759, -34.0729027, 18.8399739, 83.81, 0.8030336
RATE, 149282763, 17.82693, -0.09159287, 0.04236064, 5.739958, 0.01939025, 0.0133694, 203.9237, -0.2728138, 0.6413841, -1570.357, 0.9207726, 0
MOTB, 149282768, 1, 1, 0, 1
RCIN, 149282771, 1493, 1493, 982, 2002, 1550, 1494, 982, 982, 982, 982, 982, 982, 1494, 1494
RCOU, 149282777, 982, 982, 982, 982, 0, 0, 0, 0, 0, 0, 0, 0, 0, 0
VIBE, 149282785, 0.02154762, 0.01923011, 0.02987788, 0, 0, 0
CTRL, 149282789, 0.04207177, 0.0001406429, 0.01341189, 0.0001160161, 0.6411913
RAD, 149302665, 182, 91, 84, 65, 73, 0, 0
IMU, 149302696, -0.0002008383, -0.0007466581, 0.0003461966, 0.4416878, 0.5335189, -9.778446, 0, 0, 0, 1, 1
RAD, 149312590, 182, 91, 84, 65, 73, 0, 0
IMU, 149342643, 0.001078446, 0.0006917619, -5.711651E-05, 0.4581697, 0.5242124, -9.758568, 0, 0, 0, 1, 1
CURR, 149380228, 11.74176, 0, 0
CUR2, 149380236, 11.72002, 0, 3.756867
MAG, 149380250, 89, 3, -224, -208, 24, -34, 0, 0, 0, 1, 149380243
MAG2, 149380250, 83, 68, -260, -121, 141, -76, 0, 0, 0, 1, 149380246
BARO, 149382693, 0.8554873, 102029.2, 26.27, 0.3013976, 149382, 0
CTUN, 149382713, 0, 0, 0, 0.4812081, 0.804386, 0.804386, 0.85, 0.00, 0.00, 0, 0, 3
ATT, 149382771, 0.00, -3.06, 0.00, 1.11, 328.69, 328.20, 0.02, 0.07
NKF1, 149382776, -3.06, 1.11, 328.19, -0.05000127, 0.02480823, -0.0378333, 0, -1.629384, 0.1848215, -0.804386, -0.01, 0.01, 0.20
NKF2, 149382776, 0, 0.00, 0.00, 0.00, 0.00, 0.00, 79, 0, -241, 0, 0, 0, 0
NKF3, 149382776, 0.02, 0.20, -0.02, -0.39, -0.46, 0.05, 0, 0, 0, -6.96, 0.00
NKF4, 149382776, 0.04, 0.02, 0.00, 0.08, 0.00, 0.0001636304, 0, 0, 0, 16, 9087, 0, 0
NKF5, 149382776, 0, 0, 0, 0, 0.18, -0.60, 0.08, 0.09, 0.15, 0.001380045, 0.01287603, 0.02286092
AHR2, 149382805, -2.94, 0.99, 333.10, 84.65, -34.0728992, 18.8399785
POS, 149382812, -34.0729026, 18.839974, 83.81, 0.804386
RATE, 149382817, 17.80652, -0.01070731, 0.04209952, 5.757761, 0.02720888, 0.01342898, 203.9253, -0.2875714, 0.6414512, -1532.39, 0.04606247, 0
MOTB, 149382822, 1, 1, 0, 1
RCIN, 149382826, 1493, 1492, 982, 2002, 1550, 1494, 982, 982, 982, 982, 982, 982, 1494, 1494
RCOU, 149382830, 982, 982, 982, 982, 0, 0, 0, 0, 0, 0, 0, 0, 0, 0
VIBE, 149382837, 0.01897082, 0.02016304, 0.03066315, 0, 0, 0
CTRL, 149382841, 0.04202111, 0.000154656, 0.01345597, 0.000118308, 0.6412487
IMU, 149382849, -0.0004415137, 0.0007064868, -0.001526229, 0.4617938, 0.5412055, -9.771384, 0, 0, 0, 1, 1
IMU, 149422755, 0.0001788538, 0.001301331, 0.0003702017, 0.4540658, 0.5286213, -9.752208, 0, 0, 0, 1, 1
GPS, 149460142, 3, 34508400, 1958, 11, 0.92, -34.0728994, 18.8399784, 80.40, 0.1655294, 295.0169, 0.07, 1
GPA, 149460142, 1.84, 2.92, 6.19, 0.74, 1, 149460
IMU, 149462724, 0.0003382287, 1.076026E-05, 0.0002344048, 0.4551263, 0.5416523, -9.781894, 0, 0, 0, 1, 1
CURR, 149480213, 11.74176, 0, 0
CUR2, 149480221, 11.69827, 0, 3.756867
MAG, 149480235, 84, 4, -225, -208, 24, -34, 0, 0, 0, 1, 149480228
MAG2, 149480235, 81, 80, -256, -121, 141, -76, 0, 0, 0, 1, 149480231
BARO, 149482710, 0.475882, 102033.6, 26.28, 0.2785147, 149482, 0
CTUN, 149482729, 0, 0, 0, 0.4812081, 0.8066696, 0.8066696, 0.47, 0.00, 0.00, 0, 0, 3
ATT, 149482813, 0.00, -3.06, 0.00, 1.11, 328.69, 328.19, 0.03, 0.09
NKF1, 149482818, -3.06, 1.11, 328.18, -0.04946586, 0.02360298, -0.03719608, 0, -1.624269, 0.1900914, -0.8066696, -0.01, 0.01, 0.19
NKF2, 149482818, 0, 0.00, 0.00, 0.00, 0.00, 0.00, 79, 0, -241, 0, 0, 0, 0
NKF3, 149482818, 0.02, 0.20, -0.02, -0.39, -0.46, -0.03, 0, 0, 0, -10.14, 0.00
NKF4, 149482818, 0.04, 0.02, 0.00, 0.11, 0.00, 0.0001830362, 0, 0, 0, 16, 9087, 0, 0
NKF5, 149482818, 0, 0, 0, 0, 0.18, -0.61, 0.08, 0.09, 0.15, 0.001682758, 0.01261759, 0.03000988
AHR2, 149482845, -3.01, 0.97, 333.19, 84.27, -34.0728994, 18.8399784
POS, 149482852, -34.0729025, 18.839974, 83.81, 0.8066696
RATE, 149482856, 17.80262, -0.01024242, 0.04214618, 5.771432, 0.02534619, 0.01349571, 203.9232, -0.1637858, 0.6412446, -1506.543, -1.06535, 0
MOTB, 149482861, 1, 1, 0, 1
RCIN, 149482864, 1493, 1492, 982, 2002, 1550, 1494, 982, 982, 982, 982, 982, 982, 1494, 1494
RCOU, 149482869, 982, 982, 982, 982, 0, 0, 0, 0, 0, 0, 0, 0, 0, 0
VIBE, 149482875, 0.01799505, 0.01727564, 0.03487356, 0, 0, 0
CTRL, 149482879, 0.04199505, 0.0001753502, 0.01349133, 0.0001330573, 0.6412753
IMU, 149502736, -0.0004283099, -4.513834E-05, 0.0005539491, 0.4489267, 0.5452459, -9.767282, 0, 0, 0, 1, 1
IMU, 149542667, -0.0008978587, 0.0003620792, 0.0006403264, 0.4591701, 0.5333363, -9.789598, 0, 0, 0, 1, 1
CURR, 149580213, 11.74176, 0, 0
CUR2, 149580223, 11.69827, 0, 3.756867
MAG, 149580238, 89, 19, -222, -208, 24, -34, 0, 0, 0, 1, 149580230
MAG2, 149580238, 84, 85, -255, -121, 141, -76, 0, 0, 0, 1, 149580233
BARO, 149582715, 0.9270071, 102028.4, 26.28, -0.1573093, 149582, 0
CTUN, 149582737, 0, 0, 0, 0.4812081, 0.8071856, 0.8071856, 0.92, 0.00, 0.00, 0, 0, 3
ATT, 149582794, 0.00, -3.06, 0.00, 1.11, 328.69, 328.19, 0.03, 0.08
NKF1, 149582800, -3.06, 1.11, 328.18, -0.04592409, 0.02073526, -0.03676903, 0, -1.611229, 0.1939157, -0.8071856, -0.01, 0.01, 0.19
NKF2, 149582800, 0, 0.00, 0.00, 0.00, 0.00, 0.00, 79, 0, -241, 0, 0, 0, 0
NKF3, 149582800, -0.12, 0.16, -0.10, -0.34, -0.45, 0.06, 0, 0, 0, -13.82, 0.00
NKF4, 149582800, 0.04, 0.02, 0.00, 0.16, 0.00, 0.0002113812, 0, 0, 0, 16, 9087, 0, 0
NKF5, 149582800, 0, 0, 0, 0, 0.18, -0.61, 0.08, 0.09, 0.15, 0.002250741, 0.01547465, 0.02931859
AHR2, 149582831, -2.95, 0.91, 333.28, 84.72, -34.0728994, 18.8399784
POS, 149582839, -34.0729024, 18.8399741, 83.81, 0.8071856
RATE, 149582843, 17.79735, 0.04881733, 0.04192794, 5.794393, 0.07155643, 0.01342891, 203.9241, -0.1852251, 0.6412174, -1489.292, -0.4617691, 0
MOTB, 149582848, 1, 1, 0, 1
RCIN, 149582851, 1493, 1492, 982, 2002, 1550, 1494, 982, 982, 982, 982, 982, 982, 1494, 1494
RCOU, 149582856, 982, 982, 982, 982, 0, 0, 0, 0, 0, 0, 0, 0, 0, 0
VIBE, 149582863, 0.01896532, 0.01985609, 0.03365615, 0, 0, 0
CTRL, 149582868, 0.04196466, 0.0001750241, 0.01352466, 0.00012346, 0.6412596
IMU, 149582877, 0.0005979401, 0.001482945, 0.0002494291, 0.4434745, 0.5431023, -9.767076, 0, 0, 0, 1, 1
IMU, 149622639, 0.0003075163, 0.001131732, 0.0006908003, 0.4469636, 0.5323088, -9.789856, 0, 0, 0, 1, 1
GPS, 149660123, 3, 34508600, 1958, 11, 0.92, -34.0728997, 18.839978, 80.28, 0.3546829, 229.5739, 0.12, 1
GPA, 149660123, 1.84, 2.93, 6.21, 0.98, 1, 149660
IMU, 149662698, -0.0006327158, 0.0005300607, -0.0005679704, 0.4538333, 0.5308575, -9.770817, 0, 0, 0, 1, 1
CURR, 149680218, 11.69827, 0, 0
CUR2, 149680226, 11.69827, 0, 3.756867
MAG, 149680240, 87, 22, -224, -208, 24, -34, 0, 0, 0, 1, 149680232
MAG2, 149680240, 82, 86, -251, -121, 141, -76, 0, 0, 0, 1, 149680235
BARO, 149682647, 0.7977213, 102029.9, 26.28, -0.3103205, 149682, 0
CTUN, 149682667, 0, 0, 0, 0.4812081, 0.8082322, 0.8082322, 0.79, 0.00, 0.00, 0, 0, 3
ATT, 149682723, 0.00, -3.06, 0.00, 1.10, 328.69, 328.20, 0.06, 0.08
NKF1, 149682729, -3.06, 1.10, 328.19, -0.0439962, 0.01807286, -0.03605964, 0, -1.603211, 0.195952, -0.8082322, -0.01, 0.01, 0.19
NKF2, 149682729, 0, 0.00, 0.00, 0.00, 0.00, 0.00, 79, 0, -241, 0, 0, 0, 0
NKF3, 149682729, -0.12, 0.16, -0.10, -0.34, -0.45, -0.32, 0, 0, 0, -13.19, 0.00
NKF4, 149682729, 0.04, 0.02, 0.02, 0.15, 0.00, 0.0002328847, 0, 0, 0, 16, 9087, 0, 0
NKF5, 149682729, 0, 0, 0, 0, 0.17, -0.61, 0.08, 0.09, 0.15, 0.002721474, 0.01361673, 0.03367084
AHR2, 149682760, -2.93, 0.88, 333.24, 84.59, -34.0728997, 18.839978
POS, 149682767, -34.0729024, 18.8399741, 83.81, 0.8082322
RATE, 149682770, 17.7928, 0.007770069, 0.04175633, 5.829278, 0.01751742, 0.01370941, 203.921, -0.2532035, 0.6413483, -1460.596, -0.8435249, 0
MOTB, 149682775, 1, 1, 0, 1
RCIN, 149682778, 1493, 1492, 982, 2002, 1550, 1494, 982, 982, 982, 982, 982, 982, 1494, 1494
RCOU, 149682783, 982, 982, 982, 982, 0, 0, 0, 0, 0, 0, 0, 0, 0, 0
VIBE, 149682791, 0.01735036, 0.01925096, 0.03453918, 0, 0, 0
CTRL, 149682795, 0.0419487, 0.0001629184, 0.01356791, 0.0001278621, 0.6412525
IMU, 149702664, -0.001010584, -0.000167138, -0.0002823979, 0.4479843, 0.5354373, -9.788412, 0, 0, 0, 1, 1
IMU, 149742690, -0.0002450157, -0.00116083, -0.0009689365, 0.4554463, 0.5338069, -9.75843, 0, 0, 0, 1, 1
CURR, 149780230, 11.69827, 0, 0
CUR2, 149780239, 11.67653, 0, 3.756867
MAG, 149780255, 86, 9, -224, -208, 24, -34, 0, 0, 0, 1, 149780247
MAG2, 149780255, 81, 74, -258, -121, 141, -76, 0, 0, 0, 1, 149780250
BARO, 149782661, 0.7509583, 102030.4, 26.29, 0.1263632, 149782, 0
CTUN, 149782683, 0, 0, 0, 0.4812081, 0.805775, 0.805775, 0.75, 0.00, 0.00, 0, 0, 3
ATT, 149782741, 0.00, -3.07, 0.00, 1.09, 328.71, 328.21, 0.06, 0.08
NKF1, 149782746, -3.07, 1.09, 328.20, -0.04572462, 0.01250888, -0.03470923, 0, -1.599867, 0.1943401, -0.8057751, -0.01, 0.01, 0.19
NKF2, 149782746, 0, 0.00, 0.00, 0.00, 0.00, 0.00, 79, 0, -241, 0, 0, 0, 0
NKF3, 149782746, 0.18, 0.27, -0.15, -0.31, -0.42, 0.14, 0, 0, 0, -1.71, 0.00
NKF4, 149782746, 0.07, 0.02, 0.00, 0.01, 0.00, 0.0002631028, 0, 0, 0, 16, 9087, 0, 0
NKF5, 149782746, 0, 0, 0, 0, 0.17, -0.61, 0.07, 0.09, 0.15, 0.002704147, 0.02086659, 0.04216954
AHR2, 149782777, -3.08, 1.00, 333.17, 84.55, -34.0728997, 18.839978
POS, 149782784, -34.0729023, 18.8399741, 83.81, 0.8057751
RATE, 149782789, 17.79491, 0.02148637, 0.04200197, 5.870472, 0.05112339, 0.01358552, 203.9209, -0.1677333, 0.6413042, -1405.948, 1.336002, 0
MOTB, 149782794, 1, 1, 0, 1
RCIN, 149782797, 1493, 1492, 982, 2002, 1550, 1494, 982, 982, 982, 982, 982, 982, 1494, 1494
RCOU, 149782802, 982, 982, 982, 982, 0, 0, 0, 0, 0, 0, 0, 0, 0, 0
VIBE, 149782809, 0.01865203, 0.01801896, 0.03232636, 0, 0, 0
CTRL, 149782814, 0.04193093, 0.0001467462, 0.01365345, 0.0001371843, 0.6412792
IMU, 149782822, 0.0001228336, 0.001126947, 0.0005561921, 0.440635, 0.5398224, -9.785418, 0, 0, 0, 1, 1
IMU, 149822682, -0.001276008, 0.0005878124, 0.0005766527, 0.467018, 0.5268358, -9.793062, 0, 0, 0, 1, 1
GPS, 149860140, 3, 34508800, 1958, 11, 0.92, -34.0728998, 18.8399778, 80.17, 0.1, 323.1301, 0.12, 1
GPA, 149860140, 1.84, 2.93, 6.21, 0.77, 1, 149860
IMU, 149862675, -0.0002006808, 0.0005649871, -0.0006429106, 0.4434004, 0.5340863, -9.782873, 0, 0, 0, 1, 1
CURR, 149880227, 11.69827, 0, 0
CUR2, 149880235, 11.63304, 0, 3.756867
MAG, 149880251, 86, 16, -221, -208, 24, -34, 0, 0, 0, 1, 149880242
MAG2, 149880251, 82, 79, -257, -121, 141, -76, 0, 0, 0, 1, 149880245
BARO, 149882680, 0.7729644, 102030.2, 26.29, 0.3756511, 149882, 0
CTUN, 149882704, 0, 0, 0, 0.4812081, 0.8058395, 0.8058395, 0.77, 0.00, 0.00, 0, 0, 3
ATT, 149882765, 0.00, -3.08, 0.00, 1.09, 328.71, 328.22, 0.08, 0.06
NKF1, 149882771, -3.08, 1.09, 328.21, -0.04764881, 0.007467391, -0.03515968, 0, -1.599471, 0.1919768, -0.8058395, -0.01, 0.01, 0.19
NKF2, 149882771, 0, 0.00, 0.00, 0.00, 0.00, 0.00, 79, 0, -241, 0, 0, 0, 0
NKF3, 149882771, 0.18, 0.27, -0.15, -0.31, -0.42, 0.00, 0, 0, 0, 0.37, 0.00
NKF4, 149882771, 0.07, 0.02, 0.00, 0.00, 0.00, 0.0002851051, 0, 0, 0, 16, 9087, 0, 0
NKF5, 149882771, 0, 0, 0, 0, 0.17, -0.61, 0.07, 0.09, 0.15, 0.002310659, 0.01756089, 0.04362382
AHR2, 149882800, -3.15, 1.09, 333.21, 84.57, -34.0728998, 18.8399778
POS, 149882807, -34.0729023, 18.839974, 83.81, 0.8058395
RATE, 149882811, 17.82442, -0.01757687, 0.04212044, 5.908909, 0.03768741, 0.0137809, 203.9195, -0.2200869, 0.641343, -1423.952, 0.5111694, 0
MOTB, 149882817, 1, 1, 0, 1
RCIN, 149882820, 1493, 1492, 982, 2002, 1550, 1494, 982, 982, 982, 982, 982, 982, 1494, 1494
RCOU, 149882824, 982, 982, 982, 982, 0, 0, 0, 0, 0, 0, 0, 0, 0, 0
VIBE, 149882831, 0.01972366, 0.02156781, 0.03165309, 0, 0, 0
CTRL, 149882835, 0.04194858, 0.0001568933, 0.01371202, 0.0001171343, 0.6412827
IMU, 149902801, -0.0002673994, -0.0008462481, 0.0001423895, 0.4566606, 0.5315145, -9.774738, 0, 0, 0, 1, 1
IMU, 149942835, -5.175923E-05, 0.0007336427, 0.0009420856, 0.4443446, 0.5409933, -9.768738, 0, 0, 0, 1, 1
CURR, 149980223, 11.65478, 0, 0
CUR2, 149980231, 11.65478, 0, 3.756867
MAG, 149980246, 87, 18, -224, -208, 24, -34, 0, 0, 0, 1, 149980237
MAG2, 149980246, 83, 85, -257, -121, 141, -76, 0, 0, 0, 1, 149980241
DU32, 149980263, 7, 17163736
TERR, 149981837, 2, -34.0729022, 18.839974, 100, 81.27444, 0.002532959, 0, 336
BARO, 149982700, 0.6794385, 102031.3, 26.29, 0.04126141, 149982, 0
CTUN, 149982718, 0, 0, 0, 0.4812081, 0.8043997, 0.8043997, 0.67, 0.00, 0.00, 0, 0, 3
ATT, 149982806, 0.00, -3.08, 0.00, 1.09, 328.72, 328.22, 0.08, 0.06
NKF1, 149982812, -3.08, 1.09, 328.21, -0.04623396, 0.004659177, -0.03330285, 0, -1.591522, 0.1936059, -0.8043997, -0.01, 0.01, 0.19
NKF2, 149982812, 0, 0.00, 0.00, 0.00, 0.00, 0.00, 79, 0, -241, 0, 0, 0, 0
NKF3, 149982812, -0.13, 0.05, -0.15, -0.28, -0.38, -0.03, 0, 0, 0, -9.04, 0.00
NKF4, 149982812, 0.04, 0.02, 0.00, 0.10, 0.00, 0.0002622985, 0, 0, 0, 16, 9087, 0, 0
NKF5, 149982812, 0, 0, 0, 0, 0.16, -0.61, 0.07, 0.09, 0.15, 0.002271631, 0.01210379, 0.02753025
AHR2, 149982842, -2.96, 0.98, 333.21, 84.47, -34.0728998, 18.8399778
POS, 149982851, -34.0729022, 18.839974, 83.81, 0.8043997
RATE, 149982855, 17.82343, -0.02029309, 0.04210794, 5.9423, 0.01328842, 0.0140368, 203.9217, -0.1982334, 0.6412227, -1349.122, -1.038837, 0
MOTB, 149982860, 1, 1, 0, 1
RCIN, 149982864, 1493, 1492, 982, 2002, 1550, 1494, 982, 982, 982, 982, 982, 982, 1494, 1494
RCOU, 149982869, 982, 982, 982, 982, 0, 0, 0, 0, 0, 0, 0, 0, 0, 0
VIBE, 149982876, 0.02026569, 0.02159327, 0.03237931, 0, 0, 0
CTRL, 149982880, 0.04195295, 0.000144435, 0.01378812, 0.000121668, 0.641266
IMU, 149982891, -0.0006070519, 0.0004681621, 2.098852E-05, 0.4486819, 0.5384474, -9.761322, 0, 0, 0, 1, 1
IMU, 150022657, -0.0006183946, -0.0005899651, 0.0001880608, 0.4610695, 0.5404299, -9.772555, 0, 0, 0, 1, 1
GPS, 150060126, 3, 34509000, 1958, 11, 0.92, -34.0728998, 18.8399778, 80.12, 0.1081665, 236.3099, -0.01, 1
GPA, 150060126, 1.84, 2.93, 6.23, 0.91, 1, 150060
IMU, 150062697, 0.0003716714, 0.001514655, -0.0004334921, 0.4494785, 0.521024, -9.778712, 0, 0, 0, 1, 1
CURR, 150080212, 11.72002, 0, 0
CUR2, 150080222, 11.72002, 0, 3.756867
MAG, 150080237, 89, 12, -223, -208, 24, -34, 0, 0, 0, 1, 150080229
MAG2, 150080237, 89, 76, -259, -121, 141, -76, 0, 0, 0, 1, 150080232
BARO, 150082659, 0.6106694, 102032, 26.30, -0.3060223, 150082, 0
CTUN, 150082679, 0, 0, 0, 0.4812081, 0.8037314, 0.8037314, 0.61, 0.00, 0.00, 0, 0, 3
ATT, 150082735, 0.00, -3.08, 0.00, 1.09, 328.72, 328.23, 0.08, 0.05
NKF1, 150082740, -3.08, 1.09, 328.22, -0.04587717, 0.001668499, -0.03246527, 0, -1.587416, 0.1937227, -0.8037314, -0.01, 0.01, 0.19
NKF2, 150082740, 0, 0.00, 0.00, 0.00, 0.00, 0.00, 79, 0, -241, 0, 0, 0, 0
NKF3, 150082740, -0.13, 0.05, -0.15, -0.28, -0.38, -0.01, 0, 0, 0, -4.31, 0.00
NKF4, 150082740, 0.04, 0.02, 0.00, 0.05, 0.00, 0.0002442586, 0, 0, 0, 16, 9087, 0, 0
NKF5, 150082740, 0, 0, 0, 0, 0.17, -0.61, 0.07, 0.09, 0.15, 0.001970903, 0.01072816, 0.03131049
AHR2, 150082771, -2.82, 0.92, 333.18, 84.41, -34.0728998, 18.8399778
POS, 150082778, -34.0729022, 18.8399741, 83.81, 0.8037314
RATE, 150082781, 17.83105, -0.001110511, 0.04214901, 5.964334, 0.03893606, 0.01403836, 203.92, -0.2343003, 0.6413075, -1315.012, 0.8405685, 0
MOTB, 150082787, 1, 1, 0, 1
RCIN, 150082790, 1493, 1492, 982, 2002, 1550, 1494, 982, 982, 982, 982, 982, 982, 1494, 1494
RCOU, 150082795, 982, 982, 982, 982, 0, 0, 0, 0, 0, 0, 0, 0, 0, 0
VIBE, 150082802, 0.01704228, 0.02047784, 0.02884978, 0, 0, 0
CTRL, 150082807, 0.04196309, 0.0001306838, 0.01385122, 0.00013187, 0.6412703
IMU, 150102673, -0.0002761529, 0.0008595528, -0.001194268, 0.4425488, 0.5316604, -9.783697, 0, 0, 0, 1, 1
IMU, 150142684, -0.000165924, 0.0008795173, 3.793699E-05, 0.4480864, 0.5332276, -9.777901, 0, 0, 0, 1, 1
CURR, 150180237, 11.67653, 0, 0
CUR2, 150180245, 11.69827, 0, 3.756867
MAG, 150180263, 86, 7, -225, -208, 24, -34, 0, 0, 0, 1, 150180255
MAG2, 150180263, 84, 67, -253, -121, 141, -76, 0, 0, 0, 1, 150180258
BARO, 150182724, 0.7647121, 102030.3, 26.31, -0.3962817, 150182, 0
CTUN, 150182745, 0, 0, 0, 0.4812081, 0.8033258, 0.8033258, 0.76, 0.00, 0.00, 0, 0, 3
ATT, 150182800, 0.00, -3.09, 0.00, 1.08, 328.72, 328.23, 0.08, 0.06
NKF1, 150182805, -3.09, 1.08, 328.22, -0.04585368, -0.0009442699, -0.03214249, 0, -1.582053, 0.1958573, -0.8033258, -0.01, 0.01, 0.19
NKF2, 150182805, 0, 0.00, 0.00, 0.00, 0.00, 0.00, 79, 0, -241, 0, 0, 0, 0
NKF3, 150182805, 0.01, 0.08, -0.02, -0.28, -0.37, -0.11, 0, 0, 0, -2.51, 0.00
NKF4, 150182805, 0.01, 0.02, 0.00, 0.02, 0.00, 0.0001907052, 0, 0, 0, 16, 9087, 0, 0
NKF5, 150182805, 0, 0, 0, 0, 0.17, -0.61, 0.07, 0.09, 0.15, 0.001678588, 0.01005032, 0.02475668
AHR2, 150182834, -2.86, 0.98, 333.20, 84.56, -34.0728998, 18.8399778
POS, 150182842, -34.0729022, 18.8399741, 83.81, 0.8033258
RATE, 150182845, 17.83208, 0.03064738, 0.04193003, 5.984054, -0.009544567, 0.01416391, 203.9205, -0.2523143, 0.6412916, -1301.813, 1.261806, 0
MOTB, 150182851, 1, 1, 0, 1
RCIN, 150182854, 1493, 1493, 982, 2002, 1550, 1494, 982, 982, 982, 982, 982, 982, 1494, 1494
RCOU, 150182858, 982, 982, 982, 982, 0, 0, 0, 0, 0, 0, 0, 0, 0, 0
VIBE, 150182865, 0.01776102, 0.01768864, 0.03029019, 0, 0, 0
CTRL, 150182869, 0.04197539, 0.0001164509, 0.01390377, 0.0001343211, 0.641284
IMU, 150182877, 0.0002824544, 7.003697E-05, -0.0009268066, 0.4561058, 0.5351645, -9.78423, 0, 0, 0, 1, 1
IMU, 150222664, 2.200381E-06, 0.0005291169, -0.001757978, 0.4507553, 0.5343567, -9.788929, 0, 0, 0, 1, 1
GPS, 150260138, 3, 34509200, 1958, 11, 0.92, -34.0729, 18.8399779, 80.06, 0.09486832, 251.5651, 0.03, 1
GPA, 150260138, 1.84, 2.94, 6.24, 0.88, 1, 150260
IMU, 150262681, -0.000209398, 0.0009855046, -0.0001412636, 0.4627453, 0.5292381, -9.757137, 0, 0, 0, 1, 1
CURR, 150280215, 11.72002, 0, 0
CUR2, 150280222, 11.69827, 0.92, 3.782419
MAG, 150280239, 87, 5, -229, -208, 24, -34, 0, 0, 0, 1, 150280231
MAG2, 150280239, 84, 73, -260, -121, 141, -76, 0, 0, 0, 1, 150280234
BARO, 150282690, 0.6766877, 102031.3, 26.30, -0.2742167, 150282, 0
CTUN, 150282712, 0, 0, 0, 0.4812081, 0.8027654, 0.8027654, 0.67, 0.00, 0.00, 0, 0, 3
ATT, 150282782, 0.00, -3.09, 0.00, 1.08, 328.72, 328.22, 0.06, 0.07
NKF1, 150282788, -3.09, 1.08, 328.21, -0.04610393, -0.003185575, -0.03140184, 0, -1.579865, 0.1964765, -0.8027654, -0.01, 0.01, 0.19
NKF2, 150282788, 0, 0.00, 0.00, 0.00, 0.00, 0.00, 79, 0, -241, 0, 0, 0, 0
NKF3, 150282788, 0.01, 0.08, -0.02, -0.28, -0.37, -0.18, 0, 0, 0, -7.41, 0.00
NKF4, 150282788, 0.01, 0.02, 0.01, 0.08, 0.00, 0.0001512922, 0, 0, 0, 16, 9087, 0, 0
NKF5, 150282788, 0, 0, 0, 0, 0.16, -0.62, 0.07, 0.09, 0.15, 0.001670672, 0.00972659, 0.03062303
AHR2, 150282819, -2.89, 1.03, 333.24, 84.47, -34.0729, 18.8399779
POS, 150282826, -34.0729021, 18.8399741, 83.81, 0.8027654
RATE, 150282830, 17.82935, 0.05917619, 0.04158572, 5.987705, -0.03511316, 0.01427301, 203.9186, -0.1864127, 0.6413398, -1271.996, -0.8870125, 0
MOTB, 150282836, 1, 1, 0, 1
RCIN, 150282838, 1493, 1492, 982, 2002, 1550, 1494, 982, 982, 982, 982, 982, 982, 1494, 1494
RCOU, 150282843, 982, 982, 982, 982, 0, 0, 0, 0, 0, 0, 0, 0, 0, 0
VIBE, 150282850, 0.02072961, 0.01892551, 0.0275701, 0, 0, 0
CTRL, 150282855, 0.04198275, 0.0001141392, 0.01395283, 0.000148533, 0.6413239
RAD, 150292611, 182, 91, 96, 67, 71, 0, 0
RAD, 150292624, 182, 91, 96, 67, 71, 0, 0
IMU, 150302675, 0.001033226, 0.0005146936, 0.0003142298, 0.4370365, 0.5379435, -9.785079, 0, 0, 0, 1, 1
IMU, 150342733, 0.0001709365, 0.0009959725, -0.0003309109, 0.4496467, 0.5328936, -9.778946, 0, 0, 0, 1, 1
CURR, 150380239, 11.69827, 0, 0
CUR2, 150380247, 11.74176, 0, 3.782419
MAG, 150380263, 87, 15, -226, -208, 24, -34, 0, 0, 0, 1, 150380255
MAG2, 150380263, 78, 76, -261, -121, 141, -76, 0, 0, 0, 1, 150380258
BARO, 150382703, 0.7262014, 102030.7, 26.30, 0.005157654, 150382, 0
CTUN, 150382724, 0, 0, 0, 0.4812081, 0.8007352, 0.8007352, 0.72, 0.00, 0.00, 0, 0, 3
ATT, 150382783, 0.00, -3.09, 0.00, 1.08, 328.71, 328.22, 0.06, 0.06
NKF1, 150382790, -3.09, 1.08, 328.21, -0.04617028, -0.00523521, -0.03109768, 0, -1.57497, 0.1988857, -0.8007352, -0.01, 0.01, 0.19
NKF2, 150382790, 0, 0.00, 0.00, 0.00, 0.00, 0.00, 79, 0, -241, 0, 0, 0, 0
NKF3, 150382790, -0.01, 0.08, -0.05, -0.25, -0.38, -0.02, 0, 0, 0, -10.77, 0.00
NKF4, 150382790, 0.02, 0.02, 0.00, 0.12, 0.00, 0.0001303727, 0, 0, 0, 16, 9087, 0, 0
NKF5, 150382790, 0, 0, 0, 0, 0.16, -0.62, 0.07, 0.09, 0.15, 0.001898948, 0.008884135, 0.02294637
AHR2, 150382818, -2.88, 1.02, 333.32, 84.52, -34.0729, 18.8399779
POS, 150382825, -34.0729021, 18.8399741, 83.81, 0.8007352
RATE, 150382829, 17.82088, 0.06280503, 0.04171583, 5.999232, -0.01325261, 0.01417512, 203.9179, -0.2091189, 0.6412651, -1259.546, 0.9274483, 0
MOTB, 150382835, 1, 1, 0, 1
RCIN, 150382837, 1493, 1492, 982, 2002, 1550, 1494, 982, 982, 982, 982, 982, 982, 1494, 1494
RCOU, 150382842, 982, 982, 982, 982, 0, 0, 0, 0, 0, 0, 0, 0, 0, 0
VIBE, 150382850, 0.01989166, 0.01787299, 0.03331314, 0, 0, 0
CTRL, 150382854, 0.04196312, 0.0001286866, 0.01399525, 0.0001554374, 0.6413056
IMU, 150382862, 0.0008448367, 5.423868E-06, -0.0001917796, 0.4432591, 0.5326122, -9.781675, 0, 0, 0, 1, 1
UBX1, 150400189, 0, 80, 17, 1, 0
UBX2, 150400201, 0, -31, 147, 46, 68
IMU, 150422783, -0.0006014159, 0.0008177139, -0.0004975496, 0.461845, 0.5376217, -9.770892, 0, 0, 0, 1, 1
GPS, 150460153, 3, 34509400, 1958, 11, 0.92, -34.0729002, 18.8399778, 79.98, 0.1081665, 236.3099, 0.09999999, 1
GPA, 150460153, 1.84, 2.94, 6.25, 0.90, 1, 150460
IMU, 150462725, -0.0003020129, 0.001039745, -0.0009424709, 0.4570152, 0.5422859, -9.765333, 0, 0, 0, 1, 1
CURR, 150480236, 11.74176, 0, 0
CUR2, 150480244, 11.78525, 0, 3.782419
MAG, 150480260, 86, 25, -231, -208, 24, -34, 0, 0, 0, 1, 150480252
MAG2, 150480260, 77, 87, -257, -121, 141, -76, 0, 0, 0, 1, 150480255
BARO, 150482717, 0.8362319, 102029.4, 26.31, 0.1813785, 150482, 0
CTUN, 150482738, 0, 0, 0, 0.4812081, 0.7997123, 0.7997123, 0.83, 0.00, 0.00, 0, 0, 3
ATT, 150482798, 0.00, -3.09, 0.00, 1.08, 328.71, 328.22, 0.05, 0.07
NKF1, 150482803, -3.09, 1.08, 328.21, -0.04611058, -0.00713255, -0.03033363, 0, -1.57325, 0.1996164, -0.7997123, -0.01, 0.01, 0.19
NKF2, 150482803, 0, 0.00, 0.00, 0.00, 0.00, 0.00, 79, 0, -241, 0, 0, 0, 0
NKF3, 150482803, -0.01, 0.08, -0.05, -0.25, -0.38, -0.11, 0, 0, 0, -12.60, 0.00
NKF4, 150482803, 0.02, 0.02, 0.00, 0.14, 0.00, 0.0001158991, 0, 0, 0, 16, 9087, 0, 0
NKF5, 150482803, 0, 0, 0, 0, 0.16, -0.62, 0.06, 0.09, 0.15, 0.002259649, 0.00885525, 0.02855786
AHR2, 150482832, -2.87, 1.01, 333.30, 84.63, -34.0729002, 18.8399778
POS, 150482839, -34.0729021, 18.8399741, 83.8, 0.7997123
RATE, 150482844, 17.83057, 0.01790089, 0.0419476, 6.014801, 0.04609583, 0.01408415, 203.9191, -0.2953077, 0.6414042, -1228.659, 0.3577232, 0
MOTB, 150482850, 1, 1, 0, 1
RCIN, 150482853, 1493, 1492, 982, 2002, 1550, 1494, 982, 982, 982, 982, 982, 982, 1494, 1494
RCOU, 150482858, 982, 982, 982, 982, 0, 0, 0, 0, 0, 0, 0, 0, 0, 0
VIBE, 150482864, 0.01744182, 0.01878644, 0.02814243, 0, 0, 0
CTRL, 150482868, 0.04197492, 0.0001393083, 0.01403224, 0.0001527995, 0.6413115
IMU, 150502680, -0.0002869618, 0.0003011452, -0.0007231635, 0.4630075, 0.5443879, -9.779243, 0, 0, 0, 1, 1
IMU, 150542657, -0.001701312, 0.0004634312, 0.0001072837, 0.4501799, 0.5327742, -9.757493, 0, 0, 0, 1, 1
CURR, 150580224, 11.69827, 0, 0
CUR2, 150580232, 11.6113, 0, 3.782419
MAG, 150580246, 90, 24, -229, -208, 24, -34, 0, 0, 0, 1, 150580238
MAG2, 150580246, 77, 93, -258, -121, 141, -76, 0, 0, 0, 1, 150580241
BARO, 150582695, 0.5171434, 102033.1, 26.31, 0.1710631, 150582, 0
CTUN, 150582716, 0, 0, 0, 0.4812081, 0.7967407, 0.7967407, 0.51, 0.00, 0.00, 0, 0, 2
ATT, 150582776, 0.00, -3.09, 0.00, 1.08, 328.72, 328.22, 0.05, 0.08
NKF1, 150582782, -3.09, 1.08, 328.21, -0.04620112, -0.009101409, -0.02892947, 0, -1.570528, 0.2020386, -0.7967407, -0.01, 0.01, 0.19
NKF2, 150582782, 0, 0.00, 0.00, 0.00, 0.00, 0.00, 79, 0, -241, 0, 0, 0, 0
NKF3, 150582782, 0.01, 0.07, -0.12, -0.22, -0.36, -0.05, 0, 0, 0, -4.96, 0.00
NKF4, 150582782, 0.03, 0.01, 0.00, 0.05, 0.00, 9.905891E-05, 0, 0, 0, 16, 9087, 0, 0
NKF5, 150582782, 0, 0, 0, 0, 0.15, -0.62, 0.06, 0.09, 0.15, 0.00225705, 0.008866632, 0.02422544
AHR2, 150582813, -2.88, 1.03, 333.22, 84.31, -34.0729002, 18.8399778
POS, 150582820, -34.0729021, 18.8399741, 83.8, 0.7967407
RATE, 150582824, 17.83848, 0.02514152, 0.04194744, 6.024602, 0.04645113, 0.01407043, 203.9194, -0.1777777, 0.6412527, -1171.933, -0.1140594, 0
MOTB, 150582830, 1, 1, 0, 1
RCIN, 150582833, 1493, 1492, 982, 2002, 1550, 1494, 982, 982, 982, 982, 982, 982, 1494, 1494
RCOU, 150582838, 982, 982, 982, 982, 0, 0, 0, 0, 0, 0, 0, 0, 0, 0
VIBE, 150582846, 0.01640163, 0.01869936, 0.0319383, 0, 0, 0
CTRL, 150582850, 0.04199585, 0.0001688229, 0.01406846, 0.0001364201, 0.6413171
IMU, 150582858, 0.0001887553, 0.001047197, 0.0003362943, 0.4489549, 0.5379394, -9.77072, 0, 0, 0, 1, 1
IMU, 150622663, -0.0002318232, 0.001426211, -0.000917115, 0.4533627, 0.5299785, -9.755893, 0, 0, 0, 1, 1
GPS, 150660129, 3, 34509600, 1958, 11, 0.92, -34.0729003, 18.8399778, 80.01, 0.04123105, 255.9638, 0.05, 1
GPA, 150660129, 1.84, 2.94, 6.26, 0.87, 1, 150660
IMU, 150662678, 0.0001594767, 0.0005211715, 0.0002402297, 0.4612499, 0.5220039, -9.779844, 0, 0, 0, 1, 1
CURR, 150680213, 11.69827, 0, 0
CUR2, 150680221, 11.63304, 0, 3.782419
MAG, 150680235, 85, 8, -225, -208, 24, -34, 0, 0, 0, 1, 150680228
MAG2, 150680235, 78, 74, -257, -121, 141, -76, 0, 0, 0, 1, 150680231
BARO, 150682715, 0.7619613, 102030.3, 26.32, -0.01289422, 150682, 0
CTUN, 150682737, 0, 0, 0, 0.4812081, 0.7948857, 0.7948857, 0.76, 0.00, 0.00, 0, 0, 2
ATT, 150682827, 0.00, -3.09, 0.00, 1.08, 328.72, 328.23, 0.05, 0.08
NKF1, 150682832, -3.09, 1.08, 328.22, -0.0469042, -0.01143048, -0.02764781, 0, -1.570252, 0.2027812, -0.7948857, -0.01, 0.01, 0.19
NKF2, 150682832, 0, 0.00, 0.00, 0.00, 0.00, 0.00, 79, 0, -241, 0, 0, 0, 0
NKF3, 150682832, 0.01, 0.07, -0.12, -0.22, -0.36, 0.05, 0, 0, 0, 2.07, 0.00
NKF4, 150682832, 0.03, 0.01, 0.00, 0.02, 0.00, 8.696977E-05, 0, 0, 0, 16, 9087, 0, 0
NKF5, 150682832, 0, 0, 0, 0, 0.15, -0.62, 0.05, 0.09, 0.15, 0.001820989, 0.008298148, 0.02794945
AHR2, 150682861, -2.89, 1.04, 333.15, 84.56, -34.0729003, 18.8399778
POS, 150682868, -34.0729021, 18.8399741, 83.8, 0.7948857
RATE, 150682872, 17.84063, 0.02377573, 0.04201603, 6.037907, -0.009758743, 0.01430193, 203.9182, -0.1734048, 0.6412333, -1120.005, 0.108242, 0
MOTB, 150682878, 1, 1, 0, 1
RCIN, 150682880, 1493, 1492, 982, 2002, 1550, 1494, 982, 982, 982, 982, 982, 982, 1494, 1494
RCOU, 150682885, 982, 982, 982, 982, 0, 0, 0, 0, 0, 0, 0, 0, 0, 0
VIBE, 150682891, 0.01909776, 0.02109576, 0.03326816, 0, 0, 0
CTRL, 150682895, 0.0420031, 0.0001465187, 0.01410554, 0.0001358867, 0.641301
IMU, 150702681, 0.0001814536, -0.0007828993, -0.0001515428, 0.457708, 0.5343523, -9.771604, 0, 0, 0, 1, 1
IMU, 150742725, -2.481388E-05, 0.0009673722, -0.000838588, 0.4486519, 0.5416627, -9.784121, 0, 0, 0, 1, 1
CURR, 150780285, 11.69827, 0, 0
CUR2, 150780293, 11.67653, 0, 3.782419
MAG, 150780308, 85, 27, -224, -208, 24, -34, 0, 0, 0, 1, 150780300
MAG2, 150780308, 81, 87, -255, -121, 141, -76, 0, 0, 0, 1, 150780304
BARO, 150782686, 0.7289522, 102030.7, 26.32, -0.2312361, 150782, 0
CTUN, 150782708, 0, 0, 0, 0.4812081, 0.7926816, 0.7926816, 0.72, 0.00, 0.00, 0, 0, 2
ATT, 150782772, 0.00, -3.09, 0.00, 1.08, 328.72, 328.23, 0.05, 0.10
NKF1, 150782777, -3.09, 1.08, 328.22, -0.04659577, -0.01258321, -0.02688561, 0, -1.566651, 0.2070933, -0.7926816, -0.01, 0.01, 0.19
NKF2, 150782777, 0, 0.00, 0.00, 0.00, 0.00, 0.00, 79, 0, -241, 0, 0, 0, 0
NKF3, 150782777, -0.03, 0.02, -0.07, -0.20, -0.35, -0.26, 0, 0, 0, 1.42, 0.00
NKF4, 150782777, 0.01, 0.01, 0.01, 0.01, 0.00, 8.664174E-05, 0, 0, 0, 16, 9087, 0, 0
NKF5, 150782777, 0, 0, 0, 0, 0.14, -0.62, 0.05, 0.09, 0.15, 0.001342062, 0.005238058, 0.01928084
AHR2, 150782806, -2.84, 1.03, 333.20, 84.52, -34.0729003, 18.8399778
POS, 150782813, -34.072902, 18.8399742, 83.8, 0.7926816
RATE, 150782817, 17.83693, 0.06186429, 0.04164681, 6.038658, 0.07664701, 0.01379581, 203.9182, -0.1675469, 0.641234, -1088.968, 0.859642, 0
MOTB, 150782822, 1, 1, 0, 1
RCIN, 150782827, 1493, 1492, 982, 2002, 1550, 1494, 982, 982, 982, 982, 982, 982, 1494, 1494
RCOU, 150782832, 982, 982, 982, 982, 0, 0, 0, 0, 0, 0, 0, 0, 0, 0
VIBE, 150782839, 0.01831476, 0.01979774, 0.03267268, 0, 0, 0
CTRL, 150782843, 0.04200459, 0.0001409113, 0.01414001, 0.0001357296, 0.6412854
IMU, 150782852, 0.0008287532, 0.00157517, 0.0005232084, 0.449352, 0.5281935, -9.781021, 0, 0, 0, 1, 1
IMU, 150822650, -0.0002406441, 0.0006426963, 0.000357957, 0.456392, 0.5298378, -9.768792, 0, 0, 0, 1, 1
IMU, 150862661, -0.0006531173, -0.0002048943, -0.001352708, 0.4556842, 0.5342538, -9.783445, 0, 0, 0, 1, 1
GPS, 150880152, 3, 34509800, 1958, 11, 0.92, -34.0729002, 18.8399777, 80.04, 0.1746425, 283.2405, -0.03, 1
GPA, 150880152, 1.84, 2.94, 6.27, 0.62, 1, 150880
CURR, 150880226, 11.69827, 0, 0
CUR2, 150880231, 11.69827, 0, 3.782419
MAG, 150880244, 84, 27, -223, -208, 24, -34, 0, 0, 0, 1, 150880236
MAG2, 150880244, 84, 84, -259, -121, 141, -76, 0, 0, 0, 1, 150880240
BARO, 150882672, 0.6766877, 102031.3, 26.33, -0.1126094, 150882, 0
CTUN, 150882693, 0, 0, 0, 0.4812081, 0.7898777, 0.7898777, 0.67, 0.00, 0.00, 0, 0, 2
ATT, 150882753, 0.00, -3.09, 0.00, 1.08, 328.72, 328.22, 0.05, 0.11
NKF1, 150882758, -3.09, 1.08, 328.21, -0.04683437, -0.01380096, -0.02554333, 0, -1.565713, 0.2093001, -0.7898777, -0.01, 0.01, 0.19
NKF2, 150882758, 0, 0.00, 0.00, 0.00, 0.00, 0.00, 79, 0, -241, 0, 0, 0, 0
NKF3, 150882758, -0.03, 0.02, -0.07, -0.20, -0.35, -0.01, 0, 0, 0, -10.64, 0.00
NKF4, 150882758, 0.01, 0.01, 0.00, 0.12, 0.00, 8.692776E-05, 0, 0, 0, 16, 9087, 0, 0
NKF5, 150882758, 0, 0, 0, 0, 0.14, -0.62, 0.05, 0.09, 0.15, 0.001490382, 0.005918294, 0.0236022
AHR2, 150882786, -2.81, 1.01, 333.10, 84.47, -34.0729002, 18.8399777
POS, 150882793, -34.072902, 18.8399742, 83.79, 0.7898777
RATE, 150882799, 17.84535, -0.0306921, 0.0421722, 6.044272, 0.07339153, 0.01379002, 203.9173, -0.2444354, 0.6413866, -1034.785, -0.9859085, 0
MOTB, 150882804, 1, 1, 0, 1
RCIN, 150882807, 1493, 1492, 982, 2002, 1550, 1494, 982, 982, 982, 982, 982, 982, 1494, 1494
RCOU, 150882812, 982, 982, 982, 982, 0, 0, 0, 0, 0, 0, 0, 0, 0, 0
VIBE, 150882820, 0.01870793, 0.01675223, 0.03272807, 0, 0, 0
CTRL, 150882824, 0.04200708, 0.0001514834, 0.01414591, 0.0001407398, 0.6412734
EV, 150884782, 57
IMU, 150902767, -0.000423973, 0.0006796342, -0.0001896813, 0.4564697, 0.5304658, -9.764703, 0, 0, 0, 1, 1
IMU, 150942862, 0.0001708784, 0.0004711747, -0.0014118, 0.4608259, 0.539376, -9.78204, 0, 0, 0, 1, 1
CURR, 150980210, 11.72002, 0, 0
CUR2, 150980218, 11.69827, 0, 3.782419
MAG, 150980234, 89, 15, -216, -208, 24, -34, 0, 0, 0, 1, 150980225
MAG2, 150980234, 79, 88, -261, -121, 141, -76, 0, 0, 0, 1, 150980229
DU32, 150980251, 7, 386520
TERR, 150981798, 2, -34.072902, 18.8399742, 100, 81.27631, -0.01933289, 0, 336
BARO, 150982664, 0.6766877, 102031.3, 26.33, 0.1160478, 150982, 0
CTUN, 150982682, 0, 0, 0, 0.4812081, 0.7883191, 0.7883191, 0.67, 0.00, 0.00, 0, 0, 2
ATT, 150982767, 0.00, -3.10, 0.00, 1.07, 328.71, 328.21, 0.05, 0.09
NKF1, 150982774, -3.10, 1.07, 328.20, -0.04516005, -0.0173041, -0.02519256, 0, -1.560365, 0.2086248, -0.7883191, -0.01, 0.01, 0.19
NKF2, 150982774, 0, 0.00, 0.00, 0.00, 0.00, 0.00, 79, 0, -241, 0, 0, 0, 0
NKF3, 150982774, -0.08, 0.15, 0.00, -0.20, -0.35, -0.05, 0, 0, 0, 3.84, 0.00
NKF4, 150982774, 0.03, 0.01, 0.00, 0.04, 0.00, 0.0001265048, 0, 0, 0, 16, 9087, 0, 0
NKF5, 150982774, 0, 0, 0, 0, 0.14, -0.63, 0.05, 0.09, 0.15, 0.0009648451, 0.009234254, 0.02070235
AHR2, 150982803, -2.86, 0.96, 332.99, 84.47, -34.0729002, 18.8399777
POS, 150982810, -34.072902, 18.8399742, 83.79, 0.7883191
RATE, 150982813, 17.84579, 0.02421217, 0.04165779, 6.058161, 0.06747884, 0.01397958, 203.918, -0.233174, 0.64131, -1020.446, -0.4663467, 0
MOTB, 150982819, 1, 1, 0, 1
RCIN, 150982823, 1493, 1492, 982, 2002, 1550, 1494, 982, 982, 982, 982, 982, 982, 1494, 1494
RCOU, 150982828, 1011, 1011, 1011, 1011, 0, 0, 0, 0, 0, 0, 0, 0, 0, 0
VIBE, 150982836, 0.02144238, 0.01760185, 0.0332903, 0, 0, 0
CTRL, 150982840, 0.04202768, 0.0001599033, 0.01416064, 0.0001244665, 0.6412477
IMU, 150982850, 0.0001711133, 0.001418314, -0.0006084051, 0.4490238, 0.5302864, -9.767574, 0, 0, 0, 1, 1
IMU, 151022647, -0.0006174588, -0.001439544, 2.312909E-05, 0.4442265, 0.538387, -9.757197, 0, 0, 0, 1, 1
GPS, 151060129, 3, 34510000, 1958, 11, 0.92, -34.0729002, 18.8399777, 80.07, 0.04123105, 14.03624, -0.02, 1
GPA, 151060129, 1.84, 2.94, 6.27, 0.78, 1, 151060
IMU, 151062689, 0.0006647914, 0.0009970956, -0.0005622667, 0.4650705, 0.5293848, -9.77868, 0, 0, 0, 1, 1
CURR, 151080219, 11.72002, 0, 0
CUR2, 151080226, 11.69827, 0, 3.782419
MAG, 151080241, 88, 13, -222, -208, 24, -34, 0, 0, 0, 1, 151080233
MAG2, 151080241, 85, 74, -256, -121, 141, -76, 0, 0, 0, 1, 151080236
BARO, 151082706, 0.8197274, 102029.6, 26.34, 0.06103263, 151082, 0
CTUN, 151082725, 0, 0, 0, 0.4812081, 0.787343, 0.787343, 0.81, 0.00, 0.00, 0, 0, 2
ATT, 151082782, 0.00, -3.10, 0.00, 1.07, 328.70, 328.20, 0.06, 0.08
NKF1, 151082787, -3.10, 1.07, 328.19, -0.04367694, -0.02090004, -0.02429153, 0, -1.556597, 0.2065317, -0.787343, -0.01, 0.01, 0.19
NKF2, 151082787, 0, 0.00, 0.00, 0.00, 0.00, 0.00, 79, 0, -241, 0, 0, 0, 0
NKF3, 151082787, -0.08, 0.15, 0.00, -0.20, -0.35, -0.10, 0, 0, 0, 4.37, 0.00
NKF4, 151082787, 0.03, 0.01, 0.00, 0.05, 0.00, 0.0001669949, 0, 0, 0, 16, 9087, 0, 0
NKF5, 151082787, 0, 0, 0, 0, 0.14, -0.63, 0.05, 0.09, 0.15, 0.0005008423, 0.007155011, 0.02383016
AHR2, 151082816, -2.88, 0.92, 332.98, 84.61, -34.0729002, 18.8399777
POS, 151082823, -34.0729019, 18.8399742, 83.79, 0.787343
RATE, 151082827, 17.82402, -0.01052553, 0.04207173, 6.078044, 0.01230393, 0.01426527, 203.9192, -0.1602409, 0.6412781, -983.9603, 0.5598068, 0
MOTB, 151082832, 1, 1, 0, 1
RCIN, 151082835, 1493, 1493, 982, 2002, 1550, 1494, 982, 982, 982, 982, 982, 982, 1494, 1494
RCOU, 151082841, 1041, 1041, 1041, 1041, 0, 0, 0, 0, 0, 0, 0, 0, 0, 0
VIBE, 151082848, 0.02129761, 0.01919823, 0.0319845, 0, 0, 0
CTRL, 151082851, 0.04199906, 0.000181651, 0.01421529, 0.0001522192, 0.6412643
IMU, 151102663, 0.0005464221, 0.00129753, -0.0005457544, 0.4616627, 0.534182, -9.764427, 0, 0, 0, 1, 1
IMU, 151142652, -0.0001835696, 0.001633822, -0.001131294, 0.4563621, 0.5265932, -9.785616, 0, 0, 0, 1, 1
CURR, 151180224, 11.74176, 0, 0
CUR2, 151180231, 11.69827, 0, 3.782419
MAG, 151180247, 88, 15, -226, -208, 24, -34, 0, 0, 0, 1, 151180239
MAG2, 151180247, 86, 71, -258, -121, 141, -76, 0, 0, 0, 1, 151180243
BARO, 151182660, 0.6546816, 102031.5, 26.34, 0.03352499, 151182, 0
CTUN, 151182681, 0, 0, 0, 0.4812081, 0.7862563, 0.7862563, 0.65, 0.00, 0.00, 0, 0, 2
ATT, 151182738, 0.00, -3.10, 0.00, 1.07, 328.68, 328.18, 0.06, 0.06
NKF1, 151182742, -3.10, 1.07, 328.17, -0.04022569, -0.02173956, -0.02373318, 0, -1.547824, 0.2109853, -0.7862563, -0.01, 0.01, 0.19
NKF2, 151182742, 0, 0.00, 0.00, 0.00, 0.00, 0.00, 79, 0, -241, 0, 0, 0, 0
NKF3, 151182742, -0.08, -0.03, 0.00, -0.18, -0.33, -0.10, 0, 0, 0, -4.45, 0.00
NKF4, 151182742, 0.01, 0.01, 0.00, 0.05, 0.00, 0.0001778619, 0, 0, 0, 16, 9087, 0, 0
NKF5, 151182742, 0, 0, 0, 0, 0.14, -0.63, 0.04, 0.09, 0.15, 0.0004922404, 0.003176063, 0.006298771
AHR2, 151182769, -2.77, 0.98, 332.99, 84.45, -34.0729002, 18.8399777
POS, 151182777, -34.0729019, 18.8399742, 83.79, 0.7862563
RATE, 151182781, 17.82755, -0.01033224, 0.04206836, 6.080389, 0.05857876, 0.0142117, 203.9191, -0.239127, 0.6414157, -961.2938, -0.1077652, 0
MOTB, 151182787, 1, 1, 0, 1
RCIN, 151182790, 1493, 1493, 982, 2002, 1550, 1494, 982, 982, 982, 982, 982, 982, 1494, 1494
RCOU, 151182795, 1072, 1072, 1072, 1072, 0, 0, 0, 0, 0, 0, 0, 0, 0, 0
VIBE, 151182803, 0.02044049, 0.02206502, 0.03110451, 0, 0, 0
CTRL, 151182807, 0.04200138, 0.0001662587, 0.0142007, 0.0001522757, 0.6412982
IMU, 151182815, -0.0004331777, 0.001263689, -0.0007115225, 0.4648578, 0.5328491, -9.770286, 0, 0, 0, 1, 1
IMU, 151222641, 4.227207E-05, 0.0008918254, 0.0007292134, 0.4546062, 0.536813, -9.782799, 0, 0, 0, 1, 1
GPS, 151260137, 3, 34510200, 1958, 11, 0.92, -34.0729001, 18.8399778, 80.13, 0.07071067, 225, 0.09999999, 1
GPA, 151260137, 1.84, 2.93, 6.28, 0.85, 1, 151260
IMU, 151262705, -0.0001528663, 0.0004092871, -0.00106625, 0.4512575, 0.537563, -9.762284, 0, 0, 0, 1, 1
CURR, 151280225, 11.72002, 0, 0
CUR2, 151280232, 11.74176, 0, 3.782419
MAG, 151280245, 86, 20, -226, -208, 24, -34, 0, 0, 0, 1, 151280238
MAG2, 151280245, 79, 68, -259, -121, 141, -76, 0, 0, 0, 1, 151280241
BARO, 151282712, 0.68494, 102031.2, 26.34, 0.106592, 151282, 0
CTUN, 151282733, 0, 0, 0, 0.4812081, 0.7855257, 0.7855257, 0.68, 0.00, 0.00, 0, 0, 2
ATT, 151282789, 0.00, -3.10, 0.00, 1.07, 328.66, 328.17, 0.06, 0.06
NKF1, 151282794, -3.10, 1.07, 328.16, -0.03834765, -0.02248527, -0.02324738, 0, -1.542529, 0.2131201, -0.7855257, -0.01, 0.01, 0.19
NKF2, 151282794, 0, 0.00, 0.00, 0.00, 0.00, 0.00, 79, 0, -241, 0, 0, 0, 0
NKF3, 151282794, -0.08, -0.03, 0.00, -0.18, -0.33, 0.04, 0, 0, 0, -6.56, 0.00
NKF4, 151282794, 0.01, 0.01, 0.00, 0.07, 0.00, 0.0001842822, 0, 0, 0, 16, 9087, 0, 0
NKF5, 151282794, 0, 0, 0, 0, 0.14, -0.63, 0.04, 0.09, 0.15, 0.0005657612, 0.001580243, 0.01299292
AHR2, 151282824, -2.70, 1.03, 332.99, 84.48, -34.0729001, 18.8399778
POS, 151282831, -34.0729018, 18.8399743, 83.79, 0.7855257
RATE, 151282835, 17.81279, 0.06118455, 0.04169982, 6.094655, -0.0218019, 0.01452521, 203.9198, -0.2156002, 0.641293, -941.5834, 0.4560471, 0
MOTB, 151282841, 1, 1, 0, 1
RCIN, 151282843, 1493, 1492, 982, 2002, 1550, 1494, 982, 982, 982, 982, 982, 982, 1494, 1494
RCOU, 151282848, 1084, 1084, 1084, 1084, 0, 0, 0, 0, 0, 0, 0, 0, 0, 0
VIBE, 151282854, 0.0196791, 0.01936164, 0.02999796, 0, 0, 0
CTRL, 151282859, 0.04200138, 0.0001698265, 0.01423058, 0.0001480529, 0.6412959
IMU, 151302664, -0.0005536134, 0.0005550606, -0.001043813, 0.4555249, 0.5258668, -9.779145, 0, 0, 0, 1, 1
IMU, 151342682, 0.0008885114, 0.0003280624, -0.001377839, 0.4576744, 0.5418608, -9.776427, 0, 0, 0, 1, 1
CURR, 151380216, 11.69827, 0, 0
CUR2, 151380223, 11.69827, 0, 3.782419
MAG, 151380238, 87, 21, -227, -208, 24, -34, 0, 0, 0, 1, 151380230
MAG2, 151380238, 79, 80, -254, -121, 141, -76, 0, 0, 0, 1, 151380233
BARO, 151382650, 0.7949705, 102029.9, 26.35, -0.003438554, 151382, 0
CTUN, 151382672, 0, 0, 0, 0.4812081, 0.7834252, 0.7834252, 0.79, 0.00, 0.00, 0, 0, 2
ATT, 151382731, 0.00, -3.09, 0.00, 1.06, 328.65, 328.15, 0.06, 0.07
NKF1, 151382736, -3.09, 1.06, 328.14, -0.03674032, -0.02293435, -0.02261207, 0, -1.53713, 0.2178506, -0.7834252, -0.01, 0.01, 0.19
NKF2, 151382736, 0, 0.00, 0.00, 0.00, 0.00, 0.00, 79, 0, -241, 0, 0, 0, 0
NKF3, 151382736, 0.01, 0.02, -0.12, -0.19, -0.33, -0.12, 0, 0, 0, -5.14, 0.00
NKF4, 151382736, 0.02, 0.01, 0.00, 0.05, 0.00, 0.0001332329, 0, 0, 0, 16, 9087, 0, 0
NKF5, 151382736, 0, 0, 0, 0, 0.13, -0.63, 0.04, 0.09, 0.15, 0.0007058418, 0.002697787, 0.01115467
AHR2, 151382763, -2.76, 1.07, 332.94, 84.59, -34.0729001, 18.8399778
POS, 151382770, -34.0729018, 18.8399743, 83.79, 0.7834252
RATE, 151382773, 17.78772, 0.04760579, 0.04168826, 6.104394, 0.01005924, 0.01429481, 203.9214, -0.1755902, 0.641254, -915.918, 1.564503, 0
MOTB, 151382779, 1, 1, 0, 1
RCIN, 151382783, 1493, 1492, 982, 2002, 1550, 1494, 982, 982, 982, 982, 982, 982, 1494, 1494
RCOU, 151382788, 1084, 1084, 1084, 1084, 0, 0, 0, 0, 0, 0, 0, 0, 0, 0
VIBE, 151382797, 0.01843519, 0.01974642, 0.02864383, 0, 0, 0
CTRL, 151382800, 0.04196667, 0.0001615201, 0.014284, 0.0001297496, 0.6413118
IMU, 151382810, 0.0005786286, 0.0004165132, 0.0003847866, 0.4589152, 0.5402619, -9.786963, 0, 0, 0, 1, 1
IMU, 151422738, 0.0004025139, 0.001137438, -4.705452E-05, 0.455084, 0.5312495, -9.785471, 0, 0, 0, 1, 1
GPS, 151460125, 3, 34510400, 1958, 11, 0.92, -34.0729002, 18.839978, 80.15, 0.08544003, 249.444, 0.01, 1
GPA, 151460125, 1.84, 2.93, 6.29, 0.76, 1, 151460
IMU, 151462729, -0.001146341, 0.0005818207, 0.0008869211, 0.4691965, 0.5380237, -9.764847, 0, 0, 0, 1, 1
CURR, 151480216, 11.69827, 0, 0
CUR2, 151480225, 11.67653, 0, 3.782419
MAG, 151480240, 87, 5, -228, -208, 24, -34, 0, 0, 0, 1, 151480232
MAG2, 151480240, 81, 76, -259, -121, 141, -76, 0, 0, 0, 1, 151480235
BARO, 151482652, 0.8307304, 102029.5, 26.35, -0.01461344, 151482, 0
CTUN, 151482672, 0, 0, 0, 0.4812081, 0.7815315, 0.7815315, 0.83, 0.00, 0.00, 0, 0, 2
ATT, 151482729, 0.00, -3.09, 0.00, 1.06, 328.64, 328.14, 0.05, 0.08
NKF1, 151482735, -3.09, 1.06, 328.13, -0.03589701, -0.02361582, -0.02208252, 0, -1.5344, 0.2203057, -0.7815315, -0.01, 0.01, 0.19
NKF2, 151482735, 0, 0.00, 0.00, 0.00, 0.00, 0.00, 79, 0, -241, 0, 0, 0, 0
NKF3, 151482735, 0.01, 0.02, -0.12, -0.19, -0.33, -0.08, 0, 0, 0, -1.10, 0.00
NKF4, 151482735, 0.02, 0.01, 0.00, 0.01, 0.00, 9.389686E-05, 0, 0, 0, 16, 9087, 0, 0
NKF5, 151482735, 0, 0, 0, 0, 0.13, -0.63, 0.03, 0.09, 0.15, 0.0007016935, 0.003969682, 0.01755795
AHR2, 151482764, -2.82, 1.09, 332.89, 84.63, -34.0729002, 18.839978
POS, 151482772, -34.0729017, 18.8399743, 83.79, 0.7815315
RATE, 151482775, 17.78553, 0.03075823, 0.0414864, 6.10998, 0.01104106, 0.01451654, 203.9215, -0.1990495, 0.6411731, -894.4523, 1.42889, 0
MOTB, 151482781, 1, 1, 0, 1
RCIN, 151482784, 1493, 1492, 982, 2002, 1550, 1494, 982, 982, 982, 982, 982, 982, 1494, 1494
RCOU, 151482789, 1084, 1084, 1084, 1084, 0, 0, 0, 0, 0, 0, 0, 0, 0, 0
VIBE, 151482795, 0.01917289, 0.01816326, 0.03278324, 0, 0, 0
CTRL, 151482799, 0.04195718, 0.0001615911, 0.01429475, 0.000124575, 0.6412873
IMU, 151502662, 0.0002440062, -0.0002603199, -0.0006529735, 0.4539444, 0.5288209, -9.772563, 0, 0, 0, 1, 1
IMU, 151542671, -5.536596E-05, 0.0005707224, 0.0006561649, 0.4632655, 0.52916, -9.791779, 0, 0, 0, 1, 1
RAD, 151552603, 182, 91, 53, 67, 74, 0, 0
RAD, 151552617, 182, 91, 53, 67, 74, 0, 0
CURR, 151580212, 11.67653, 0, 0
CUR2, 151580220, 11.67653, 0, 3.782419
MAG, 151580235, 84, 10, -229, -208, 24, -34, 0, 0, 0, 1, 151580228
MAG2, 151580235, 89, 74, -252, -121, 141, -76, 0, 0, 0, 1, 151580231
BARO, 151582663, 0.7784659, 102030.1, 26.36, 0.264761, 151582, 0
CTUN, 151582685, 0, 0, 0, 0.4812081, 0.7795097, 0.7795097, 0.77, 0.00, 0.00, 0, 0, 2
ATT, 151582741, 0.00, -3.09, 0.00, 1.06, 328.62, 328.13, 0.05, 0.07
NKF1, 151582746, -3.09, 1.06, 328.12, -0.03456509, -0.02503175, -0.02204064, 0, -1.530217, 0.2240509, -0.7795097, -0.01, 0.01, 0.19
NKF2, 151582746, 0, 0.00, 0.00, 0.00, 0.00, 0.00, 79, 0, -241, 0, 0, 0, 0
NKF3, 151582746, 0.00, 0.05, -0.02, -0.18, -0.34, 0.02, 0, 0, 0, -0.80, 0.00
NKF4, 151582746, 0.01, 0.01, 0.00, 0.00, 0.00, 8.150488E-05, 0, 0, 0, 16, 9087, 0, 0
NKF5, 151582746, 0, 0, 0, 0, 0.13, -0.63, 0.03, 0.09, 0.15, 0.0006862784, 0.003665154, 0.01280199
AHR2, 151582775, -2.82, 1.08, 332.96, 84.57, -34.0729002, 18.839978
POS, 151582782, -34.0729017, 18.8399744, 83.78, 0.7795097
RATE, 151582786, 17.76793, 0.01108222, 0.04193394, 6.127013, 0.03212117, 0.01431787, 203.9225, -0.2143642, 0.6412354, -892.5044, 2.387238, 0
MOTB, 151582791, 1, 1, 0, 1
RCIN, 151582794, 1493, 1492, 982, 2002, 1550, 1494, 982, 982, 982, 982, 982, 982, 1494, 1494
RCOU, 151582799, 1084, 1084, 1084, 1084, 0, 0, 0, 0, 0, 0, 0, 0, 0, 0
VIBE, 151582808, 0.0193601, 0.02039094, 0.03522885, 0, 0, 0
CTRL, 151582812, 0.04191525, 0.0001476141, 0.01434864, 0.0001482027, 0.6412773
IMU, 151582820, -5.887584E-05, 0.0008022464, -0.0002894831, 0.4689392, 0.545857, -9.794427, 0, 0, 0, 1, 1
IMU, 151622654, 0.0002658442, -0.0003983036, 0.0002370493, 0.4605549, 0.5243746, -9.787113, 0, 0, 0, 1, 1
GPS, 151660123, 3, 34510600, 1958, 11, 0.92, -34.0729003, 18.8399782, 80.06, 0.07211103, 213.6901, 0.3, 1
GPA, 151660123, 1.84, 2.93, 6.30, 0.83, 1, 151660
IMU, 151662706, -0.000644716, 0.001226468, -0.0001523469, 0.4509026, 0.5269374, -9.782148, 0, 0, 0, 1, 1
CURR, 151680242, 11.72002, 0, 0
CUR2, 151680250, 11.69827, 0.92, 3.807984
MAG, 151680265, 83, 23, -227, -208, 24, -34, 0, 0, 0, 1, 151680258
MAG2, 151680265, 83, 82, -255, -121, 141, -76, 0, 0, 0, 1, 151680261
BARO, 151682677, 0.8279797, 102029.5, 26.35, 0.3851069, 151682, 0
CTUN, 151682699, 0, 0, 0, 0.4812081, 0.7790185, 0.7790185, 0.82, 0.00, 0.00, 0, 0, 2
ATT, 151682760, 0.00, -3.09, 0.00, 1.05, 328.61, 328.12, 0.04, 0.08
NKF1, 151682765, -3.09, 1.05, 328.11, -0.03430708, -0.02652112, -0.0221097, 0, -1.528512, 0.2255654, -0.7790185, -0.01, 0.01, 0.19
NKF2, 151682765, 0, 0.00, 0.00, 0.00, 0.00, 0.00, 79, 0, -241, 0, 0, 0, 0
NKF3, 151682765, 0.00, 0.05, -0.02, -0.18, -0.34, 0.05, 0, 0, 0, -12.35, 0.00
NKF4, 151682765, 0.01, 0.01, 0.00, 0.14, 0.00, 7.402917E-05, 0, 0, 0, 16, 9087, 0, 0
NKF5, 151682765, 0, 0, 0, 0, 0.13, -0.63, 0.03, 0.09, 0.15, 0.001239008, 0.005082165, 0.01941449
AHR2, 151682793, -2.83, 1.07, 332.99, 84.62, -34.0729003, 18.8399782
POS, 151682800, -34.0729017, 18.8399744, 83.78, 0.7790185
RATE, 151682803, 17.75855, 0.008481783, 0.04173658, 6.134317, 0.04382619, 0.01416548, 203.9231, -0.184705, 0.6412311, -895.4036, 0.7903099, 0
MOTB, 151682809, 1, 1, 0, 1
RCIN, 151682812, 1493, 1492, 982, 2002, 1550, 1494, 982, 982, 982, 982, 982, 982, 1494, 1494
RCOU, 151682817, 1084, 1084, 1084, 1084, 0, 0, 0, 0, 0, 0, 0, 0, 0, 0
VIBE, 151682824, 0.01959943, 0.01951364, 0.03209714, 0, 0, 0
CTRL, 151682828, 0.04188669, 0.0001435529, 0.0143864, 0.0001616395, 0.6412706
IMU, 151702779, -0.0007787574, 0.0007952738, 0.0001919089, 0.4495788, 0.5407443, -9.789934, 0, 0, 0, 1, 1
IMU, 151742644, -6.693357E-06, 0.001323423, -0.000434318, 0.4713995, 0.5247647, -9.781799, 0, 0, 0, 1, 1
CURR, 151780222, 11.67653, 0, 0
CUR2, 151780231, 11.65478, 0, 3.807984
MAG, 151780247, 82, 17, -230, -208, 24, -34, 0, 0, 0, 1, 151780239
MAG2, 151780247, 79, 77, -253, -121, 141, -76, 0, 0, 0, 1, 151780242
BARO, 151782669, 1.037038, 102027.1, 26.36, 0.2724975, 151782, 0
