FMT, 128, 89, FMT, BBnNZ, Type,Length,Name,Format,Columns
FMT, 129, 31, PARM, QNf, TimeUS,Name,Value
FMT, 130, 46, GPS, QBIHBcLLefffB, TimeUS,Status,GMS,GWk,NSats,HDop,Lat,Lng,Alt,Spd,GCrs,VZ,U
FMT, 131, 46, GPS2, QBIHBcLLefffB, TimeUS,Status,GMS,GWk,NSats,HDop,Lat,Lng,Alt,Spd,GCrs,VZ,U
FMT, 196, 24, GPA, QCCCCBI, TimeUS,VDop,HAcc,VAcc,SAcc,VV,SMS
FMT, 197, 24, GPA2, QCCCCBI, TimeUS,VDop,HAcc,VAcc,SAcc,VV,SMS
FMT, 132, 49, IMU, QffffffIIfBB, TimeUS,GyrX,GyrY,GyrZ,AccX,AccY,AccZ,ErrG,ErrA,Temp,GyHlt,AcHlt
FMT, 133, 75, MSG, QZ, TimeUS,Message
FMT, 134, 39, RCIN, QHHHHHHHHHHHHHH, TimeUS,C1,C2,C3,C4,C5,C6,C7,C8,C9,C10,C11,C12,C13,C14
FMT, 135, 39, RCOU, QHHHHHHHHHHHHHH, TimeUS,C1,C2,C3,C4,C5,C6,C7,C8,C9,C10,C11,C12,C13,C14
FMT, 136, 15, RSSI, Qf, TimeUS,RXRSSI
FMT, 138, 33, BARO, QffcfIf, TimeUS,Alt,Press,Temp,CRt,SMS,Offset
FMT, 139, 21, POWR, QffH, TimeUS,Vcc,VServo,Flags
FMT, 146, 45, CMD, QHHHfffffff, TimeUS,CTot,CNum,CId,Prm1,Prm2,Prm3,Prm4,Lat,Lng,Alt
FMT, 147, 20, RAD, QBBBBBHH, TimeUS,RSSI,RemRSSI,TxBuf,Noise,RemNoise,RxErrors,Fixed
FMT, 149, 43, CAM, QIHLLeeeccC, TimeUS,GPSTime,GPSWeek,Lat,Lng,Alt,RelAlt,GPSAlt,Roll,Pitch,Yaw
FMT, 218, 43, TRIG, QIHLLeeeccC, TimeUS,GPSTime,GPSWeek,Lat,Lng,Alt,RelAlt,GPSAlt,Roll,Pitch,Yaw
FMT, 166, 30, ARSP, QffcffB, TimeUS,Airspeed,DiffPress,Temp,RawPress,Offset,U
FMT, 168, 23, CURR, Qfff, TimeUS,Volt,Curr,CurrTot
FMT, 169, 23, CUR2, Qfff, TimeUS,Volt,Curr,CurrTot
FMT, 167, 27, ATT, QccccCCCC, TimeUS,DesRoll,Roll,DesPitch,Pitch,DesYaw,Yaw,ErrRP,ErrYaw
FMT, 170, 34, MAG, QhhhhhhhhhBI, TimeUS,MagX,MagY,MagZ,OfsX,OfsY,OfsZ,MOfsX,MOfsY,MOfsZ,Health,S
FMT, 173, 14, MODE, QMBB, TimeUS,Mode,ModeNum,Rsn
FMT, 198, 15, RFND, QCC, TimeUS,Dist1,Dist2
FMT, 209, 33, DMS, IIIIIBBBBBBBBBB, TimeMS,N,Dp,RT,RS,Er,Fa,Fmn,Fmx,Pa,Pmn,Pmx,Sa,Smn,Smx
FMT, 137, 49, IMU2, QffffffIIfBB, TimeUS,GyrX,GyrY,GyrZ,AccX,AccY,AccZ,ErrG,ErrA,Temp,GyHlt,AcHlt
FMT, 150, 49, IMU3, QffffffIIfBB, TimeUS,GyrX,GyrY,GyrZ,AccX,AccY,AccZ,ErrG,ErrA,Temp,GyHlt,AcHlt
FMT, 140, 29, AHR2, QccCfLL, TimeUS,Roll,Pitch,Yaw,Alt,Lat,Lng
FMT, 184, 27, POS, QLLff, TimeUS,Lat,Lng,Alt,RelAlt
FMT, 141, 29, SIM, QccCfLL, TimeUS,Roll,Pitch,Yaw,Alt,Lat,Lng
FMT, 142, 51, EKF1, QccCfffffffccc, TimeUS,Roll,Pitch,Yaw,VN,VE,VD,dPD,PN,PE,PD,GX,GY,GZ
FMT, 143, 30, EKF2, Qbbbcchhhhhh, TimeUS,Ratio,AZ1bias,AZ2bias,VWN,VWE,MN,ME,MD,MX,MY,MZ
FMT, 144, 31, EKF3, Qcccccchhhc, TimeUS,IVN,IVE,IVD,IPN,IPE,IPD,IMX,IMY,IMZ,IVT
FMT, 145, 34, EKF4, QcccccccbbHBHH, TimeUS,SV,SP,SH,SMX,SMY,SMZ,SVT,OFN,OFE,FS,TS,SS,GPS
FMT, 164, 28, EKF5, QBhhhcccCC, TimeUS,NI,FIX,FIY,AFI,HAGL,offset,RI,rng,Herr
FMT, 200, 51, NKF1, QccCfffffffccc, TimeUS,Roll,Pitch,Yaw,VN,VE,VD,dPD,PN,PE,PD,GX,GY,GZ
FMT, 201, 35, NKF2, QbccccchhhhhhB, TimeUS,AZbias,GSX,GSY,GSZ,VWN,VWE,MN,ME,MD,MX,MY,MZ,MI
FMT, 202, 33, NKF3, Qcccccchhhcc, TimeUS,IVN,IVE,IVD,IPN,IPE,IPD,IMX,IMY,IMZ,IYAW,IVT
FMT, 203, 35, NKF4, QcccccfbbHBHHb, TimeUS,SV,SP,SH,SM,SVT,errRP,OFN,OFE,FS,TS,SS,GPS,PI
FMT, 204, 40, NKF5, QBhhhcccCCfff, TimeUS,NI,FIX,FIY,AFI,HAGL,offset,RI,rng,Herr,eAng,eVel,ePos
FMT, 205, 51, NKF6, QccCfffffffccc, TimeUS,Roll,Pitch,Yaw,VN,VE,VD,dPD,PN,PE,PD,GX,GY,GZ
FMT, 206, 35, NKF7, QbccccchhhhhhB, TimeUS,AZbias,GSX,GSY,GSZ,VWN,VWE,MN,ME,MD,MX,MY,MZ,MI
FMT, 207, 33, NKF8, Qcccccchhhcc, TimeUS,IVN,IVE,IVD,IPN,IPE,IPD,IMX,IMY,IMZ,IYAW,IVT
FMT, 208, 35, NKF9, QcccccfbbHBHHb, TimeUS,SV,SP,SH,SM,SVT,errRP,OFN,OFE,FS,TS,SS,GPS,PI
FMT, 151, 34, TERR, QBLLHffHH, TimeUS,Status,Lat,Lng,Spacing,TerrH,CHeight,Pending,Loaded
FMT, 152, 18, UBX1, QBHBBH, TimeUS,Instance,noisePerMS,jamInd,aPower,agcCnt
FMT, 153, 16, UBX2, QBbBbB, TimeUS,Instance,ofsI,magI,ofsQ,magQ
FMT, 154, 18, UBY1, QBHBBH, TimeUS,Instance,noisePerMS,jamInd,aPower,agcCnt
FMT, 155, 16, UBY2, QBbBbB, TimeUS,Instance,ofsI,magI,ofsQ,magQ
FMT, 174, 42, GRAW, QIHBBddfBbB, TimeUS,WkMS,Week,numSV,sv,cpMes,prMes,doMes,mesQI,cno,lli
FMT, 175, 24, GRXH, QdHbBB, TimeUS,rcvTime,week,leapS,numMeas,recStat
FMT, 176, 41, GRXS, QddfBBBHBBBBB, TimeUS,prMes,cpMes,doMes,gnss,sv,freq,lock,cno,prD,cpD,doD,trk
FMT, 177, 63, SBFE, QIHBBdddfffff, TimeUS,TOW,WN,Mode,Err,Lat,Lng,Height,Undul,Vn,Ve,Vu,COG
FMT, 156, 19, ESC1, Qcccc, TimeUS,RPM,Volt,Curr,Temp
FMT, 157, 19, ESC2, Qcccc, TimeUS,RPM,Volt,Curr,Temp
FMT, 158, 19, ESC3, Qcccc, TimeUS,RPM,Volt,Curr,Temp
FMT, 159, 19, ESC4, Qcccc, TimeUS,RPM,Volt,Curr,Temp
FMT, 160, 19, ESC5, Qcccc, TimeUS,RPM,Volt,Curr,Temp
FMT, 161, 19, ESC6, Qcccc, TimeUS,RPM,Volt,Curr,Temp
FMT, 162, 19, ESC7, Qcccc, TimeUS,RPM,Volt,Curr,Temp
FMT, 163, 19, ESC8, Qcccc, TimeUS,RPM,Volt,Curr,Temp
FMT, 171, 34, MAG2, QhhhhhhhhhBI, TimeUS,MagX,MagY,MagZ,OfsX,OfsY,OfsZ,MOfsX,MOfsY,MOfsZ,Health,S
FMT, 172, 34, MAG3, QhhhhhhhhhBI, TimeUS,MagX,MagY,MagZ,OfsX,OfsY,OfsZ,MOfsX,MOfsY,MOfsZ,Health,S
FMT, 178, 31, ACC1, QQfff, TimeUS,SampleUS,AccX,AccY,AccZ
FMT, 179, 31, ACC2, QQfff, TimeUS,SampleUS,AccX,AccY,AccZ
FMT, 180, 31, ACC3, QQfff, TimeUS,SampleUS,AccX,AccY,AccZ
FMT, 181, 31, GYR1, QQfff, TimeUS,SampleUS,GyrX,GyrY,GyrZ
FMT, 182, 31, GYR2, QQfff, TimeUS,SampleUS,GyrX,GyrY,GyrZ
FMT, 183, 31, GYR3, QQfff, TimeUS,SampleUS,GyrX,GyrY,GyrZ
FMT, 185, 35, PIDR, Qffffff, TimeUS,Des,P,I,D,FF,AFF
FMT, 186, 35, PIDP, Qffffff, TimeUS,Des,P,I,D,FF,AFF
FMT, 187, 35, PIDY, Qffffff, TimeUS,Des,P,I,D,FF,AFF
FMT, 188, 35, PIDA, Qffffff, TimeUS,Des,P,I,D,FF,AFF
FMT, 189, 35, PIDS, Qffffff, TimeUS,Des,P,I,D,FF,AFF
FMT, 165, 33, BAR2, QffcfIf, TimeUS,Alt,Press,Temp,CRt,SMS,Offset
FMT, 199, 33, BAR3, QffcfI, TimeUS,Alt,Press,Temp,CRt,SMS
FMT, 190, 35, VIBE, QfffIII, TimeUS,VibeX,VibeY,VibeZ,Clip0,Clip1,Clip2
FMT, 191, 47, IMT, Qfffffffff, TimeUS,DelT,DelvT,DelaT,DelAX,DelAY,DelAZ,DelVX,DelVY,DelVZ
FMT, 192, 47, IMT2, Qfffffffff, TimeUS,DelT,DelvT,DelaT,DelAX,DelAY,DelAZ,DelVX,DelVY,DelVZ
FMT, 193, 47, IMT3, Qfffffffff, TimeUS,DelT,DelvT,DelaT,DelAX,DelAY,DelAZ,DelVX,DelVY,DelVZ
FMT, 194, 24, ORGN, QBLLe, TimeUS,Type,Lat,Lng,Alt
FMT, 195, 19, RPM, Qff, TimeUS,rpm1,rpm2
FMT, 219, 47, GMB1, Iffffffffff, TimeMS,dt,dax,day,daz,dvx,dvy,dvz,jx,jy,jz
FMT, 220, 44, GMB2, IBfffffffff, TimeMS,es,ex,ey,ez,rx,ry,rz,tx,ty,tz
FMT, 221, 13, GMB3, Ihhh, TimeMS,rl_torque_cmd,el_torque_cmd,az_torque_cmd
FMT, 222, 59, RATE, Qffffffffffff, TimeUS,RDes,R,ROut,PDes,P,POut,YDes,Y,YOut,ADes,A,AOut
FMT, 223, 23, RALY, QBBLLh, TimeUS,Tot,Seq,Lat,Lng,Alt
FMT, 210, 23, SBPH, QIII, TimeUS,CrcError,LastInject,IARhyp
FMT, 215, 80, SBR1, QHHBZ, TimeUS,msg_type,sender_id,msg_len,d1
FMT, 216, 205, SBR2, QHZZZ, TimeUS,msg_type,d2,d3,d4
FMT, 25, 41, ATUN, QBBfffffff, TimeUS,Axis,TuneStep,Targ,Min,Max,RP,RD,SP,ddt
FMT, 26, 19, ATDE, Qff, TimeUS,Angle,Rate
FMT, 31, 22, PTUN, QBfHHH, TimeUS,Param,TunVal,CtrlIn,TunLo,TunHi
FMT, 12, 28, OF, QBffff, TimeUS,Qual,flowX,flowY,bodyX,bodyY
FMT, 5, 51, NTUN, Qffffffffff, TimeUS,DPosX,DPosY,PosX,PosY,DVelX,DVelY,VelX,VelY,DAccX,DAccY
FMT, 4, 51, CTUN, Qffffffeccfhh, TimeUS,ThI,ABst,ThO,ThH,DAlt,Alt,BAlt,DSAlt,SAlt,TAlt,DCRt,CRt
FMT, 6, 28, PM, QHHIhBHI, TimeUS,NLon,NLoop,MaxT,PMT,I2CErr,INSErr,LogDrop
FMT, 30, 27, MOTB, Qffff, TimeUS,LiftMax,BatVolt,BatRes,ThLimit
FMT, 13, 12, EV, QB, TimeUS,Id
FMT, 20, 14, D16, QBh, TimeUS,Id,Value
FMT, 21, 14, DU16, QBH, TimeUS,Id,Value
FMT, 22, 16, D32, QBi, TimeUS,Id,Value
FMT, 23, 16, DU32, QBI, TimeUS,Id,Value
FMT, 24, 16, DFLT, QBf, TimeUS,Id,Value
FMT, 19, 13, ERR, QBB, TimeUS,Subsys,ECode
FMT, 32, 19, HELI, Qff, TimeUS,DRRPM,ERRPM
FMT, 33, 29, PL, QBBffff, TimeUS,Heal,TAcq,pX,pY,vX,vY
FMT, 34, 36, GUID, QBffffff, TimeUS,Type,pX,pY,pZ,vX,vY,vZ
FMT, 35, 32, THRO, QBffffbbbb, TimeUS,Stage,Vel,VelZ,Acc,AccEfZ,Throw,AttOk,HgtOk,PosOk
FMT, 36, 44, PRX, QBffffffff, TimeUS,Health,D0,D45,D90,D135,D180,D225,D270,D315
EV, 236473173, 10
MODE, 236473180, AltHold, 2, 1
FMT, 254, 31, CTRL, Qfffff, TimeUS,RMSRollP,RMSRollD,RMSPitchP,RMSPitchD,RMSYaw
GPS, 236531133, 3, 35433800, 1958, 11, 0.97, -34.0728751, 18.8400439, 70.71, 0.1442221, 33.69007, 0.02, 1
GPA, 236531133, 1.61, 3.90, 5.64, 1.02, 1, 236531
MSG, 236531219, APM:Copter V3.4.6 (5221448a)
MSG, 236531223, New mission
MSG, 236531226, Frame: QUAD
MODE, 236531229, AltHold, 2, 1
IMU, 236533740, -0.001918169, -0.0005437651, 0.001279474, 0.03619791, 0.301718, -9.784213, 0, 0, 0, 1, 1
CURR, 236571281, 16.69939, 0, 0.2014274
CUR2, 236571288, 16.63416, 0, 15.99924
MAG, 236571306, 65, 5, -263, -208, 24, -34, 0, 0, 0, 1, 236571297
MAG2, 236571306, 59, 76, -263, -121, 141, -76, 0, 0, 0, 1, 236571300
BARO, 236573687, -0.3187261, 102041.1, 31.55, -0.0243942, 236573, 0
CTUN, 236573713, 0, 0, 0, 0.3476103, -0.8222386, -0.8222386, -0.31, 0.00, 0.00, 0, 0, -16
ATT, 236573779, 0.00, -1.64, 0.00, -1.37, 324.19, 323.69, 0.03, 0.08
NKF1, 236573785, -1.64, -1.37, 323.68, -0.09733129, 0.238823, 0.1650191, 0, 1.337971, 5.571639, 0.8222386, 0.01, 0.06, 0.16
NKF2, 236573785, 0, 0.10, -0.05, -0.04, 0.00, 0.00, 93, 0, -231, 0, 0, 0, 0
NKF3, 236573785, -0.28, 0.20, 0.14, -1.15, 1.05, 0.29, 0, 0, 0, -5.19, 0.00
NKF4, 236573785, 0.07, 0.05, 0.01, 0.06, 0.00, 0.0006250678, 0, 0, 0, 16, 9087, 0, 0
NKF5, 236573785, 0, 0, 0, 0, 0.11, 0.88, 0.01, 0.09, 0.20, 0.001730703, 0.04523981, 0.1092735
AHR2, 236573816, -1.86, -1.86, 328.59, 72.42, -34.0728751, 18.8400439
POS, 236573822, -34.0728846, 18.8400546, 72.74, -0.8222386
RATE, 236573828, 2.609594, -0.1175652, 0.006255298, 12.05421, -0.05728848, 0.0286324, 204.5156, -0.157488, 0.6429856, 6683.374, -3.543377, 0
MOTB, 236573833, 1, 1, 0, 1
RCIN, 236573837, 1493, 1495, 982, 2002, 1550, 1494, 982, 982, 982, 982, 982, 982, 1494, 1494
RCOU, 236573843, 982, 982, 982, 982, 0, 0, 0, 0, 0, 0, 0, 0, 0, 0
VIBE, 236573850, 0.01859279, 0.01763986, 0.0300293, 0, 0, 0
CTRL, 236573854, 0.006646935, 0.0001639441, 0.02766765, 0.0001727312, 0.6416426
IMU, 236573864, -0.001765822, 0.0001658782, 0.0001230038, 0.04453061, 0.2928836, -9.763203, 0, 0, 0, 1, 1
IMU, 236613800, -0.0003456967, -0.0001684373, -0.0001902809, 0.04684351, 0.3078381, -9.766985, 0, 0, 0, 1, 1
IMU, 236653630, -0.0009059198, 0.0003821569, 0.0003175912, 0.04357213, 0.292219, -9.77721, 0, 0, 0, 1, 1
CURR, 236671244, 16.74288, 0, 0.2014274
CUR2, 236671253, 16.72114, 0, 15.99924
MAG, 236671268, 67, 3, -260, -208, 24, -34, 0, 0, 0, 1, 236671260
MAG2, 236671268, 61, 76, -263, -121, 141, -76, 0, 0, 0, 1, 236671263
BARO, 236673652, -0.4176411, 102042.3, 31.55, 0.2489318, 236673, 0
CTUN, 236673676, 0, 0, 0, 0.3476103, -0.8246242, -0.8246242, -0.41, 0.00, 0.00, 0, 0, -16
ATT, 236673746, 0.00, -1.66, 0.00, -1.39, 324.18, 323.68, 0.03, 0.10
NKF1, 236673753, -1.66, -1.39, 323.67, -0.08562224, 0.2257366, 0.1649075, 0, 1.367889, 5.556017, 0.8246242, 0.01, 0.06, 0.16
NKF2, 236673753, 0, 0.10, -0.05, -0.04, 0.00, 0.00, 93, 0, -231, 0, 0, 0, 0
NKF3, 236673753, -0.28, 0.20, 0.14, -1.15, 1.05, 0.31, 0, 0, 0, -1.87, 0.00
NKF4, 236673753, 0.07, 0.05, 0.02, 0.02, 0.00, 0.0006008398, 0, 0, 0, 16, 9087, 0, 0
NKF5, 236673753, 0, 0, 0, 0, 0.10, 0.88, 0.01, 0.09, 0.20, 0.001401409, 0.06146818, 0.166275
AHR2, 236673784, -1.74, -1.99, 328.68, 72.32, -34.0728751, 18.8400439
POS, 236673792, -34.0728844, 18.8400544, 72.74, -0.8246242
RATE, 236673796, 2.589622, -0.121654, 0.006489599, 12.20454, -0.05023407, 0.02907364, 204.5123, -0.2293889, 0.6430636, 6678.812, -2.57597, 0
MOTB, 236673803, 1, 1, 0, 1
RCIN, 236673807, 1493, 1496, 982, 2002, 1550, 1494, 982, 982, 982, 982, 982, 982, 1494, 1494
RCOU, 236673812, 982, 982, 982, 982, 0, 0, 0, 0, 0, 0, 0, 0, 0, 0
VIBE, 236673819, 0.01914014, 0.01890891, 0.03227405, 0, 0, 0
CTRL, 236673824, 0.006535375, 0.0001589142, 0.02802168, 0.0001624129, 0.6420979
IMU, 236693619, -0.0009104598, -0.0002633132, -0.0007637875, 0.03722179, 0.2963229, -9.77041, 0, 0, 0, 1, 1
GPS, 236711135, 3, 35434000, 1958, 11, 0.97, -34.0728745, 18.8400439, 70.74, 0.264764, 10.88553, 0.02, 1
GPA, 236711135, 1.61, 3.89, 5.63, 0.88, 1, 236711
IMU, 236733629, -0.0002178996, 7.639755E-11, -0.0004699607, 0.03763051, 0.2878138, -9.759223, 0, 0, 0, 1, 1
CURR, 236771254, 16.74288, 0, 0.2014274
CUR2, 236771262, 16.74288, 1.84, 16.05036
MAG, 236771277, 72, 7, -259, -208, 24, -34, 0, 0, 0, 1, 236771269
MAG2, 236771277, 57, 76, -259, -121, 141, -76, 0, 0, 0, 1, 236771272
BARO, 236773640, -0.5110608, 102043.4, 31.56, 0.3529063, 236773, 0
CTUN, 236773664, 0, 0, 0, 0.3476103, -0.8259081, -0.8259081, -0.51, 0.00, 0.00, 0, 0, -16
ATT, 236773725, 0.00, -1.67, 0.00, -1.41, 324.16, 323.67, 0.04, 0.11
NKF1, 236773730, -1.67, -1.41, 323.66, -0.07323737, 0.212798, 0.1645802, 0, 1.399817, 5.541135, 0.8259081, 0.01, 0.06, 0.16
NKF2, 236773730, 0, 0.10, -0.05, -0.04, 0.00, 0.00, 93, 0, -231, 0, 0, 0, 0
NKF3, 236773730, -0.39, 0.20, 0.14, -1.14, 1.02, 0.46, 0, 0, 0, -13.93, 0.00
NKF4, 236773730, 0.09, 0.05, 0.03, 0.16, 0.00, 0.0006012457, 0, 0, 0, 16, 9087, 0, 0
NKF5, 236773730, 0, 0, 0, 0, 0.11, 0.89, 0.01, 0.09, 0.20, 0.00179885, 0.03592507, 0.09727877
AHR2, 236773760, -1.67, -2.09, 328.78, 72.22, -34.0728745, 18.8400439
POS, 236773767, -34.0728841, 18.8400542, 72.74, -0.8259081
RATE, 236773771, 2.56214, -0.07530249, 0.006294214, 12.34235, -0.09011985, 0.02942959, 204.5106, -0.1781375, 0.643057, 6665.659, -2.345085, 0
MOTB, 236773777, 1, 1, 0, 1
RCIN, 236773781, 1493, 1495, 982, 2002, 1550, 1494, 982, 982, 982, 982, 982, 982, 1494, 1494
RCOU, 236773787, 982, 982, 982, 982, 0, 0, 0, 0, 0, 0, 0, 0, 0, 0
VIBE, 236773794, 0.01906602, 0.01899053, 0.03210865, 0, 0, 0
CTRL, 236773798, 0.006437038, 0.0001498164, 0.02837938, 0.0001672683, 0.6424298
IMU, 236773807, -0.001029945, -0.0004082701, -0.0002512756, 0.03982191, 0.2979874, -9.775038, 0, 0, 0, 1, 1
IMU, 236813636, -0.001309243, -0.001169773, 0.0001043594, 0.04815121, 0.292749, -9.764117, 0, 0, 0, 1, 1
IMU, 236853597, -0.00138079, -8.63362E-05, 0.0005203036, 0.03496793, 0.2872784, -9.77885, 0, 0, 0, 1, 1
CURR, 236871172, 16.76462, 0, 0.2014274
CUR2, 236871178, 16.67765, 0, 16.05036
MAG, 236871194, 69, 13, -256, -208, 24, -34, 0, 0, 0, 1, 236871186
MAG2, 236871194, 58, 68, -255, -121, 141, -76, 0, 0, 0, 1, 236871189
BARO, 236873607, -0.7418624, 102046.1, 31.57, -0.005919574, 236873, 0
CTUN, 236873629, 0, 0, 0, 0.3476103, -0.8260029, -0.8260029, -0.74, 0.00, 0.00, 0, 0, -16
ATT, 236873682, 0.00, -1.68, 0.00, -1.44, 324.15, 323.66, 0.04, 0.09
NKF1, 236873689, -1.68, -1.44, 323.65, -0.05901105, 0.1994378, 0.1632996, 0, 1.43712, 5.524769, 0.8260029, 0.01, 0.06, 0.16
NKF2, 236873689, 0, 0.10, -0.05, -0.04, 0.00, 0.00, 93, 0, -231, 0, 0, 0, 0
NKF3, 236873689, -0.39, 0.20, 0.14, -1.14, 1.02, 0.36, 0, 0, 0, -15.55, 0.00
NKF4, 236873689, 0.09, 0.05, 0.02, 0.18, 0.00, 0.0006314675, 0, 0, 0, 16, 9087, 0, 0
NKF5, 236873689, 0, 0, 0, 0, 0.11, 0.88, 0.01, 0.09, 0.19, 0.001612465, 0.05400553, 0.1530275
AHR2, 236873716, -1.64, -2.18, 328.85, 71.99, -34.0728745, 18.8400439
POS, 236873723, -34.0728837, 18.8400541, 72.74, -0.8260029
RATE, 236873727, 2.561813, -0.06991425, 0.006280949, 12.45736, 0.003674135, 0.02910257, 203.1903, -0.1918687, 0.6420623, 6613.92, -1.313019, 0
MOTB, 236873732, 1, 1, 0, 1
RCIN, 236873736, 1493, 1495, 982, 1976, 1550, 1494, 982, 982, 982, 982, 982, 982, 1494, 1494
RCOU, 236873741, 982, 982, 982, 982, 0, 0, 0, 0, 0, 0, 0, 0, 0, 0
VIBE, 236873749, 0.01894527, 0.01971173, 0.03325736, 0, 0, 0
CTRL, 236873753, 0.006370851, 0.0001453883, 0.02873518, 0.0001752872, 0.6426097
IMU, 236893636, -0.0009164115, -0.00103837, 0.0008044785, 0.03614661, 0.2905902, -9.769512, 0, 0, 0, 1, 1
GPS, 236931131, 3, 35434200, 1958, 11, 0.97, -34.0728739, 18.8400448, 70.69, 0.1824829, 80.53767, -0.15, 1
GPA, 236931131, 1.61, 3.89, 5.63, 0.91, 1, 236931
IMU, 236933634, -0.0008938643, -0.00137197, -4.454999E-06, 0.04802888, 0.298063, -9.787376, 0, 0, 0, 1, 1
CURR, 236971189, 16.78637, 0, 0.2014274
CUR2, 236971198, 16.78637, 0, 16.05036
MAG, 236971211, 64, 18, -258, -208, 24, -34, 0, 0, 0, 1, 236971203
MAG2, 236971211, 60, 79, -260, -121, 141, -76, 0, 0, 0, 1, 236971206
DU32, 236971228, 7, 17163736
TERR, 236972801, 2, -34.0728835, 18.840054, 100, 81.43743, -0.01191711, 0, 336
BARO, 236973624, -0.4616033, 102042.8, 31.57, -0.6217241, 236973, 0
CTUN, 236973641, 0, 0, 0, 0.3476103, -0.8269041, -0.8269041, -0.46, 0.00, 0.00, 0, 0, -16
ATT, 236973729, 0.00, -1.69, 0.00, -1.46, 324.10, 323.65, 0.05, 0.08
NKF1, 236973735, -1.69, -1.46, 323.64, -0.04758564, 0.1885893, 0.1625499, 0, 1.465496, 5.516944, 0.8269041, 0.01, 0.06, 0.16
NKF2, 236973735, 0, 0.10, -0.05, -0.04, 0.00, 0.00, 93, 0, -231, 0, 0, 0, 0
NKF3, 236973735, -0.13, 0.05, 0.31, -1.16, 0.94, 0.26, 0, 0, 0, -12.40, 0.00
NKF4, 236973735, 0.07, 0.05, 0.01, 0.14, 0.00, 0.0006364392, 0, 0, 0, 16, 9087, 0, 0
NKF5, 236973735, 0, 0, 0, 0, 0.12, 0.89, 0.01, 0.09, 0.19, 0.001733108, 0.04502406, 0.1140217
AHR2, 236973763, -1.63, -2.19, 328.86, 72.27, -34.0728739, 18.8400448
POS, 236973770, -34.0728835, 18.840054, 72.74, -0.8269041
RATE, 236973774, 3.009758, -0.09738702, 0.007666168, 12.01872, -0.0370596, 0.02780387, 183.4144, -0.1819889, 0.6030503, 6583.479, -3.015518, 0
MOTB, 236973780, 1, 1, 0, 1
RCIN, 236973783, 1492, 1495, 982, 1874, 1550, 1494, 982, 982, 982, 982, 982, 982, 1494, 1494
RCOU, 236973789, 982, 982, 982, 982, 0, 0, 0, 0, 0, 0, 0, 0, 0, 0
VIBE, 236973796, 0.01933535, 0.01891339, 0.03550476, 0, 0, 0
CTRL, 236973800, 0.006456226, 0.0002432494, 0.02890323, 0.0002715555, 0.6379119
IMU, 236973810, -0.001416164, 0.0005188772, -0.0003237801, 0.04094651, 0.2929662, -9.768434, 0, 0, 0, 1, 1
IMU, 237013608, -0.00214084, 0.0006239847, 0.0002134177, 0.03169548, 0.2927731, -9.766069, 0, 0, 0, 1, 1
IMU, 237053595, -0.002383622, 0.0006831116, -0.00020635, 0.03468877, 0.2962052, -9.78021, 0, 0, 0, 1, 1
CURR, 237071165, 16.76462, 0, 0.2014274
CUR2, 237071171, 16.82985, 0, 16.05036
MAG, 237071185, 67, 24, -256, -208, 24, -34, 0, 0, 0, 1, 237071178
MAG2, 237071185, 56, 88, -263, -121, 141, -76, 0, 0, 0, 1, 237071181
BARO, 237073614, -0.494575, 102043.2, 31.58, -0.6903442, 237073, 0
CTUN, 237073634, 0, 0, 0, 0.3476103, -0.8253489, -0.8253489, -0.49, 0.00, 0.00, 0, 0, -16
ATT, 237073694, 0.00, -1.70, 0.00, -1.48, 324.02, 323.65, 0.05, 0.09
NKF1, 237073699, -1.70, -1.48, 323.64, -0.0358443, 0.1781414, 0.1610415, 0, 1.500283, 5.505107, 0.8253489, 0.01, 0.06, 0.16
NKF2, 237073699, 0, 0.10, -0.05, -0.04, 0.00, 0.00, 93, 0, -231, 0, 0, 0, 0
NKF3, 237073699, -0.13, 0.05, 0.31, -1.16, 0.94, 0.04, 0, 0, 0, -7.26, 0.00
NKF4, 237073699, 0.07, 0.05, 0.00, 0.08, 0.00, 0.0005429338, 0, 0, 0, 16, 9087, 0, 0
NKF5, 237073699, 0, 0, 0, 0, 0.10, 0.89, 0.01, 0.09, 0.19, 0.001488858, 0.05912296, 0.1612571
AHR2, 237073727, -1.63, -2.06, 328.83, 72.24, -34.0728739, 18.8400448
POS, 237073735, -34.0728832, 18.8400539, 72.74, -0.8253489
RATE, 237073738, 3.68279, -0.07964714, 0.009037463, 11.33109, -0.02759366, 0.02633734, 156.1281, -0.2026853, 0.5203524, 6522.481, -2.733803, 0
MOTB, 237073744, 1, 1, 0, 1
RCIN, 237073748, 1493, 1495, 982, 1822, 1550, 1494, 982, 982, 982, 982, 982, 982, 1494, 1494
RCOU, 237073753, 982, 982, 982, 982, 0, 0, 0, 0, 0, 0, 0, 0, 0, 0
VIBE, 237073762, 0.01985105, 0.01964631, 0.03033361, 0, 0, 0
CTRL, 237073765, 0.007083391, 0.0003230564, 0.02847588, 0.0003493152, 0.6129275
IMU, 237093829, -0.001932899, -0.0001343053, -0.0009343157, 0.03635806, 0.3033213, -9.777664, 0, 0, 0, 1, 1
GPS, 237131102, 3, 35434400, 1958, 11, 0.97, -34.0728732, 18.8400459, 70.65, 0.3940812, 35.70669, -0.08, 1
GPA, 237131102, 1.61, 3.89, 5.62, 1.01, 1, 237131
IMU, 237133628, -0.001476489, -0.0002783731, -0.0005085237, 0.04363848, 0.2983401, -9.766106, 0, 0, 0, 1, 1
CURR, 237171223, 16.76462, 0, 0.2014274
CUR2, 237171232, 16.72114, 0.92, 16.07593
MAG, 237171246, 69, 24, -260, -208, 24, -34, 0, 0, 0, 1, 237171238
MAG2, 237171246, 64, 85, -263, -121, 141, -76, 0, 0, 0, 1, 237171241
BARO, 237173637, -0.3297166, 102041.3, 31.58, -0.02232458, 237173, 0
CTUN, 237173660, 0, 0, 0, 0.3476103, -0.8273655, -0.8273655, -0.32, 0.00, 0.00, 0, 0, -16
ATT, 237173718, 0.00, -1.71, 0.00, -1.50, 323.95, 323.64, 0.07, 0.09
NKF1, 237173724, -1.71, -1.50, 323.63, -0.02458519, 0.1701667, 0.1600192, 0, 1.529111, 5.501654, 0.8273655, 0.01, 0.06, 0.16
NKF2, 237173724, 0, 0.10, -0.05, -0.04, 0.00, 0.00, 93, 0, -231, 0, 0, 0, 0
NKF3, 237173724, -0.40, -0.01, 0.23, -1.15, 0.84, 0.32, 0, 0, 0, -2.21, 0.00
NKF4, 237173724, 0.09, 0.05, 0.02, 0.02, 0.00, 0.0004884598, 0, 0, 0, 16, 9087, 0, 0
NKF5, 237173724, 0, 0, 0, 0, 0.11, 0.89, 0.01, 0.09, 0.19, 0.001666037, 0.04228437, 0.1154808
AHR2, 237173756, -1.60, -2.04, 328.74, 72.41, -34.0728732, 18.8400459
POS, 237173763, -34.0728829, 18.8400538, 72.74, -0.8273655
RATE, 237173766, 4.383247, -0.1297456, 0.01113097, 10.63424, -0.04256385, 0.02491446, 128.8451, -0.2051348, 0.434805, 6481.065, -2.192307, 0
MOTB, 237173772, 1, 1, 0, 1
RCIN, 237173775, 1493, 1495, 982, 1730, 1550, 1494, 982, 982, 982, 982, 982, 982, 1494, 1494
RCOU, 237173780, 982, 982, 982, 982, 0, 0, 0, 0, 0, 0, 0, 0, 0, 0
VIBE, 237173787, 0.01952836, 0.02054538, 0.03028387, 0, 0, 0
CTRL, 237173792, 0.008092799, 0.0003718337, 0.02768095, 0.0003971134, 0.5707925
IMU, 237173803, -0.001980165, 0.0004356339, -0.00070417, 0.04764862, 0.3040976, -9.776249, 0, 0, 0, 1, 1
IMU, 237213609, -0.0008915698, -0.0002070627, -0.00077692, 0.0449681, 0.2905946, -9.777753, 0, 0, 0, 1, 1
IMU, 237253736, -0.001139005, 0.0001245307, -5.783565E-05, 0.04358659, 0.3051526, -9.772734, 0, 0, 0, 1, 1
CURR, 237271176, 16.78637, 0, 0.2014274
CUR2, 237271182, 16.78637, 0, 16.07593
MAG, 237271197, 70, 17, -261, -208, 24, -34, 0, 0, 0, 1, 237271190
MAG2, 237271197, 61, 84, -265, -121, 141, -76, 0, 0, 0, 1, 237271192
BARO, 237273618, -0.456108, 102042.7, 31.59, 0.6010459, 237273, 0
CTUN, 237273637, 0, 0, 0, 0.3476103, -0.827702, -0.827702, -0.45, 0.00, 0.00, 0, 0, -15
ATT, 237273696, 0.00, -1.72, 0.00, -1.53, 323.87, 323.63, 0.07, 0.08
NKF1, 237273701, -1.72, -1.53, 323.62, -0.00859394, 0.1622421, 0.1586537, 0, 1.573337, 5.497096, 0.827702, 0.01, 0.06, 0.16
NKF2, 237273701, 0, 0.10, -0.05, -0.04, 0.00, 0.00, 93, 0, -231, 0, 0, 0, 0
NKF3, 237273701, -0.40, -0.01, 0.23, -1.15, 0.84, 0.29, 0, 0, 0, 1.94, 0.00
NKF4, 237273701, 0.09, 0.05, 0.01, 0.02, 0.00, 0.0005191118, 0, 0, 0, 16, 9087, 0, 0
NKF5, 237273701, 0, 0, 0, 0, 0.11, 0.89, 0.01, 0.09, 0.19, 0.001350511, 0.0547979, 0.1551332
AHR2, 237273732, -1.49, -2.17, 328.66, 72.28, -34.0728732, 18.8400459
POS, 237273738, -34.0728825, 18.8400538, 72.74, -0.827702
RATE, 237273742, 5.065412, -0.06687043, 0.01244106, 9.92849, -0.09542809, 0.02323692, 101.5617, -0.2371447, 0.3491531, 6425.793, -1.942253, 0
MOTB, 237273748, 1, 1, 0, 1
RCIN, 237273753, 1493, 1495, 982, 1650, 1550, 1494, 982, 982, 982, 982, 982, 982, 1494, 1494
RCOU, 237273758, 982, 982, 982, 982, 0, 0, 0, 0, 0, 0, 0, 0, 0, 0
VIBE, 237273765, 0.01998146, 0.02032684, 0.03086837, 0, 0, 0
CTRL, 237273770, 0.009313618, 0.000391361, 0.02663273, 0.0004104576, 0.5176888
IMU, 237293608, -0.001627912, 4.10178E-05, 0.000172982, 0.04111437, 0.303562, -9.784052, 0, 0, 0, 1, 1
GPS, 237331094, 3, 35434600, 1958, 11, 0.97, -34.0728723, 18.8400465, 70.69, 0.4205948, 28.39302, 0.01, 1
GPA, 237331094, 1.61, 3.88, 5.62, 1.02, 1, 237331
IMU, 237333613, -0.002363923, -7.567704E-05, -0.0003429137, 0.02795629, 0.2910777, -9.767083, 0, 0, 0, 1, 1
CURR, 237371188, 16.82985, 0, 0.2014274
CUR2, 237371195, 16.76462, 0, 16.07593
MAG, 237371209, 69, 13, -259, -208, 24, -34, 0, 0, 0, 1, 237371201
MAG2, 237371209, 55, 75, -264, -121, 141, -76, 0, 0, 0, 1, 237371204
BARO, 237373611, -0.2802591, 102040.7, 31.59, 0.6353915, 237373, 0
CTUN, 237373632, 0, 0, 0, 0.3476103, -0.8284683, -0.8284683, -0.28, 0.00, 0.00, 0, 0, -15
ATT, 237373723, 0.00, -1.72, 0.00, -1.55, 323.79, 323.62, 0.06, 0.07
NKF1, 237373728, -1.72, -1.55, 323.61, 0.005036196, 0.155913, 0.1575429, 0, 1.610592, 5.497788, 0.8284683, 0.01, 0.06, 0.16
NKF2, 237373728, 0, 0.10, -0.05, -0.04, 0.00, 0.00, 93, 0, -231, 0, 0, 0, 0
NKF3, 237373728, -0.41, 0.00, 0.14, -1.15, 0.78, 0.46, 0, 0, 0, 1.29, 0.00
NKF4, 237373728, 0.09, 0.05, 0.03, 0.01, 0.00, 0.0005400594, 0, 0, 0, 16, 9087, 0, 0
NKF5, 237373728, 0, 0, 0, 0, 0.11, 0.89, 0.01, 0.09, 0.19, 0.001626803, 0.04042035, 0.1154776
AHR2, 237373753, -1.42, -2.27, 328.64, 72.45, -34.0728723, 18.8400465
POS, 237373761, -34.0728822, 18.8400538, 72.74, -0.8284683
RATE, 237373765, 5.784813, -0.09918093, 0.01445018, 9.204405, -0.03554414, 0.02132965, 74.28109, -0.1672547, 0.2632847, 6380.769, -2.202702, 0
MOTB, 237373770, 1, 1, 0, 1
RCIN, 237373773, 1492, 1495, 982, 1582, 1550, 1494, 982, 982, 982, 982, 982, 982, 1494, 1494
RCOU, 237373778, 982, 982, 982, 982, 0, 0, 0, 0, 0, 0, 0, 0, 0, 0
VIBE, 237373785, 0.01928467, 0.0177847, 0.03318889, 0, 0, 0
CTRL, 237373789, 0.01070586, 0.0004224822, 0.02539083, 0.0004435059, 0.4579673
IMU, 237373798, -0.001447148, 0.0005651495, -3.226319E-05, 0.043444, 0.2960193, -9.776381, 0, 0, 0, 1, 1
IMU, 237413619, -0.0004754595, 0.0001450992, -0.0004011732, 0.04500877, 0.2977259, -9.768629, 0, 0, 0, 1, 1
IMU, 237453609, -0.0005423339, -0.0002145054, -0.0009195165, 0.04942882, 0.2969922, -9.759648, 0, 0, 0, 1, 1
CURR, 237471171, 16.74288, 0, 0.2014274
CUR2, 237471178, 16.76462, 0, 16.07593
MAG, 237471191, 71, 23, -259, -208, 24, -34, 0, 0, 0, 1, 237471183
MAG2, 237471191, 59, 85, -263, -121, 141, -76, 0, 0, 0, 1, 237471186
BARO, 237473613, -0.2747639, 102040.7, 31.60, 0.4327531, 237473, 0
CTUN, 237473633, 0, 0, 0, 0.3476103, -0.8281099, -0.8281099, -0.27, 0.00, 0.00, 0, 0, -15
ATT, 237473687, 0.00, -1.72, 0.00, -1.57, 323.71, 323.60, 0.06, 0.07
NKF1, 237473692, -1.72, -1.57, 323.59, 0.02367304, 0.1489917, 0.157215, 0, 1.66204, 5.496463, 0.8281099, 0.01, 0.06, 0.16
NKF2, 237473692, 0, 0.10, -0.05, -0.04, 0.00, 0.00, 93, 0, -231, 0, 0, 0, 0
NKF3, 237473692, -0.41, 0.00, 0.14, -1.15, 0.78, 0.33, 0, 0, 0, -3.83, 0.00
NKF4, 237473692, 0.09, 0.05, 0.02, 0.04, 0.00, 0.0005576549, 0, 0, 0, 16, 9087, 0, 0
NKF5, 237473692, 0, 0, 0, 0, 0.11, 0.89, 0.01, 0.09, 0.19, 0.001372672, 0.05070914, 0.1468966
AHR2, 237473723, -1.42, -2.30, 328.66, 72.46, -34.0728723, 18.8400465
POS, 237473730, -34.0728817, 18.8400538, 72.74, -0.8281099
RATE, 237473734, 6.490302, -0.08570471, 0.01603516, 8.486288, -0.05456754, 0.01969696, 47.00147, -0.1395429, 0.1776455, 6367.239, -3.188896, 0
MOTB, 237473739, 1, 1, 0, 1
RCIN, 237473742, 1492, 1495, 982, 1527, 1550, 1494, 982, 982, 982, 982, 982, 982, 1494, 1494
RCOU, 237473747, 982, 982, 982, 982, 0, 0, 0, 0, 0, 0, 0, 0, 0, 0
VIBE, 237473754, 0.01755687, 0.01699752, 0.03018322, 0, 0, 0
CTRL, 237473758, 0.01214882, 0.0004308189, 0.02401931, 0.0004480699, 0.3950071
IMU, 237493711, -0.001645447, -0.0003461069, -0.0005119639, 0.03664806, 0.3002187, -9.75884, 0, 0, 0, 1, 1
GPS, 237531096, 3, 35434800, 1958, 11, 0.97, -34.0728716, 18.840047, 70.69, 0.1476482, 28.30076, 0.02, 1
GPA, 237531096, 1.61, 3.88, 5.62, 0.98, 1, 237531
IMU, 237533620, -0.001452289, 8.46108E-05, -0.0005282984, 0.03495173, 0.2977346, -9.781672, 0, 0, 0, 1, 1
CURR, 237571171, 16.74288, 0, 0.2014274
CUR2, 237571179, 16.74288, 0, 16.07593
MAG, 237571194, 73, 4, -262, -208, 24, -34, 0, 0, 0, 1, 237571186
MAG2, 237571194, 65, 69, -265, -121, 141, -76, 0, 0, 0, 1, 237571189
BARO, 237573612, -0.5934899, 102044.4, 31.61, 0.3108266, 237573, 0
CTUN, 237573633, 0, 0, 0, 0.3476103, -0.8283594, -0.8283594, -0.59, 0.00, 0.00, 0, 0, -15
ATT, 237573692, 0.00, -1.73, 0.00, -1.59, 323.63, 323.59, 0.08, 0.09
NKF1, 237573697, -1.73, -1.59, 323.58, 0.03805149, 0.1428785, 0.1561059, 0, 1.704038, 5.498199, 0.8283594, 0.01, 0.06, 0.16
NKF2, 237573697, 0, 0.10, -0.05, -0.04, 0.00, 0.00, 93, 0, -231, 0, 0, 0, 0
NKF3, 237573697, -0.13, 0.12, 0.13, -1.16, 0.72, 0.51, 0, 0, 0, -7.77, 0.00
NKF4, 237573697, 0.04, 0.04, 0.03, 0.09, 0.00, 0.0005588621, 0, 0, 0, 16, 9087, 0, 0
NKF5, 237573697, 0, 0, 0, 0, 0.11, 0.89, 0.00, 0.09, 0.19, 0.001455196, 0.03775365, 0.1036911
AHR2, 237573727, -1.48, -2.29, 328.60, 72.14, -34.0728716, 18.840047
POS, 237573735, -34.0728813, 18.8400538, 72.74, -0.8283594
RATE, 237573740, 7.239587, -0.1624137, 0.01827347, 7.762425, -0.04791103, 0.01788796, 19.72076, -0.17832, 0.09186623, 6322.564, -2.325726, 0
MOTB, 237573745, 1, 1, 0, 1
RCIN, 237573748, 1493, 1495, 982, 1490, 1550, 1494, 982, 982, 982, 982, 982, 982, 1494, 1494
RCOU, 237573754, 982, 982, 982, 982, 0, 0, 0, 0, 0, 0, 0, 0, 0, 0
VIBE, 237573761, 0.01798048, 0.01725656, 0.03232405, 0, 0, 0
CTRL, 237573766, 0.0137233, 0.0004715169, 0.022562, 0.0004540813, 0.3320351
IMU, 237573776, -0.002550835, 0.0003511315, -0.0002270527, 0.03181995, 0.294728, -9.775182, 0, 0, 0, 1, 1
IMU, 237613613, -0.001289527, -0.0002488735, 0.0009834667, 0.03225118, 0.3063068, -9.787735, 0, 0, 0, 1, 1
IMU, 237653639, -0.001261702, 0.0002708451, -0.000506306, 0.03890733, 0.3029106, -9.77356, 0, 0, 0, 1, 1
CURR, 237671215, 16.76462, 0, 0.2014274
CUR2, 237671221, 16.74288, 0, 16.07593
MAG, 237671236, 69, 24, -263, -208, 24, -34, 0, 0, 0, 1, 237671228
MAG2, 237671236, 50, 92, -259, -121, 141, -76, 0, 0, 0, 1, 237671231
BARO, 237673639, -0.3297166, 102041.3, 31.61, 0.005151815, 237673, 0
CTUN, 237673659, 0, 0, 0, 0.3476103, -0.8264165, -0.8264165, -0.32, 0.00, 0.00, 0, 0, -15
ATT, 237673718, 0.00, -1.73, 0.00, -1.61, 323.57, 323.58, 0.08, 0.09
NKF1, 237673724, -1.73, -1.61, 323.57, 0.05304983, 0.1346409, 0.1542805, 0, 1.751155, 5.493259, 0.8264165, 0.01, 0.06, 0.16
NKF2, 237673724, 0, 0.10, -0.05, -0.04, 0.00, 0.00, 93, 0, -231, 0, 0, 0, 0
NKF3, 237673724, -0.13, 0.12, 0.13, -1.16, 0.72, 0.51, 0, 0, 0, 0.14, 0.00
NKF4, 237673724, 0.04, 0.04, 0.03, 0.00, 0.00, 0.0004961768, 0, 0, 0, 16, 9087, 0, 0
NKF5, 237673724, 0, 0, 0, 0, 0.11, 0.89, 0.00, 0.09, 0.19, 0.001176656, 0.04971907, 0.1402255
AHR2, 237673755, -1.62, -2.21, 328.69, 72.41, -34.0728716, 18.840047
POS, 237673762, -34.0728809, 18.8400537, 72.74, -0.8264165
RATE, 237673766, 7.795078, -0.07528098, 0.01851056, 7.264547, -0.06962945, 0.01725447, -0.1103878, -0.1692908, 0.01309768, 6248.634, -2.082062, 0
MOTB, 237673771, 1, 1, 0, 1
RCIN, 237673774, 1493, 1495, 982, 1490, 1550, 1494, 982, 982, 982, 982, 982, 982, 1494, 1494
RCOU, 237673780, 982, 982, 982, 982, 0, 0, 0, 0, 0, 0, 0, 0, 0, 0
VIBE, 237673787, 0.02153793, 0.0198894, 0.03387747, 0, 0, 0
CTRL, 237673791, 0.01532801, 0.0004505433, 0.0210673, 0.0004371127, 0.2731921
IMU, 237693631, -0.0009164641, 0.0007345786, -0.0008744971, 0.04024912, 0.2963517, -9.773609, 0, 0, 0, 1, 1
GPS, 237731091, 3, 35435000, 1958, 11, 0.97, -34.072871, 18.8400477, 70.68, 0.4304649, 59.26451, -0.01, 1
GPA, 237731091, 1.61, 3.88, 5.61, 1.02, 1, 237731
IMU, 237733605, 0.0004244175, -1.657361E-05, 0.0006426558, 0.0252181, 0.2989448, -9.775508, 0, 0, 0, 1, 1
CURR, 237771204, 16.76462, 0, 0.2014274
CUR2, 237771213, 16.72114, 1.84, 16.12704
MAG, 237771227, 66, 15, -259, -208, 24, -34, 0, 0, 0, 1, 237771220
MAG2, 237771227, 63, 88, -260, -121, 141, -76, 0, 0, 0, 1, 237771222
BARO, 237773629, -0.494575, 102043.2, 31.62, -0.3829521, 237773, 0
CTUN, 237773651, 0, 0, 0, 0.3476103, -0.8253337, -0.8253337, -0.49, 0.00, 0.00, 0, 0, -15
ATT, 237773709, 0.00, -1.73, 0.00, -1.63, 323.56, 323.57, 0.09, 0.07
NKF1, 237773715, -1.73, -1.63, 323.56, 0.06483411, 0.1285589, 0.1531633, 0, 1.791064, 5.495284, 0.8253337, 0.01, 0.06, 0.16
NKF2, 237773715, 0, 0.10, -0.05, -0.04, 0.00, 0.00, 93, 0, -231, 0, 0, 0, 0
NKF3, 237773715, -0.20, -0.19, 0.16, -1.15, 0.68, 0.18, 0, 0, 0, -14.49, 0.00
NKF4, 237773715, 0.06, 0.04, 0.01, 0.16, 0.00, 0.0004526555, 0, 0, 0, 16, 9087, 0, 0
NKF5, 237773715, 0, 0, 0, 0, 0.11, 0.89, 0.01, 0.09, 0.20, 0.001266792, 0.05001701, 0.1305016
AHR2, 237773744, -1.64, -2.14, 328.62, 72.24, -34.072871, 18.8400477
POS, 237773751, -34.0728806, 18.8400537, 72.74, -0.8253337
RATE, 237773755, 7.807152, -0.124153, 0.01879184, 7.34228, -0.04551855, 0.01718218, -0.1108642, -0.1916108, 0.000835813, 6203.382, -1.681995, 0
MOTB, 237773760, 1, 1, 0, 1
RCIN, 237773764, 1492, 1495, 982, 1489, 1550, 1494, 982, 982, 982, 982, 982, 982, 1494, 1494
RCOU, 237773769, 982, 982, 982, 982, 0, 0, 0, 0, 0, 0, 0, 0, 0, 0
VIBE, 237773776, 0.02066923, 0.02106229, 0.03214377, 0, 0, 0
CTRL, 237773780, 0.01645971, 0.0003893309, 0.01991622, 0.0003709987, 0.2234633
IMU, 237773789, -0.001885897, 0.0003904185, -0.0004692221, 0.03310695, 0.2984256, -9.781488, 0, 0, 0, 1, 1
IMU, 237813620, -0.001602567, 0.0001209539, -0.0009052464, 0.0421138, 0.2944079, -9.76847, 0, 0, 0, 1, 1
RAD, 237853595, 187, 97, 21, 63, 74, 0, 0
RAD, 237853609, 187, 97, 21, 63, 74, 0, 0
IMU, 237853635, -0.0008507118, 0.001153314, -0.0007156547, 0.04606251, 0.2969785, -9.77819, 0, 0, 0, 1, 1
CURR, 237871245, 16.76462, 0, 0.2014274
CUR2, 237871253, 16.76462, 0, 16.12704
MAG, 237871267, 70, 22, -262, -208, 24, -34, 0, 0, 0, 1, 237871260
MAG2, 237871267, 64, 82, -265, -121, 141, -76, 0, 0, 0, 1, 237871262
BARO, 237873608, -0.4451174, 102042.6, 31.62, -0.350324, 237873, 0
CTUN, 237873630, 0, 0, 0, 0.3476103, -0.8243086, -0.8243086, -0.44, 0.00, 0.00, 0, 0, -15
ATT, 237873686, 0.00, -1.73, 0.00, -1.64, 323.54, 323.55, 0.09, 0.08
NKF1, 237873692, -1.73, -1.64, 323.54, 0.07921739, 0.124528, 0.1520362, 0, 1.839019, 5.500714, 0.8243085, 0.01, 0.06, 0.16
NKF2, 237873692, 0, 0.10, -0.05, -0.04, 0.00, 0.00, 93, 0, -231, 0, 0, 0, 0
NKF3, 237873692, -0.20, -0.19, 0.16, -1.15, 0.68, 0.46, 0, 0, 0, 1.26, 0.00
NKF4, 237873692, 0.06, 0.04, 0.03, 0.01, 0.00, 0.0004304725, 0, 0, 0, 16, 9087, 0, 0
NKF5, 237873692, 0, 0, 0, 0, 0.11, 0.89, 0.01, 0.09, 0.20, 0.001001045, 0.05633575, 0.1548213
AHR2, 237873720, -1.47, -2.09, 328.62, 72.29, -34.072871, 18.8400477
POS, 237873728, -34.0728801, 18.8400538, 72.74, -0.8243085
RATE, 237873731, 7.815922, -0.08549453, 0.0187022, 7.406084, -0.0241289, 0.0175637, -0.1081133, -0.1639049, 0.0002853349, 6157.735, -2.048206, 0
MOTB, 237873737, 1, 1, 0, 1
RCIN, 237873740, 1492, 1495, 982, 1490, 1550, 1494, 982, 982, 982, 982, 982, 982, 1494, 1494
RCOU, 237873745, 982, 982, 982, 982, 0, 0, 0, 0, 0, 0, 0, 0, 0, 0
VIBE, 237873752, 0.02183594, 0.02150279, 0.03089154, 0, 0, 0
CTRL, 237873756, 0.01720092, 0.0003204496, 0.0191361, 0.0003207768, 0.1827723
IMU, 237893604, -0.002084134, 0.0002461014, -0.0002500019, 0.05060539, 0.3016406, -9.782279, 0, 0, 0, 1, 1
GPS, 237931150, 3, 35435200, 1958, 11, 0.97, -34.0728703, 18.8400483, 70.75, 0.311127, 45, -0.01, 1
GPA, 237931150, 1.61, 3.88, 5.61, 1.01, 1, 237931
IMU, 237933654, -0.001490422, -0.001022878, -0.0005791929, 0.03396641, 0.2875356, -9.776484, 0, 0, 0, 1, 1
CURR, 237971258, 16.76462, 0, 0.2014274
CUR2, 237971266, 16.69939, 0, 16.12704
MAG, 237971281, 71, 7, -263, -208, 24, -34, 0, 0, 0, 1, 237971273
MAG2, 237971281, 63, 77, -263, -121, 141, -76, 0, 0, 0, 1, 237971276
DU32, 237971297, 7, 17163736
TERR, 237972893, 2, -34.0728798, 18.8400539, 100, 81.47015, -0.04463196, 0, 336
BARO, 237973636, -0.5660136, 102044, 31.63, -0.1476856, 237973, 0
CTUN, 237973651, 0, 0, 0, 0.3476103, -0.823539, -0.823539, -0.56, 0.00, 0.00, 0, 0, -15
ATT, 237973755, 0.00, -1.74, 0.00, -1.66, 323.53, 323.54, 0.09, 0.08
NKF1, 237973760, -1.74, -1.66, 323.53, 0.09107351, 0.1205348, 0.1513332, 0, 1.879171, 5.508959, 0.823539, 0.01, 0.06, 0.16
NKF2, 237973760, 0, 0.10, -0.05, -0.04, 0.00, 0.00, 93, 0, -231, 0, 0, 0, 0
NKF3, 237973760, -0.17, -0.04, 0.15, -1.15, 0.63, 0.29, 0, 0, 0, -5.81, 0.00
NKF4, 237973760, 0.05, 0.04, 0.01, 0.06, 0.00, 0.0004116651, 0, 0, 0, 16, 9087, 0, 0
NKF5, 237973760, 0, 0, 0, 0, 0.11, 0.89, 0.01, 0.09, 0.20, 0.001106671, 0.04755043, 0.1246765
AHR2, 237973790, -1.41, -2.08, 328.56, 72.17, -34.0728703, 18.8400483
POS, 237973797, -34.0728798, 18.8400539, 72.74, -0.823539
RATE, 237973801, 7.826922, -0.04236867, 0.01838391, 7.479198, -0.07257391, 0.01795485, -0.1078213, -0.213161, 0.0003405238, 6129.167, -2.516174, 0
MOTB, 237973806, 1, 1, 0, 1
RCIN, 237973810, 1492, 1495, 982, 1499, 1550, 1494, 982, 982, 982, 982, 982, 982, 1494, 1494
RCOU, 237973815, 982, 982, 982, 982, 0, 0, 0, 0, 0, 0, 0, 0, 0, 0
VIBE, 237973822, 0.01977772, 0.02050667, 0.03293308, 0, 0, 0
CTRL, 237973825, 0.01769623, 0.00027934, 0.01867699, 0.0002807977, 0.1494908
IMU, 237973834, -0.0004567633, -6.871534E-05, -0.0008175513, 0.03877492, 0.2989025, -9.773067, 0, 0, 0, 1, 1
IMU, 238013641, -0.0005523167, 0.0007289761, 0.0006641761, 0.04074157, 0.3028543, -9.770645, 0, 0, 0, 1, 1
IMU, 238053644, -0.001544735, -0.0003110147, -0.0008855353, 0.03535996, 0.3031689, -9.777624, 0, 0, 0, 1, 1
CURR, 238071175, 16.72114, 0, 0.2014274
CUR2, 238071181, 16.76462, 0, 16.12704
MAG, 238071196, 70, 8, -259, -208, 24, -34, 0, 0, 0, 1, 238071188
MAG2, 238071196, 63, 78, -266, -121, 141, -76, 0, 0, 0, 1, 238071191
BARO, 238073614, -0.5385371, 102043.7, 31.63, -0.2283975, 238073, 0
CTUN, 238073634, 0, 0, 0, 0.3476103, -0.8229465, -0.8229465, -0.53, 0.00, 0.00, 0, 0, -14
ATT, 238073690, 0.00, -1.74, 0.00, -1.67, 323.52, 323.53, 0.09, 0.09
NKF1, 238073696, -1.74, -1.67, 323.52, 0.10523, 0.1169609, 0.1498067, 0, 1.927689, 5.515289, 0.8229465, 0.01, 0.06, 0.16
NKF2, 238073696, 0, 0.10, -0.05, -0.04, 0.00, 0.00, 93, 0, -231, 0, 0, 0, 0
NKF3, 238073696, -0.17, -0.04, 0.15, -1.15, 0.63, 0.34, 0, 0, 0, -0.46, 0.00
NKF4, 238073696, 0.05, 0.04, 0.02, 0.00, 0.00, 0.0003819183, 0, 0, 0, 16, 9087, 0, 0
NKF5, 238073696, 0, 0, 0, 0, 0.11, 0.89, 0.01, 0.09, 0.20, 0.0008910213, 0.05364893, 0.1479474
AHR2, 238073727, -1.48, -2.12, 328.62, 72.2, -34.0728703, 18.8400483
POS, 238073734, -34.0728793, 18.840054, 72.74, -0.8229465
RATE, 238073738, 7.829933, -0.08186577, 0.01863625, 7.548859, -0.1292569, 0.01822335, -0.1065612, -0.2510171, 0.0003054117, 6067.542, -1.002693, 0
MOTB, 238073744, 1, 1, 0, 1
RCIN, 238073747, 1493, 1495, 982, 1499, 1550, 1494, 982, 982, 982, 982, 982, 982, 1494, 1494
RCOU, 238073752, 982, 982, 982, 982, 0, 0, 0, 0, 0, 0, 0, 0, 0, 0
VIBE, 238073759, 0.01795156, 0.01821851, 0.03747864, 0, 0, 0
CTRL, 238073764, 0.01800647, 0.0002351675, 0.01840645, 0.000246607, 0.1222697
IMU, 238093610, -0.00124701, -0.0007806007, -0.001258154, 0.03165463, 0.3018864, -9.780443, 0, 0, 0, 1, 1
GPS, 238131125, 3, 35435400, 1958, 11, 0.97, -34.0728698, 18.8400489, 70.71, 0.07, 0, 0.02, 1
GPA, 238131125, 1.61, 3.88, 5.61, 0.91, 1, 238131
IMU, 238133620, -0.001023581, 0.0004099737, -0.0008057876, 0.03051444, 0.312933, -9.768885, 0, 0, 0, 1, 1
CURR, 238171185, 16.74288, 0, 0.2014274
CUR2, 238171193, 16.76462, 0, 16.12704
MAG, 238171207, 69, 7, -259, -208, 24, -34, 0, 0, 0, 1, 238171199
MAG2, 238171207, 59, 71, -263, -121, 141, -76, 0, 0, 0, 1, 238171202
BARO, 238173613, -0.4451174, 102042.6, 31.64, -0.3262821, 238173, 0
CTUN, 238173633, 0, 0, 0, 0.3476103, -0.823449, -0.823449, -0.44, 0.00, 0.00, 0, 0, -14
ATT, 238173802, 0.00, -1.74, 0.00, -1.68, 323.50, 323.51, 0.10, 0.09
NKF1, 238173807, -1.74, -1.68, 323.50, 0.1162267, 0.1129734, 0.1491326, 0, 1.967484, 5.522091, 0.823449, 0.01, 0.06, 0.16
NKF2, 238173807, 0, 0.10, -0.05, -0.04, 0.00, 0.00, 93, 0, -231, 0, 0, 0, 0
NKF3, 238173807, 0.00, 0.16, 0.12, -1.14, 0.56, 0.22, 0, 0, 0, -12.92, 0.00
NKF4, 238173807, 0.04, 0.04, 0.01, 0.15, 0.00, 0.0003605712, 0, 0, 0, 16, 9087, 0, 0
NKF5, 238173807, 0, 0, 0, 0, 0.11, 0.89, 0.01, 0.09, 0.20, 0.0009227108, 0.04114874, 0.1014721
AHR2, 238173836, -1.60, -2.14, 328.68, 72.29, -34.0728698, 18.8400489
POS, 238173842, -34.072879, 18.840054, 72.74, -0.823449
RATE, 238173845, 7.843984, -0.04222586, 0.01839717, 7.606504, -0.03888185, 0.01789405, -0.1065612, -0.1461806, 0.0002781547, 6040.007, -2.361965, 0
MOTB, 238173851, 1, 1, 0, 1
RCIN, 238173854, 1492, 1495, 982, 1499, 1550, 1494, 982, 982, 982, 982, 982, 982, 1494, 1494
RCOU, 238173858, 982, 982, 982, 982, 0, 0, 0, 0, 0, 0, 0, 0, 0, 0
VIBE, 238173864, 0.01718595, 0.02038742, 0.03386554, 0, 0, 0
CTRL, 238173867, 0.01822907, 0.0001990415, 0.01828749, 0.0002073157, 0.1000054
IMU, 238173876, -0.0004542484, 0.000517943, 0.000343223, 0.03887938, 0.2997459, -9.774579, 0, 0, 0, 1, 1
IMU, 238213614, -0.002290006, -0.0006823918, -0.000156401, 0.03751548, 0.2970022, -9.783241, 0, 0, 0, 1, 1
IMU, 238253643, -0.000645749, 7.948905E-05, -0.0003912173, 0.03194541, 0.3076582, -9.774399, 0, 0, 0, 1, 1
CURR, 238271190, 16.76462, 0, 0.2014274
CUR2, 238271197, 16.72114, 0, 16.12704
MAG, 238271212, 71, 7, -257, -208, 24, -34, 0, 0, 0, 1, 238271204
MAG2, 238271212, 60, 74, -259, -121, 141, -76, 0, 0, 0, 1, 238271207
BARO, 238273619, -0.5440325, 102043.8, 31.64, -0.1511201, 238273, 0
CTUN, 238273639, 0, 0, 0, 0.3476103, -0.8249007, -0.8249007, -0.54, 0.00, 0.00, 0, 0, -14
ATT, 238273699, 0.00, -1.74, 0.00, -1.70, 323.49, 323.50, 0.10, 0.10
NKF1, 238273704, -1.74, -1.70, 323.49, 0.126589, 0.1051427, 0.148441, 0, 2.011099, 5.52025, 0.8249007, 0.01, 0.06, 0.16
NKF2, 238273704, 0, 0.10, -0.05, -0.04, 0.00, 0.00, 93, 0, -231, 0, 0, 0, 0
NKF3, 238273704, 0.00, 0.16, 0.12, -1.14, 0.56, 0.25, 0, 0, 0, -11.57, 0.00
NKF4, 238273704, 0.04, 0.04, 0.01, 0.13, 0.00, 0.0003368181, 0, 0, 0, 16, 9087, 0, 0
NKF5, 238273704, 0, 0, 0, 0, 0.10, 0.89, 0.00, 0.09, 0.19, 0.0008720553, 0.04960213, 0.1334998
AHR2, 238273733, -1.76, -2.13, 328.76, 72.18999, -34.0728698, 18.8400489
POS, 238273740, -34.0728786, 18.840054, 72.74, -0.8249007
RATE, 238273744, 7.867826, -0.03749629, 0.01855341, 7.673296, -0.0231347, 0.01800164, -0.1064229, -0.1813242, 0.0002514768, 6012.104, -0.1577377, 0
MOTB, 238273750, 1, 1, 0, 1
RCIN, 238273753, 1493, 1496, 982, 1500, 1550, 1494, 982, 982, 982, 982, 982, 982, 1494, 1494
RCOU, 238273758, 982, 982, 982, 982, 0, 0, 0, 0, 0, 0, 0, 0, 0, 0
VIBE, 238273765, 0.01862366, 0.02020809, 0.03105451, 0, 0, 0
CTRL, 238273769, 0.01838925, 0.0001898816, 0.01824915, 0.0001895145, 0.08179527
IMU, 238293624, -0.001911986, 7.330038E-05, 0.0001702457, 0.0325705, 0.2911212, -9.794412, 0, 0, 0, 1, 1
GPS, 238331128, 3, 35435600, 1958, 11, 0.97, -34.0728694, 18.840049, 70.77, 0.254951, 48.17983, 0, 1
GPA, 238331128, 1.61, 3.88, 5.61, 1.03, 1, 238331
IMU, 238333742, -0.001604633, -0.0006018228, -0.0003017778, 0.04218477, 0.2993011, -9.787725, 0, 0, 0, 1, 1
CURR, 238371186, 16.72114, 0, 0.2014274
CUR2, 238371192, 16.76462, 0, 16.12704
MAG, 238371207, 71, 17, -258, -208, 24, -34, 0, 0, 0, 1, 238371198
MAG2, 238371207, 65, 90, -263, -121, 141, -76, 0, 0, 0, 1, 238371201
BARO, 238373625, -0.3791741, 102041.9, 31.65, 0.1013192, 238373, 0
CTUN, 238373646, 0, 0, 0, 0.3476103, -0.8265111, -0.8265111, -0.37, 0.00, 0.00, 0, 0, -14
ATT, 238373704, 0.00, -1.75, 0.00, -1.71, 323.48, 323.49, 0.10, 0.08
NKF1, 238373709, -1.75, -1.71, 323.48, 0.1353176, 0.09779973, 0.147186, 0, 2.04808, 5.521455, 0.8265111, 0.01, 0.06, 0.16
NKF2, 238373709, 0, 0.10, -0.05, -0.04, 0.00, 0.00, 93, 0, -231, 0, 0, 0, 0
NKF3, 238373709, -0.08, -0.04, 0.14, -1.11, 0.56, 0.35, 0, 0, 0, -12.88, 0.00
NKF4, 238373709, 0.03, 0.04, 0.02, 0.14, 0.00, 0.000316754, 0, 0, 0, 16, 9087, 0, 0
NKF5, 238373709, 0, 0, 0, 0, 0.11, 0.90, 0.00, 0.09, 0.19, 0.001011346, 0.04346735, 0.1074116
AHR2, 238373738, -1.81, -2.12, 328.83, 72.36, -34.0728694, 18.840049
POS, 238373745, -34.0728783, 18.840054, 72.74, -0.8265111
RATE, 238373749, 7.916045, -0.1458724, 0.01931006, 7.735534, -0.08361579, 0.01862053, -0.1055008, -0.10795, 0.0002246525, 5961.287, -2.287388, 0
MOTB, 238373755, 1, 1, 0, 1
RCIN, 238373758, 1492, 1495, 982, 1498, 1550, 1494, 982, 982, 982, 982, 982, 982, 1494, 1494
RCOU, 238373763, 982, 982, 982, 982, 0, 0, 0, 0, 0, 0, 0, 0, 0, 0
VIBE, 238373770, 0.0173869, 0.02059652, 0.0358687, 0, 0, 0
CTRL, 238373774, 0.01853871, 0.0002010456, 0.01827626, 0.000175811, 0.06690112
IMU, 238373783, -0.002265924, -0.0002690691, 0.0009899362, 0.03737858, 0.2915929, -9.775606, 0, 0, 0, 1, 1
IMU, 238413634, -0.001212836, 0.0009677336, -0.0005143742, 0.03650554, 0.3068837, -9.786608, 0, 0, 0, 1, 1
IMU, 238453594, -0.001613708, -0.0003169428, 0.0008141861, 0.04076017, 0.2986434, -9.779523, 0, 0, 0, 1, 1
CURR, 238471187, 16.78637, 0, 0.2014274
CUR2, 238471194, 16.72114, 0, 16.12704
MAG, 238471209, 71, 15, -262, -208, 24, -34, 0, 0, 0, 1, 238471202
MAG2, 238471209, 69, 75, -266, -121, 141, -76, 0, 0, 0, 1, 238471204
BARO, 238473619, -0.5715088, 102044.1, 31.66, 0.1854656, 238473, 0
CTUN, 238473640, 0, 0, 0, 0.3476103, -0.8272383, -0.8272383, -0.57, 0.00, 0.00, 0, 0, -14
ATT, 238473697, 0.00, -1.76, 0.00, -1.73, 323.47, 323.48, 0.10, 0.06
NKF1, 238473703, -1.76, -1.73, 323.47, 0.1458334, 0.09151792, 0.145782, 0, 2.090832, 5.522046, 0.8272383, 0.01, 0.06, 0.16
NKF2, 238473703, 0, 0.10, -0.05, -0.04, 0.00, 0.00, 93, 0, -231, 0, 0, 0, 0
NKF3, 238473703, -0.08, -0.04, 0.14, -1.11, 0.56, 0.25, 0, 0, 0, -12.17, 0.00
NKF4, 238473703, 0.03, 0.04, 0.01, 0.14, 0.00, 0.0002805531, 0, 0, 0, 16, 9087, 0, 0
NKF5, 238473703, 0, 0, 0, 0, 0.10, 0.90, 0.00, 0.09, 0.19, 0.001044413, 0.04998639, 0.1343802
AHR2, 238473733, -1.69, -2.12, 328.81, 72.16, -34.0728694, 18.840049
POS, 238473740, -34.0728779, 18.840054, 72.74, -0.8272383
RATE, 238473744, 7.945539, -0.1094024, 0.01897432, 7.801861, -0.1392382, 0.01897711, -0.1057774, -0.184709, 0.000164169, 5904.458, -1.441956, 0
MOTB, 238473749, 1, 1, 0, 1
RCIN, 238473753, 1492, 1495, 982, 1497, 1550, 1494, 982, 982, 982, 982, 982, 982, 1494, 1494
RCOU, 238473759, 982, 982, 982, 982, 0, 0, 0, 0, 0, 0, 0, 0, 0, 0
VIBE, 238473765, 0.01738137, 0.02145682, 0.03211964, 0, 0, 0
CTRL, 238473769, 0.01866733, 0.0001767078, 0.01834279, 0.0001683516, 0.05471903
EV, 238475756, 57
IMU, 238493742, -0.0006183581, 0.0003299285, -0.0006878061, 0.0427621, 0.2993136, -9.773361, 0, 0, 0, 1, 1
GPS, 238531103, 3, 35435800, 1958, 11, 0.97, -34.0728688, 18.8400495, 70.79, 0.3687818, 49.3987, -0.03, 1
GPA, 238531103, 1.61, 3.87, 5.61, 1.00, 1, 238531
IMU, 238533622, -0.001114593, -7.243201E-05, -0.0007640664, 0.03994561, 0.2796916, -9.796837, 0, 0, 0, 1, 1
CURR, 238571196, 16.76462, 0, 0.2014274
CUR2, 238571203, 16.82985, 0, 16.12704
MAG, 238571217, 68, 20, -265, -208, 24, -34, 0, 0, 0, 1, 238571210
MAG2, 238571217, 59, 85, -263, -121, 141, -76, 0, 0, 0, 1, 238571212
BARO, 238573609, -0.456108, 102042.7, 31.66, 0.09616729, 238573, 0
CTUN, 238573631, 0, 0, 0, 0.3476103, -0.8291479, -0.8291479, -0.45, 0.00, 0.00, 0, 0, -14
ATT, 238573719, 0.00, -1.77, 0.00, -1.74, 323.47, 323.48, 0.09, 0.06
NKF1, 238573724, -1.77, -1.74, 323.47, 0.1550945, 0.08518806, 0.1444735, 0, 2.12902, 5.526547, 0.8291479, 0.01, 0.06, 0.16
NKF2, 238573724, 0, 0.10, -0.05, -0.04, 0.00, 0.00, 93, 0, -231, 0, 0, 0, 0
NKF3, 238573724, -0.13, -0.14, 0.17, -1.09, 0.53, 0.41, 0, 0, 0, -4.39, 0.00
NKF4, 238573724, 0.05, 0.04, 0.02, 0.05, 0.00, 0.0002591042, 0, 0, 0, 16, 9087, 0, 0
NKF5, 238573724, 0, 0, 0, 0, 0.11, 0.90, 0.00, 0.09, 0.19, 0.00107894, 0.04587547, 0.1159081
AHR2, 238573751, -1.59, -2.11, 328.81, 72.28, -34.0728688, 18.8400495
POS, 238573758, -34.0728775, 18.8400541, 72.74, -0.8291479
RATE, 238573762, 7.965763, -0.05788877, 0.01892462, 7.841588, -0.04932357, 0.01864002, -0.1051934, -0.1450973, 0.0002595646, 5851.529, -1.379967, 0
MOTB, 238573767, 1, 1, 0, 1
RCIN, 238573770, 1492, 1495, 982, 1494, 1550, 1494, 982, 982, 982, 982, 982, 982, 1494, 1494
RCOU, 238573775, 1011, 1011, 1011, 1011, 0, 0, 0, 0, 0, 0, 0, 0, 0, 0
VIBE, 238573782, 0.02073448, 0.02079327, 0.02932985, 0, 0, 0
CTRL, 238573786, 0.01874157, 0.0001533624, 0.01840783, 0.0001621448, 0.04475531
IMU, 238573795, -0.0007325822, 0.0003276676, 0.0003332741, 0.04645193, 0.2984592, -9.784464, 0, 0, 0, 1, 1
IMU, 238613608, -0.001204561, -0.0004737804, -0.001735674, 0.04430072, 0.3017371, -9.775451, 0, 0, 0, 1, 1
IMU, 238653604, -0.0008286295, -0.001479134, 0.0004400549, 0.03112878, 0.288851, -9.768187, 0, 0, 0, 1, 1
CURR, 238671175, 16.69939, 0, 0.2014274
CUR2, 238671181, 16.67765, 1.84, 16.17814
MAG, 238671194, 70, 15, -263, -208, 24, -34, 0, 0, 0, 1, 238671187
MAG2, 238671194, 60, 85, -259, -121, 141, -76, 0, 0, 0, 1, 238671190
BARO, 238673612, -0.3297166, 102041.3, 31.67, 0.008586383, 238673, 0
CTUN, 238673633, 0, 0, 0, 0.3476103, -0.8288311, -0.8288311, -0.32, 0.00, 0.00, 0, 0, -14
ATT, 238673687, 0.00, -1.77, 0.00, -1.75, 323.46, 323.47, 0.09, 0.05
NKF1, 238673694, -1.77, -1.75, 323.46, 0.16649, 0.08106308, 0.1440331, 0, 2.174896, 5.532685, 0.8288311, 0.01, 0.06, 0.16
NKF2, 238673694, 0, 0.10, -0.05, -0.04, 0.00, 0.00, 93, 0, -231, 0, 0, 0, 0
NKF3, 238673694, -0.13, -0.14, 0.17, -1.09, 0.53, 0.22, 0, 0, 0, -6.02, 0.00
NKF4, 238673694, 0.05, 0.04, 0.01, 0.07, 0.00, 0.0002704315, 0, 0, 0, 16, 9087, 0, 0
NKF5, 238673694, 0, 0, 0, 0, 0.11, 0.90, 0.00, 0.09, 0.19, 0.000997079, 0.04996613, 0.1355885
AHR2, 238673720, -1.53, -2.12, 328.77, 72.41, -34.0728688, 18.8400495
POS, 238673727, -34.0728771, 18.8400542, 72.74, -0.8288311
RATE, 238673731, 7.984394, -0.1508035, 0.01937648, 7.906782, -0.02382511, 0.01837585, -0.1044712, -0.1695658, 0.0002179568, 5833.398, -2.664185, 0
MOTB, 238673736, 1, 1, 0, 1
RCIN, 238673739, 1493, 1495, 982, 1502, 1550, 1494, 982, 982, 982, 982, 982, 982, 1494, 1494
RCOU, 238673744, 1041, 1041, 1041, 1041, 0, 0, 0, 0, 0, 0, 0, 0, 0, 0
VIBE, 238673750, 0.01825552, 0.01970298, 0.03230761, 0, 0, 0
CTRL, 238673754, 0.01881712, 0.0001724844, 0.01853493, 0.0001676199, 0.03660607
IMU, 238693604, -0.0007749275, -0.0001408871, 0.0004278452, 0.03463662, 0.3051881, -9.760616, 0, 0, 0, 1, 1
GPS, 238731097, 3, 35436000, 1958, 11, 0.97, -34.0728682, 18.8400499, 70.84, 0.2968164, 32.61924, -0.15, 1
GPA, 238731097, 1.61, 3.87, 5.60, 0.93, 1, 238731
IMU, 238733606, -0.001034739, 0.0004598224, 7.827202E-05, 0.03610955, 0.288812, -9.788389, 0, 0, 0, 1, 1
CURR, 238771234, 16.74288, 0, 0.2014274
CUR2, 238771241, 16.76462, 0, 16.17814
MAG, 238771254, 72, 6, -263, -208, 24, -34, 0, 0, 0, 1, 238771246
MAG2, 238771254, 60, 82, -262, -121, 141, -76, 0, 0, 0, 1, 238771249
BARO, 238773626, -0.2472875, 102040.3, 31.67, 0.2095075, 238773, 0
CTUN, 238773647, 0, 0, 0, 0.3476103, -0.8298809, -0.8298809, -0.24, 0.00, 0.00, 0, 0, -14
ATT, 238773706, 0.00, -1.77, 0.00, -1.76, 323.46, 323.46, 0.08, 0.07
NKF1, 238773711, -1.77, -1.76, 323.45, 0.1762299, 0.07635521, 0.1439105, 0, 2.215583, 5.540275, 0.8298809, 0.01, 0.06, 0.16
NKF2, 238773711, 0, 0.10, -0.05, -0.04, 0.00, 0.00, 93, 0, -231, 0, 0, 0, 0
NKF3, 238773711, -0.12, -0.03, 0.29, -1.07, 0.50, 0.33, 0, 0, 0, -2.14, 0.00
NKF4, 238773711, 0.06, 0.04, 0.02, 0.02, 0.00, 0.0002767002, 0, 0, 0, 16, 9087, 0, 0
NKF5, 238773711, 0, 0, 0, 0, 0.12, 0.90, 0.00, 0.09, 0.19, 0.001000519, 0.04065254, 0.1049755
AHR2, 238773738, -1.51, -2.14, 328.77, 72.49, -34.0728682, 18.8400499
POS, 238773744, -34.0728767, 18.8400542, 72.74, -0.8298809
RATE, 238773748, 7.914884, -0.06729837, 0.01882768, 8.03366, -0.02824351, 0.01891151, 2.487567, -0.187069, 0.004657216, 5828.448, -3.835964, 0
MOTB, 238773753, 1, 1, 0, 1
RCIN, 238773756, 1493, 1495, 982, 1580, 1550, 1494, 982, 982, 982, 982, 982, 982, 1494, 1494
RCOU, 238773761, 1072, 1072, 1072, 1072, 0, 0, 0, 0, 0, 0, 0, 0, 0, 0
VIBE, 238773768, 0.01894121, 0.02051001, 0.03101337, 0, 0, 0
CTRL, 238773772, 0.01885361, 0.0001721184, 0.01864618, 0.0001721608, 0.02995756
IMU, 238773780, -0.0008966384, 0.0007014361, -0.0003889905, 0.04919105, 0.2968312, -9.759901, 0, 0, 0, 1, 1
IMU, 238813611, -0.00102502, 0.0002761001, -0.0005733969, 0.03910608, 0.3079428, -9.754747, 0, 0, 0, 1, 1
RAD, 238833601, 187, 97, 29, 65, 78, 0, 0
RAD, 238833612, 187, 97, 29, 65, 78, 0, 0
IMU, 238853610, -0.0009942739, 0.0005537291, 3.740513E-05, 0.04648435, 0.3070814, -9.766153, 0, 0, 0, 1, 1
CURR, 238871189, 16.67765, 0, 0.2014274
CUR2, 238871196, 16.69939, 0, 16.17814
MAG, 238871208, 72, 2, -260, -208, 24, -34, 0, 0, 0, 1, 238871201
MAG2, 238871208, 64, 65, -261, -121, 141, -76, 0, 0, 0, 1, 238871204
BARO, 238873608, -0.4066505, 102042.2, 31.68, 0.5855905, 238873, 0
CTUN, 238873627, 0, 0, 0, 0.3476103, -0.8280284, -0.8280284, -0.40, 0.00, 0.00, 0, 0, -14
ATT, 238873682, 0.00, -1.78, 0.00, -1.77, 323.47, 323.45, 0.08, 0.09
NKF1, 238873687, -1.78, -1.77, 323.44, 0.1890331, 0.07115418, 0.1437266, 0, 2.264981, 5.545174, 0.8280284, 0.01, 0.06, 0.16
NKF2, 238873687, 0, 0.10, -0.05, -0.04, 0.00, 0.00, 93, 0, -231, 0, 0, 0, 0
NKF3, 238873687, -0.12, -0.03, 0.29, -1.07, 0.50, 0.46, 0, 0, 0, -6.58, 0.00
NKF4, 238873687, 0.06, 0.04, 0.03, 0.07, 0.00, 0.0002706184, 0, 0, 0, 16, 9087, 0, 0
NKF5, 238873687, 0, 0, 0, 0, 0.12, 0.90, 0.00, 0.09, 0.19, 0.000893541, 0.04528381, 0.1251141
AHR2, 238873716, -1.57, -2.17, 328.84, 72.33, -34.0728682, 18.8400499
POS, 238873724, -34.0728763, 18.8400543, 72.74, -0.8280284
RATE, 238873727, 7.714796, -0.06683537, 0.01846279, 8.298425, -0.09677066, 0.0197594, 9.496973, -0.1602363, 0.03232883, 5821.086, -2.106762, 0
MOTB, 238873732, 1, 1, 0, 1
RCIN, 238873735, 1492, 1495, 982, 1536, 1550, 1494, 982, 982, 982, 982, 982, 982, 1494, 1494
RCOU, 238873740, 1084, 1084, 1084, 1084, 0, 0, 0, 0, 0, 0, 0, 0, 0, 0
VIBE, 238873746, 0.02110037, 0.02125603, 0.03081505, 0, 0, 0
CTRL, 238873750, 0.018727, 0.000221192, 0.01893749, 0.0002269558, 0.0270571
IMU, 238893633, -0.001540222, -0.001612406, -0.0007558616, 0.04514802, 0.3017742, -9.787884, 0, 0, 0, 1, 1
GPS, 238931133, 3, 35436200, 1958, 11, 0.97, -34.0728679, 18.8400499, 70.88, 0.1204159, 228.3665, -0.09, 1
GPA, 238931133, 1.61, 3.86, 5.60, 0.93, 1, 238931
IMU, 238933618, -0.00177695, -0.001435009, -0.0002384385, 0.0519497, 0.2985199, -9.776012, 0, 0, 0, 1, 1
CURR, 238971252, 16.76462, 0, 0.2014274
CUR2, 238971261, 16.74288, 0, 16.17814
MAG, 238971275, 68, 19, -262, -208, 24, -34, 0, 0, 0, 1, 238971268
MAG2, 238971275, 57, 86, -264, -121, 141, -76, 0, 0, 0, 1, 238971271
DU32, 238971294, 7, 386520
TERR, 238972866, 2, -34.072876, 18.8400543, 100, 81.50335, -0.07783508, 0, 336
BARO, 238973623, -0.2198111, 102040, 31.68, 0.5821559, 238973, 0
CTUN, 238973640, 0, 0, 0, 0.3476103, -0.8251468, -0.8251468, -0.21, 0.00, 0.00, 0, 0, -14
ATT, 238973728, 0.00, -1.78, 0.00, -1.79, 323.43, 323.44, 0.11, 0.08
NKF1, 238973733, -1.78, -1.79, 323.43, 0.197798, 0.06500562, 0.1422121, 0, 2.304036, 5.548551, 0.8251468, 0.01, 0.06, 0.16
NKF2, 238973733, 0, 0.10, -0.05, -0.04, 0.00, 0.00, 93, 0, -231, 0, 0, 0, 0
NKF3, 238973733, 0.23, 0.20, 0.22, -1.06, 0.47, 0.53, 0, 0, 0, -13.48, 0.00
NKF4, 238973733, 0.08, 0.04, 0.03, 0.15, 0.00, 0.0002725204, 0, 0, 0, 16, 9087, 0, 0
NKF5, 238973733, 0, 0, 0, 0, 0.13, 0.90, 0.03, 0.09, 0.19, 0.0008352636, 0.04599836, 0.1003725
AHR2, 238973762, -1.69, -2.16, 328.95, 72.52, -34.0728679, 18.8400499
POS, 238973769, -34.072876, 18.8400543, 72.74, -0.8251468
RATE, 238973773, 8.028096, -0.04466277, 0.01901318, 8.062017, -0.03916588, 0.01895638, -0.1026424, -0.2155657, 0.005227036, 5759.922, -2.528, 0
MOTB, 238973779, 1, 1, 0, 1
RCIN, 238973782, 1492, 1495, 982, 1490, 1550, 1494, 982, 982, 982, 982, 982, 982, 1494, 1494
RCOU, 238973787, 1084, 1084, 1084, 1084, 0, 0, 0, 0, 0, 0, 0, 0, 0, 0
VIBE, 238973793, 0.02436002, 0.01846271, 0.03446245, 0, 0, 0
CTRL, 238973797, 0.01877811, 0.0002591598, 0.01908382, 0.0002478607, 0.0251637
IMU, 238973807, -0.0004993214, 0.0005123244, -0.0008854747, 0.04168472, 0.2971419, -9.772911, 0, 0, 0, 1, 1
IMU, 239013619, -0.0005840048, 0.0001559918, 0.0004050848, 0.03498164, 0.29429, -9.790723, 0, 0, 0, 1, 1
IMU, 239053601, -0.001179069, 0.0007943576, -0.0001801905, 0.03748856, 0.3037223, -9.787882, 0, 0, 0, 1, 1
CURR, 239071180, 16.76462, 0, 0.2014274
CUR2, 239071187, 16.82985, 0, 16.17814
MAG, 239071203, 72, 15, -258, -208, 24, -34, 0, 0, 0, 1, 239071195
MAG2, 239071203, 60, 83, -256, -121, 141, -76, 0, 0, 0, 1, 239071198
BARO, 239073607, -0.4890797, 102043.2, 31.69, 0.2009211, 239073, 0
CTUN, 239073628, 0, 0, 0, 0.3476103, -0.819831, -0.819831, -0.48, 0.00, 0.00, 0, 0, -13
ATT, 239073684, 0.00, -1.79, 0.00, -1.80, 323.43, 323.44, 0.11, 0.07
NKF1, 239073690, -1.79, -1.80, 323.43, 0.202607, 0.0544224, 0.1391704, 0, 2.338452, 5.541276, 0.819831, 0.01, 0.06, 0.16
NKF2, 239073690, 0, 0.10, -0.05, -0.04, 0.00, 0.00, 93, 0, -231, 0, 0, 0, 0
NKF3, 239073690, 0.23, 0.20, 0.22, -1.06, 0.47, 0.37, 0, 0, 0, -16.35, 0.00
NKF4, 239073690, 0.08, 0.04, 0.02, 0.19, 0.00, 0.0003112486, 0, 0, 0, 16, 9087, 0, 0
NKF5, 239073690, 0, 0, 0, 0, 0.13, 0.90, 0.03, 0.09, 0.19, 0.0009437923, 0.04842556, 0.1232757
AHR2, 239073718, -1.92, -2.07, 328.92, 72.25, -34.0728679, 18.8400499
POS, 239073726, -34.0728756, 18.8400542, 72.75, -0.819831
RATE, 239073730, 8.067849, -0.0412904, 0.01902225, 8.109216, -0.06328176, 0.01940724, -0.102335, -0.1089787, 0.000427968, 5636.888, -1.968098, 0
MOTB, 239073738, 1, 1, 0, 1
RCIN, 239073742, 1492, 1495, 982, 1490, 1550, 1494, 982, 982, 982, 982, 982, 982, 1494, 1494
RCOU, 239073747, 1084, 1084, 1084, 1084, 0, 0, 0, 0, 0, 0, 0, 0, 0, 0
VIBE, 239073754, 0.02025879, 0.0219951, 0.03447852, 0, 0, 0
CTRL, 239073758, 0.0188954, 0.0002211023, 0.01912879, 0.0002297614, 0.02061413
IMU, 239093621, -0.002104505, -0.0003832239, -0.0002894757, 0.03555396, 0.2924683, -9.776177, 0, 0, 0, 1, 1
GPS, 239131098, 3, 35436400, 1958, 11, 0.97, -34.0728677, 18.84005, 70.86, 0.04123105, 255.9638, 0.03, 1
GPA, 239131098, 1.61, 3.86, 5.59, 0.83, 1, 239131
IMU, 239133649, -0.0007096556, 6.070026E-06, 0.000669354, 0.0362693, 0.2986267, -9.791464, 0, 0, 0, 1, 1
CURR, 239171209, 16.74288, 0, 0.2014274
CUR2, 239171217, 16.72114, 0, 16.17814
MAG, 239171231, 72, 17, -264, -208, 24, -34, 0, 0, 0, 1, 239171225
MAG2, 239171231, 61, 86, -264, -121, 141, -76, 0, 0, 0, 1, 239171227
BARO, 239173621, -0.4780891, 102043, 31.70, -0.1631411, 239173, 0
CTUN, 239173642, 0, 0, 0, 0.3476103, -0.8151954, -0.8151954, -0.47, 0.00, 0.00, 0, 0, -13
ATT, 239173699, 0.00, -1.80, 0.00, -1.81, 323.43, 323.43, 0.09, 0.05
NKF1, 239173704, -1.80, -1.81, 323.42, 0.2060709, 0.04460158, 0.1368653, 0, 2.366897, 5.535418, 0.8151954, 0.01, 0.06, 0.16
NKF2, 239173704, 0, 0.10, -0.05, -0.04, 0.00, 0.00, 93, 0, -231, 0, 0, 0, 0
NKF3, 239173704, 0.16, 0.12, 0.10, -1.03, 0.44, 0.55, 0, 0, 0, -2.79, 0.00
NKF4, 239173704, 0.04, 0.03, 0.03, 0.03, 0.00, 0.0003305222, 0, 0, 0, 16, 9087, 0, 0
NKF5, 239173704, 0, 0, 0, 0, 0.13, 0.90, 0.03, 0.09, 0.19, 0.0009646748, 0.04939033, 0.1042153
AHR2, 239173733, -2.04, -2.02, 328.94, 72.26, -34.0728677, 18.84005
POS, 239173741, -34.0728754, 18.8400542, 72.75, -0.8151954
RATE, 239173744, 7.949027, -0.06079055, 0.01859639, 8.318048, -0.1182081, 0.02038905, 5.027473, -0.1270721, 0.004720238, 5543.519, -2.297974, 0
MOTB, 239173750, 1, 1, 0, 1
RCIN, 239173753, 1492, 1495, 982, 1626, 1550, 1494, 982, 982, 982, 982, 982, 982, 1494, 1494
RCOU, 239173758, 1084, 1084, 1084, 1084, 0, 0, 0, 0, 0, 0, 0, 0, 0, 0
VIBE, 239173765, 0.01836842, 0.02051949, 0.03093761, 0, 0, 0
CTRL, 239173769, 0.01898727, 0.0002097023, 0.0192176, 0.00022502, 0.01688382
IMU, 239173778, -0.0007786571, -0.0008632326, 0.000665954, 0.03896055, 0.2971134, -9.775174, 0, 0, 0, 1, 1
IMU, 239213617, -0.001175585, -0.0005790111, -3.029643E-05, 0.03489044, 0.2929541, -9.778093, 0, 0, 0, 1, 1
IMU, 239253671, -0.0005147158, -0.0007932124, -0.0006201517, 0.0420285, 0.300626, -9.787897, 0, 0, 0, 1, 1
CURR, 239271241, 16.74288, 0, 0.2014274
CUR2, 239271249, 16.76462, 0.92, 16.20371
MAG, 239271265, 71, 17, -261, -208, 24, -34, 0, 0, 0, 1, 239271256
MAG2, 239271265, 61, 85, -266, -121, 141, -76, 0, 0, 0, 1, 239271259
BARO, 239273638, -0.5660136, 102044, 31.70, -0.4911405, 239273, 0
CTUN, 239273659, 0, 0, 0, 0.3476103, -0.8099395, -0.8099395, -0.56, 0.00, 0.00, 0, 0, -13
ATT, 239273717, 0.00, -1.81, 0.00, -1.82, 323.49, 323.42, 0.09, 0.05
NKF1, 239273722, -1.81, -1.82, 323.41, 0.2083104, 0.03255757, 0.135036, 0, 2.39514, 5.523278, 0.8099395, 0.01, 0.06, 0.16
NKF2, 239273722, 0, 0.10, -0.05, -0.04, 0.00, 0.00, 93, 0, -231, 0, 0, 0, 0
NKF3, 239273722, 0.16, 0.12, 0.10, -1.03, 0.44, 0.28, 0, 0, 0, -6.79, 0.00
NKF4, 239273722, 0.04, 0.03, 0.01, 0.07, 0.00, 0.0003106796, 0, 0, 0, 16, 9087, 0, 0
NKF5, 239273722, 0, 0, 0, 0, 0.13, 0.90, 0.03, 0.09, 0.19, 0.0009549757, 0.04942331, 0.1227473
AHR2, 239273752, -1.99, -2.04, 328.94, 72.17, -34.0728677, 18.84005
POS, 239273759, -34.0728751, 18.8400541, 72.76, -0.8099395
RATE, 239273764, 7.14784, -0.07923516, 0.01670363, 9.224627, -0.06310464, 0.02229381, 32.304, -0.1398144, 0.07347568, 5469.289, -3.633308, 0
MOTB, 239273769, 1, 1, 0, 1
RCIN, 239273772, 1492, 1495, 982, 1650, 1550, 1494, 982, 982, 982, 982, 982, 982, 1494, 1494
RCOU, 239273777, 1084, 1084, 1084, 1084, 0, 0, 0, 0, 0, 0, 0, 0, 0, 0
VIBE, 239273784, 0.02074566, 0.01952253, 0.03158996, 0, 0, 0
CTRL, 239273788, 0.01864323, 0.000338248, 0.01980953, 0.0003678973, 0.02876164
IMU, 239293615, -0.0009342097, -0.0001429587, -0.0003401805, 0.04624406, 0.2956307, -9.779517, 0, 0, 0, 1, 1
