FMT, 128, 89, FMT, BBnNZ, Type,Length,Name,Format,Columns
FMT, 129, 31, PARM, QNf, TimeUS,Name,Value
FMT, 130, 46, GPS, QBIHBcLLefffB, TimeUS,Status,GMS,GWk,NSats,HDop,Lat,Lng,Alt,Spd,GCrs,VZ,U
FMT, 131, 46, GPS2, QBIHBcLLefffB, TimeUS,Status,GMS,GWk,NSats,HDop,Lat,Lng,Alt,Spd,GCrs,VZ,U
FMT, 196, 24, GPA, QCCCCBI, TimeUS,VDop,HAcc,VAcc,SAcc,VV,SMS
FMT, 197, 24, GPA2, QCCCCBI, TimeUS,VDop,HAcc,VAcc,SAcc,VV,SMS
FMT, 132, 49, IMU, QffffffIIfBB, TimeUS,GyrX,GyrY,GyrZ,AccX,AccY,AccZ,ErrG,ErrA,Temp,GyHlt,AcHlt
FMT, 133, 75, MSG, QZ, TimeUS,Message
FMT, 134, 39, RCIN, QHHHHHHHHHHHHHH, TimeUS,C1,C2,C3,C4,C5,C6,C7,C8,C9,C10,C11,C12,C13,C14
FMT, 135, 39, RCOU, QHHHHHHHHHHHHHH, TimeUS,C1,C2,C3,C4,C5,C6,C7,C8,C9,C10,C11,C12,C13,C14
FMT, 136, 15, RSSI, Qf, TimeUS,RXRSSI
FMT, 138, 33, BARO, QffcfIf, TimeUS,Alt,Press,Temp,CRt,SMS,Offset
FMT, 139, 21, POWR, QffH, TimeUS,Vcc,VServo,Flags
FMT, 146, 45, CMD, QHHHfffffff, TimeUS,CTot,CNum,CId,Prm1,Prm2,Prm3,Prm4,Lat,Lng,Alt
FMT, 147, 20, RAD, QBBBBBHH, TimeUS,RSSI,RemRSSI,TxBuf,Noise,RemNoise,RxErrors,Fixed
FMT, 149, 43, CAM, QIHLLeeeccC, TimeUS,GPSTime,GPSWeek,Lat,Lng,Alt,RelAlt,GPSAlt,Roll,Pitch,Yaw
FMT, 218, 43, TRIG, QIHLLeeeccC, TimeUS,GPSTime,GPSWeek,Lat,Lng,Alt,RelAlt,GPSAlt,Roll,Pitch,Yaw
FMT, 166, 30, ARSP, QffcffB, TimeUS,Airspeed,DiffPress,Temp,RawPress,Offset,U
FMT, 168, 23, CURR, Qfff, TimeUS,Volt,Curr,CurrTot
FMT, 169, 23, CUR2, Qfff, TimeUS,Volt,Curr,CurrTot
FMT, 167, 27, ATT, QccccCCCC, TimeUS,DesRoll,Roll,DesPitch,Pitch,DesYaw,Yaw,ErrRP,ErrYaw
FMT, 170, 34, MAG, QhhhhhhhhhBI, TimeUS,MagX,MagY,MagZ,OfsX,OfsY,OfsZ,MOfsX,MOfsY,MOfsZ,Health,S
FMT, 173, 14, MODE, QMBB, TimeUS,Mode,ModeNum,Rsn
FMT, 198, 15, RFND, QCC, TimeUS,Dist1,Dist2
FMT, 209, 33, DMS, IIIIIBBBBBBBBBB, TimeMS,N,Dp,RT,RS,Er,Fa,Fmn,Fmx,Pa,Pmn,Pmx,Sa,Smn,Smx
FMT, 137, 49, IMU2, QffffffIIfBB, TimeUS,GyrX,GyrY,GyrZ,AccX,AccY,AccZ,ErrG,ErrA,Temp,GyHlt,AcHlt
FMT, 150, 49, IMU3, QffffffIIfBB, TimeUS,GyrX,GyrY,GyrZ,AccX,AccY,AccZ,ErrG,ErrA,Temp,GyHlt,AcHlt
FMT, 140, 29, AHR2, QccCfLL, TimeUS,Roll,Pitch,Yaw,Alt,Lat,Lng
FMT, 184, 27, POS, QLLff, TimeUS,Lat,Lng,Alt,RelAlt
FMT, 141, 29, SIM, QccCfLL, TimeUS,Roll,Pitch,Yaw,Alt,Lat,Lng
FMT, 142, 51, EKF1, QccCfffffffccc, TimeUS,Roll,Pitch,Yaw,VN,VE,VD,dPD,PN,PE,PD,GX,GY,GZ
FMT, 143, 30, EKF2, Qbbbcchhhhhh, TimeUS,Ratio,AZ1bias,AZ2bias,VWN,VWE,MN,ME,MD,MX,MY,MZ
FMT, 144, 31, EKF3, Qcccccchhhc, TimeUS,IVN,IVE,IVD,IPN,IPE,IPD,IMX,IMY,IMZ,IVT
FMT, 145, 34, EKF4, QcccccccbbHBHH, TimeUS,SV,SP,SH,SMX,SMY,SMZ,SVT,OFN,OFE,FS,TS,SS,GPS
FMT, 164, 28, EKF5, QBhhhcccCC, TimeUS,NI,FIX,FIY,AFI,HAGL,offset,RI,rng,Herr
FMT, 200, 51, NKF1, QccCfffffffccc, TimeUS,Roll,Pitch,Yaw,VN,VE,VD,dPD,PN,PE,PD,GX,GY,GZ
FMT, 201, 35, NKF2, QbccccchhhhhhB, TimeUS,AZbias,GSX,GSY,GSZ,VWN,VWE,MN,ME,MD,MX,MY,MZ,MI
FMT, 202, 33, NKF3, Qcccccchhhcc, TimeUS,IVN,IVE,IVD,IPN,IPE,IPD,IMX,IMY,IMZ,IYAW,IVT
FMT, 203, 35, NKF4, QcccccfbbHBHHb, TimeUS,SV,SP,SH,SM,SVT,errRP,OFN,OFE,FS,TS,SS,GPS,PI
FMT, 204, 40, NKF5, QBhhhcccCCfff, TimeUS,NI,FIX,FIY,AFI,HAGL,offset,RI,rng,Herr,eAng,eVel,ePos
FMT, 205, 51, NKF6, QccCfffffffccc, TimeUS,Roll,Pitch,Yaw,VN,VE,VD,dPD,PN,PE,PD,GX,GY,GZ
FMT, 206, 35, NKF7, QbccccchhhhhhB, TimeUS,AZbias,GSX,GSY,GSZ,VWN,VWE,MN,ME,MD,MX,MY,MZ,MI
FMT, 207, 33, NKF8, Qcccccchhhcc, TimeUS,IVN,IVE,IVD,IPN,IPE,IPD,IMX,IMY,IMZ,IYAW,IVT
FMT, 208, 35, NKF9, QcccccfbbHBHHb, TimeUS,SV,SP,SH,SM,SVT,errRP,OFN,OFE,FS,TS,SS,GPS,PI
FMT, 151, 34, TERR, QBLLHffHH, TimeUS,Status,Lat,Lng,Spacing,TerrH,CHeight,Pending,Loaded
FMT, 152, 18, UBX1, QBHBBH, TimeUS,Instance,noisePerMS,jamInd,aPower,agcCnt
FMT, 153, 16, UBX2, QBbBbB, TimeUS,Instance,ofsI,magI,ofsQ,magQ
FMT, 154, 18, UBY1, QBHBBH, TimeUS,Instance,noisePerMS,jamInd,aPower,agcCnt
FMT, 155, 16, UBY2, QBbBbB, TimeUS,Instance,ofsI,magI,ofsQ,magQ
FMT, 174, 42, GRAW, QIHBBddfBbB, TimeUS,WkMS,Week,numSV,sv,cpMes,prMes,doMes,mesQI,cno,lli
FMT, 175, 24, GRXH, QdHbBB, TimeUS,rcvTime,week,leapS,numMeas,recStat
FMT, 176, 41, GRXS, QddfBBBHBBBBB, TimeUS,prMes,cpMes,doMes,gnss,sv,freq,lock,cno,prD,cpD,doD,trk
FMT, 177, 63, SBFE, QIHBBdddfffff, TimeUS,TOW,WN,Mode,Err,Lat,Lng,Height,Undul,Vn,Ve,Vu,COG
FMT, 156, 19, ESC1, Qcccc, TimeUS,RPM,Volt,Curr,Temp
FMT, 157, 19, ESC2, Qcccc, TimeUS,RPM,Volt,Curr,Temp
FMT, 158, 19, ESC3, Qcccc, TimeUS,RPM,Volt,Curr,Temp
FMT, 159, 19, ESC4, Qcccc, TimeUS,RPM,Volt,Curr,Temp
FMT, 160, 19, ESC5, Qcccc, TimeUS,RPM,Volt,Curr,Temp
FMT, 161, 19, ESC6, Qcccc, TimeUS,RPM,Volt,Curr,Temp
FMT, 162, 19, ESC7, Qcccc, TimeUS,RPM,Volt,Curr,Temp
FMT, 163, 19, ESC8, Qcccc, TimeUS,RPM,Volt,Curr,Temp
FMT, 171, 34, MAG2, QhhhhhhhhhBI, TimeUS,MagX,MagY,MagZ,OfsX,OfsY,OfsZ,MOfsX,MOfsY,MOfsZ,Health,S
FMT, 172, 34, MAG3, QhhhhhhhhhBI, TimeUS,MagX,MagY,MagZ,OfsX,OfsY,OfsZ,MOfsX,MOfsY,MOfsZ,Health,S
FMT, 178, 31, ACC1, QQfff, TimeUS,SampleUS,AccX,AccY,AccZ
FMT, 179, 31, ACC2, QQfff, TimeUS,SampleUS,AccX,AccY,AccZ
FMT, 180, 31, ACC3, QQfff, TimeUS,SampleUS,AccX,AccY,AccZ
FMT, 181, 31, GYR1, QQfff, TimeUS,SampleUS,GyrX,GyrY,GyrZ
FMT, 182, 31, GYR2, QQfff, TimeUS,SampleUS,GyrX,GyrY,GyrZ
FMT, 183, 31, GYR3, QQfff, TimeUS,SampleUS,GyrX,GyrY,GyrZ
FMT, 185, 35, PIDR, Qffffff, TimeUS,Des,P,I,D,FF,AFF
FMT, 186, 35, PIDP, Qffffff, TimeUS,Des,P,I,D,FF,AFF
FMT, 187, 35, PIDY, Qffffff, TimeUS,Des,P,I,D,FF,AFF
FMT, 188, 35, PIDA, Qffffff, TimeUS,Des,P,I,D,FF,AFF
FMT, 189, 35, PIDS, Qffffff, TimeUS,Des,P,I,D,FF,AFF
FMT, 165, 33, BAR2, QffcfIf, TimeUS,Alt,Press,Temp,CRt,SMS,Offset
FMT, 199, 33, BAR3, QffcfI, TimeUS,Alt,Press,Temp,CRt,SMS
FMT, 190, 35, VIBE, QfffIII, TimeUS,VibeX,VibeY,VibeZ,Clip0,Clip1,Clip2
FMT, 191, 47, IMT, Qfffffffff, TimeUS,DelT,DelvT,DelaT,DelAX,DelAY,DelAZ,DelVX,DelVY,DelVZ
FMT, 192, 47, IMT2, Qfffffffff, TimeUS,DelT,DelvT,DelaT,DelAX,DelAY,DelAZ,DelVX,DelVY,DelVZ
FMT, 193, 47, IMT3, Qfffffffff, TimeUS,DelT,DelvT,DelaT,DelAX,DelAY,DelAZ,DelVX,DelVY,DelVZ
FMT, 194, 24, ORGN, QBLLe, TimeUS,Type,Lat,Lng,Alt
FMT, 195, 19, RPM, Qff, TimeUS,rpm1,rpm2
FMT, 219, 47, GMB1, Iffffffffff, TimeMS,dt,dax,day,daz,dvx,dvy,dvz,jx,jy,jz
FMT, 220, 44, GMB2, IBfffffffff, TimeMS,es,ex,ey,ez,rx,ry,rz,tx,ty,tz
FMT, 221, 13, GMB3, Ihhh, TimeMS,rl_torque_cmd,el_torque_cmd,az_torque_cmd
FMT, 222, 59, RATE, Qffffffffffff, TimeUS,RDes,R,ROut,PDes,P,POut,YDes,Y,YOut,ADes,A,AOut
FMT, 223, 23, RALY, QBBLLh, TimeUS,Tot,Seq,Lat,Lng,Alt
FMT, 210, 23, SBPH, QIII, TimeUS,CrcError,LastInject,IARhyp
FMT, 215, 80, SBR1, QHHBZ, TimeUS,msg_type,sender_id,msg_len,d1
FMT, 216, 205, SBR2, QHZZZ, TimeUS,msg_type,d2,d3,d4
FMT, 25, 41, ATUN, QBBfffffff, TimeUS,Axis,TuneStep,Targ,Min,Max,RP,RD,SP,ddt
FMT, 26, 19, ATDE, Qff, TimeUS,Angle,Rate
FMT, 31, 22, PTUN, QBfHHH, TimeUS,Param,TunVal,CtrlIn,TunLo,TunHi
FMT, 12, 28, OF, QBffff, TimeUS,Qual,flowX,flowY,bodyX,bodyY
FMT, 5, 51, NTUN, Qffffffffff, TimeUS,DPosX,DPosY,PosX,PosY,DVelX,DVelY,VelX,VelY,DAccX,DAccY
FMT, 4, 51, CTUN, Qffffffeccfhh, TimeUS,ThI,ABst,ThO,ThH,DAlt,Alt,BAlt,DSAlt,SAlt,TAlt,DCRt,CRt
FMT, 6, 28, PM, QHHIhBHI, TimeUS,NLon,NLoop,MaxT,PMT,I2CErr,INSErr,LogDrop
FMT, 30, 27, MOTB, Qffff, TimeUS,LiftMax,BatVolt,BatRes,ThLimit
FMT, 13, 12, EV, QB, TimeUS,Id
FMT, 20, 14, D16, QBh, TimeUS,Id,Value
FMT, 21, 14, DU16, QBH, TimeUS,Id,Value
FMT, 22, 16, D32, QBi, TimeUS,Id,Value
FMT, 23, 16, DU32, QBI, TimeUS,Id,Value
FMT, 24, 16, DFLT, QBf, TimeUS,Id,Value
FMT, 19, 13, ERR, QBB, TimeUS,Subsys,ECode
FMT, 32, 19, HELI, Qff, TimeUS,DRRPM,ERRPM
FMT, 33, 29, PL, QBBffff, TimeUS,Heal,TAcq,pX,pY,vX,vY
FMT, 34, 36, GUID, QBffffff, TimeUS,Type,pX,pY,pZ,vX,vY,vZ
FMT, 35, 32, THRO, QBffffbbbb, TimeUS,Stage,Vel,VelZ,Acc,AccEfZ,Throw,AttOk,HgtOk,PosOk
FMT, 36, 44, PRX, QBffffffff, TimeUS,Health,D0,D45,D90,D135,D180,D225,D270,D315
EV, 146481775, 10
MODE, 146481780, Stabilize, 0, 1
FMT, 254, 31, CTRL, Qfffff, TimeUS,RMSRollP,RMSRollD,RMSPitchP,RMSPitchD,RMSYaw
GPS, 146499978, 3, 35812000, 1958, 9, 1.12, -34.0729263, 18.8399971, 73.01, 0.07071067, 8.130102, 0.18, 1
GPA, 146499978, 2.08, 3.19, 5.10, 0.87, 1, 146499
MSG, 146559964, APM:Copter V3.4.6 (5221448a)
MSG, 146559968, New mission
MSG, 146559971, Frame: QUAD
MODE, 146559974, Stabilize, 0, 1
CURR, 146579936, 16.56893, 0, 0.04027995
CUR2, 146579946, 16.5037, 1.84, 18.17422
MAG, 146579961, 61, 46, -270, -208, 24, -34, 0, 0, 0, 1, 146579953
MAG2, 146579961, 49, 99, -267, -121, 141, -76, 0, 0, 0, 1, 146579957
BARO, 146582208, 0.1952599, 102032.7, 32.13, 0.5275521, 146582, 0
CTUN, 146582230, 0, 0, 0, 0.3347042, 0, -0.4826175, 0.19, 0.00, 0.00, 0, 0, -10
ATT, 146582359, -0.65, -0.65, -2.89, -2.89, 318.13, 318.14, 0.01, 0.11
NKF1, 146582365, -0.65, -2.89, 318.13, -0.02444073, 0.1059302, 0.1094394, 0, -0.5378264, 2.545459, 0.4826175, 0.01, -0.02, 0.19
NKF2, 146582365, 3, 0.00, 0.00, 0.00, 0.00, 0.00, 79, 0, -251, 0, 0, 0, 0
NKF3, 146582365, -0.09, 0.09, -0.07, -0.23, 0.15, 0.52, 0, 0, 0, 11.94, 0.00
NKF4, 146582365, 0.03, 0.01, 0.03, 0.13, 0.00, 0.0001843834, 0, 0, 0, 16, 9087, 0, 0
NKF5, 146582365, 0, 0, 0, 0, 0.11, 0.56, 0.00, 0.09, 0.14, 0.001999542, 0.007098381, 0.01845105
AHR2, 146582392, -0.74, -2.91, 314.14, 74.73, -34.0729263, 18.8399971
POS, 146582399, -34.0729284, 18.8399992, 74.53, -0.4826175
RATE, 146582402, 0.004254626, 0.004254626, -1.506576E-05, -0.02498264, -0.02498264, -4.735785E-05, -0.1667307, -0.1667307, -5.93E-06, 0, 1.24073, 0
MOTB, 146582407, 1, 1, 0, 1
RCIN, 146582410, 1492, 1497, 982, 1922, 1167, 982, 982, 982, 982, 982, 982, 982, 1494, 1494
RCOU, 146582415, 982, 982, 982, 982, 0, 0, 0, 0, 0, 0, 0, 0, 0, 0
VIBE, 146582422, 0.02201742, 0.01953681, 0.03116971, 0, 0, 0
CTRL, 146582426, 2.342514E-05, 5.687705E-05, 2.340619E-05, 5.600928E-05, 6.356483E-06
IMU, 146582436, 0.0003800831, -0.0007868752, 0.0004997334, -0.237066, 0.1334667, -9.782329, 0, 0, 0, 1, 1
IMU, 146622212, 0.001027709, 0.0009110612, -0.0003961594, -0.2286553, 0.1423792, -9.779903, 0, 0, 0, 1, 1
IMU, 146662138, -0.0001707109, -0.000785284, 0.0002240436, -0.2350431, 0.1434733, -9.734715, 0, 0, 0, 1, 1
GPS, 146679789, 3, 35812200, 1958, 9, 1.12, -34.0729262, 18.8399976, 72.93, 0.25, 90, 0, 1
GPA, 146679789, 2.08, 3.21, 5.12, 0.85, 1, 146679
CURR, 146679860, 16.56893, 0, 0.04027995
CUR2, 146679864, 16.59067, 0, 18.17422
MAG, 146679879, 59, 43, -270, -208, 24, -34, 0, 0, 0, 1, 146679871
MAG2, 146679879, 49, 96, -265, -121, 141, -76, 0, 0, 0, 1, 146679874
BARO, 146682148, -0.2008387, 102037.2, 32.13, 0.6903754, 146682, 0
CTUN, 146682170, 0, 0, 0, 0.3347042, 0, -0.4846362, -0.20, 0.00, 0.00, 0, 0, -11
ATT, 146682226, -0.65, -0.65, -2.89, -2.89, 318.09, 318.10, 0.03, 0.12
NKF1, 146682231, -0.65, -2.89, 318.09, -0.02250084, 0.1061593, 0.1102399, 0, -0.5314458, 2.551107, 0.4846362, 0.01, -0.02, 0.19
NKF2, 146682231, 3, 0.00, 0.00, 0.00, 0.00, 0.00, 79, 0, -251, 0, 0, 0, 0
NKF3, 146682231, -0.09, 0.09, -0.07, -0.23, 0.15, 0.45, 0, 0, 0, 12.40, 0.00
NKF4, 146682231, 0.03, 0.01, 0.02, 0.14, 0.00, 0.0001890265, 0, 0, 0, 16, 9087, 0, 0
NKF5, 146682231, 0, 0, 0, 0, 0.11, 0.56, 0.00, 0.09, 0.14, 0.002508939, 0.004882438, 0.01457991
AHR2, 146682260, -0.81, -2.96, 314.02, 74.33, -34.0729262, 18.8399976
POS, 146682268, -34.0729283, 18.8399992, 74.53, -0.4846362
RATE, 146682272, -0.003712805, -0.003712805, 2.322752E-05, -0.04860386, -0.04860386, -9.933628E-05, -0.193493, -0.193493, 5.705955E-07, 0, -2.618122, 0
MOTB, 146682277, 1, 1, 0, 1
RCIN, 146682280, 1492, 1497, 982, 1757, 1167, 982, 982, 982, 982, 982, 982, 982, 1494, 1494
RCOU, 146682285, 982, 982, 982, 982, 0, 0, 0, 0, 0, 0, 0, 0, 0, 0
VIBE, 146682292, 0.02264433, 0.01878432, 0.03565872, 0, 0, 0
CTRL, 146682296, 2.18756E-05, 5.397571E-05, 2.624324E-05, 6.239469E-05, 5.81742E-06
IMU, 146702134, 0.001177237, -2.728979E-06, 0.0001731978, -0.2318363, 0.1253588, -9.753107, 0, 0, 0, 1, 1
IMU, 146742130, 0.0001589437, -0.0008682808, -0.001308291, -0.2443881, 0.1272589, -9.767562, 0, 0, 0, 1, 1
CURR, 146779789, 16.56893, 0, 0.04027995
CUR2, 146779815, 16.54718, 0, 18.17422
MAG, 146779832, 62, 38, -271, -208, 24, -34, 0, 0, 0, 1, 146779823
MAG2, 146779832, 51, 88, -265, -121, 141, -76, 0, 0, 0, 1, 146779827
BARO, 146782135, -0.08368281, 102035.9, 32.14, 0.2239744, 146782, 0
CTUN, 146782154, 0, 0, 0, 0.3347042, 0, -0.4832188, -0.08, 0.00, 0.00, 0, 0, -10
ATT, 146782209, -0.64, -0.64, -2.89, -2.89, 318.04, 318.05, 0.03, 0.12
NKF1, 146782216, -0.64, -2.89, 318.04, -0.02051814, 0.1083213, 0.1092226, 0, -0.5241454, 2.561151, 0.4832188, 0.01, -0.02, 0.19
NKF2, 146782216, 3, 0.00, 0.00, 0.00, 0.00, 0.00, 79, 0, -251, 0, 0, 0, 0
NKF3, 146782216, -0.01, -0.14, 0.10, -0.23, 0.13, 0.64, 0, 0, 0, 14.91, 0.00
NKF4, 146782216, 0.03, 0.01, 0.04, 0.17, 0.00, 0.0001888347, 0, 0, 0, 16, 9087, 0, 0
NKF5, 146782216, 0, 0, 0, 0, 0.12, 0.56, 0.01, 0.09, 0.15, 0.003150197, 0.00774358, 0.02226738
AHR2, 146782242, -0.74, -2.83, 313.90, 74.45, -34.0729262, 18.8399976
POS, 146782249, -34.0729283, 18.8399993, 74.53, -0.4832188
RATE, 146782252, -0.008653963, -0.008653963, 3.137415E-05, 0.02355218, 0.02355218, 3.267508E-05, -0.2635588, -0.2635588, -8.454634E-07, 0, -1.509285, 0
MOTB, 146782257, 1, 1, 0, 1
RCIN, 146782260, 1492, 1497, 982, 1554, 1167, 982, 982, 982, 982, 982, 982, 982, 1494, 1494
RCOU, 146782265, 982, 982, 982, 982, 0, 0, 0, 0, 0, 0, 0, 0, 0, 0
VIBE, 146782271, 0.02203227, 0.01850019, 0.03305484, 0, 0, 0
CTRL, 146782275, 2.164291E-05, 5.227504E-05, 2.568758E-05, 6.132433E-05, 7.419612E-06
IMU, 146782285, 0.0001572036, 5.540151E-05, -0.001134804, -0.2280849, 0.1329856, -9.754581, 0, 0, 0, 1, 1
IMU, 146822128, 4.417466E-05, 0.0005722928, 2.115582E-05, -0.2251872, 0.1215032, -9.782027, 0, 0, 0, 1, 1
IMU, 146862131, 0.0001017479, -0.0009294847, 0.0003036552, -0.2270399, 0.1345987, -9.770363, 0, 0, 0, 1, 1
GPS, 146879750, 3, 35812400, 1958, 9, 1.12, -34.0729261, 18.839998, 72.88, 0.02236068, 116.565, -0.03, 1
GPA, 146879750, 2.08, 3.23, 5.14, 0.75, 1, 146879
CURR, 146879820, 16.56893, 0, 0.04027995
CUR2, 146879825, 16.59067, 0, 18.17422
MAG, 146879838, 61, 29, -269, -208, 24, -34, 0, 0, 0, 1, 146879830
MAG2, 146879838, 47, 81, -253, -121, 141, -76, 0, 0, 0, 1, 146879834
BARO, 146882145, 0.02510484, 102034.7, 32.13, -0.4054413, 146882, 0
CTUN, 146882165, 0, 0, 0, 0.3347042, 0, -0.4806593, 0.02, 0.00, 0.00, 0, 0, -10
ATT, 146882219, -0.64, -0.64, -2.89, -2.89, 317.99, 318.00, 0.05, 0.09
NKF1, 146882224, -0.64, -2.89, 317.99, -0.01922131, 0.1102268, 0.1063608, 0, -0.5187132, 2.572735, 0.4806593, 0.01, -0.02, 0.19
NKF2, 146882224, 3, 0.00, 0.00, 0.00, 0.00, 0.00, 79, 0, -251, 0, 0, 0, 0
NKF3, 146882224, -0.01, -0.14, 0.10, -0.23, 0.13, 0.24, 0, 0, 0, 13.86, 0.00
NKF4, 146882224, 0.03, 0.01, 0.01, 0.16, 0.00, 0.0001876558, 0, 0, 0, 16, 9087, 0, 0
NKF5, 146882224, 0, 0, 0, 0, 0.12, 0.56, 0.01, 0.09, 0.15, 0.0036391, 0.005520529, 0.01536361
AHR2, 146882248, -0.67, -2.71, 313.82, 74.56, -34.0729261, 18.839998
POS, 146882255, -34.0729282, 18.8399995, 74.53, -0.4806593
RATE, 146882258, -0.02037342, -0.02037342, -3.724699E-05, 0.07093523, 0.07093523, -3.121345E-05, -0.207835, -0.207835, 1.859957E-06, 0, -0.1235962, 0
MOTB, 146882263, 1, 1, 0, 1
RCIN, 146882266, 1492, 1497, 982, 1492, 1167, 982, 982, 982, 982, 982, 982, 982, 1494, 1494
RCOU, 146882271, 982, 982, 982, 982, 0, 0, 0, 0, 0, 0, 0, 0, 0, 0
VIBE, 146882278, 0.01981491, 0.01618376, 0.03253098, 0, 0, 0
CTRL, 146882282, 2.256378E-05, 5.336839E-05, 3.337285E-05, 7.658741E-05, 8.129104E-06
IMU, 146902125, -0.0002989345, 0.001201764, -0.0008262791, -0.242829, 0.1329184, -9.766241, 0, 0, 0, 1, 1
IMU, 146942132, 0.001086318, 0.0006105825, -0.0002916339, -0.2340565, 0.132711, -9.751256, 0, 0, 0, 1, 1
CURR, 146979857, 16.52544, 0, 0.04027995
CUR2, 146979864, 16.48195, 1.84, 18.22536
MAG, 146979879, 61, 33, -267, -208, 24, -34, 0, 0, 0, 1, 146979871
MAG2, 146979879, 50, 82, -263, -121, 141, -76, 0, 0, 0, 1, 146979875
DU32, 146979896, 7, 17163736
TERR, 146981310, 2, -34.0729282, 18.8399995, 100, 81.04484, -0.001876831, 0, 336
BARO, 146982150, -0.1059982, 102036.2, 32.13, -0.4415248, 146982, 0
CTUN, 146982166, 0, 0, 0, 0.3347042, 0, -0.476959, -0.10, 0.00, 0.00, 0, 0, -10
ATT, 146982250, -0.64, -0.64, -2.89, -2.89, 317.92, 317.93, 0.05, 0.08
NKF1, 146982255, -0.64, -2.89, 317.92, -0.01819574, 0.1101883, 0.1046633, 0, -0.5122404, 2.579234, 0.476959, 0.01, -0.02, 0.19
NKF2, 146982255, 3, 0.00, 0.00, 0.00, 0.00, 0.00, 79, 0, -251, 0, 0, 0, 0
NKF3, 146982255, 0.00, 0.09, 0.13, -0.23, 0.10, 0.35, 0, 0, 0, 9.82, 0.00
NKF4, 146982255, 0.03, 0.01, 0.02, 0.11, 0.00, 0.000178009, 0, 0, 0, 16, 9087, 0, 0
NKF5, 146982255, 0, 0, 0, 0, 0.12, 0.56, 0.02, 0.09, 0.14, 0.003792113, 0.007486652, 0.02255713
AHR2, 146982281, -0.76, -2.80, 313.80, 74.43, -34.0729261, 18.839998
POS, 146982288, -34.0729282, 18.8399995, 74.54, -0.476959
RATE, 146982292, -0.02321554, -0.02321554, 1.16599E-05, -0.009783715, -0.009783715, 5.0879E-05, -0.3067363, -0.3067363, 1.234813E-05, 0, -1.317215, 0
MOTB, 146982297, 1, 1, 0, 1
RCIN, 146982300, 1492, 1497, 982, 1490, 1167, 982, 982, 982, 982, 982, 982, 982, 1494, 1494
RCOU, 146982305, 982, 982, 982, 982, 0, 0, 0, 0, 0, 0, 0, 0, 0, 0
VIBE, 146982311, 0.02266364, 0.01651924, 0.03437858, 0, 0, 0
CTRL, 146982316, 2.226465E-05, 5.416711E-05, 3.386701E-05, 7.73139E-05, 8.053463E-06
IMU, 146982326, -9.732402E-05, -0.000524038, -0.001889231, -0.2272457, 0.1245163, -9.756728, 0, 0, 0, 1, 1
IMU, 147022166, -0.0002855039, -2.985826E-05, -0.0004411055, -0.237925, 0.1362295, -9.77282, 0, 0, 0, 1, 1
IMU, 147062134, -0.0004583038, -0.0003838726, 0.0003986746, -0.2318017, 0.138034, -9.759242, 0, 0, 0, 1, 1
GPS, 147079768, 3, 35812600, 1958, 9, 1.12, -34.0729261, 18.8399983, 72.88, 0.18, 90, 0.04, 1
GPA, 147079768, 2.08, 3.24, 5.16, 0.87, 1, 147079
CURR, 147079836, 16.56893, 0, 0.04027995
CUR2, 147079840, 16.54718, 1.84, 18.27646
MAG, 147079855, 62, 32, -268, -208, 24, -34, 0, 0, 0, 1, 147079847
MAG2, 147079855, 51, 88, -262, -121, 141, -76, 0, 0, 0, 1, 147079851
BARO, 147082137, 0.0306837, 102034.6, 32.13, -0.01046036, 147082, 0
CTUN, 147082158, 0, 0, 0, 0.3347042, 0, -0.4733165, 0.03, 0.00, 0.00, 0, 0, -10
ATT, 147082216, -0.64, -0.64, -2.89, -2.89, 317.86, 317.87, 0.05, 0.07
NKF1, 147082221, -0.64, -2.89, 317.86, -0.01727069, 0.1104845, 0.1024271, 0, -0.5074883, 2.585688, 0.4733165, 0.01, -0.02, 0.19
NKF2, 147082221, 3, 0.00, 0.00, 0.00, 0.00, 0.00, 79, 0, -251, 0, 0, 0, 0
NKF3, 147082221, 0.00, 0.09, 0.13, -0.23, 0.10, 0.46, 0, 0, 0, 3.60, 0.00
NKF4, 147082221, 0.03, 0.01, 0.03, 0.04, 0.00, 0.0001685454, 0, 0, 0, 16, 9087, 0, 0
NKF5, 147082221, 0, 0, 0, 0, 0.13, 0.56, 0.02, 0.09, 0.14, 0.003461025, 0.006448993, 0.02105078
AHR2, 147082250, -0.86, -2.89, 313.77, 74.57, -34.0729261, 18.8399983
POS, 147082257, -34.0729281, 18.8399996, 74.54, -0.4733165
RATE, 147082261, 0.007274978, 0.007274978, -2.801964E-05, -0.001849334, -0.001849334, -4.037306E-05, -0.1652287, -0.1652287, -5.090678E-06, 0, -1.164722, 0
MOTB, 147082266, 1, 1, 0, 1
RCIN, 147082269, 1492, 1497, 982, 1490, 1167, 982, 982, 982, 982, 982, 982, 982, 1494, 1494
RCOU, 147082274, 982, 982, 982, 982, 0, 0, 0, 0, 0, 0, 0, 0, 0, 0
VIBE, 147082281, 0.01885723, 0.01707881, 0.03507673, 0, 0, 0
CTRL, 147082285, 2.146576E-05, 5.214511E-05, 2.97171E-05, 6.810876E-05, 7.908407E-06
IMU, 147102255, 0.000354439, -0.0007468028, -0.000918158, -0.2181265, 0.1328657, -9.77571, 0, 0, 0, 1, 1
IMU, 147142135, 0.0006648024, 0.0002384068, -0.0003143101, -0.2144173, 0.1251333, -9.759644, 0, 0, 0, 1, 1
CURR, 147179803, 16.56893, 0, 0.04027995
CUR2, 147179812, 16.56893, 1.84, 18.32756
MAG, 147179827, 59, 40, -268, -208, 24, -34, 0, 0, 0, 1, 147179819
MAG2, 147179827, 55, 88, -262, -121, 141, -76, 0, 0, 0, 1, 147179822
BARO, 147182143, -0.02789427, 102035.3, 32.13, 0.1847995, 147182, 0
CTUN, 147182163, 0, 0, 0, 0.3347042, 0, -0.4693235, -0.02, 0.00, 0.00, 0, 0, -10
ATT, 147182224, -0.64, -0.64, -2.89, -2.89, 317.81, 317.82, 0.05, 0.08
NKF1, 147182229, -0.64, -2.89, 317.81, -0.01601093, 0.1107354, 0.1002798, 0, -0.5014838, 2.595319, 0.4693235, 0.01, -0.02, 0.19
NKF2, 147182229, 3, 0.00, 0.00, 0.00, 0.00, 0.00, 79, 0, -251, 0, 0, 0, 0
NKF3, 147182229, -0.01, -0.07, 0.05, -0.22, 0.10, 0.33, 0, 0, 0, 6.17, 0.00
NKF4, 147182229, 0.02, 0.01, 0.02, 0.07, 0.00, 0.0001517126, 0, 0, 0, 16, 9087, 0, 0
NKF5, 147182229, 0, 0, 0, 0, 0.13, 0.56, 0.02, 0.09, 0.14, 0.003177778, 0.005901214, 0.01789049
AHR2, 147182258, -0.79, -2.83, 313.74, 74.51, -34.0729261, 18.8399983
POS, 147182266, -34.0729281, 18.8399997, 74.55, -0.4693235
RATE, 147182269, 0.02923542, 0.02923542, 5.280566E-05, -0.03826999, -0.03826999, -7.132695E-05, -0.1773544, -0.1773544, -3.374766E-06, 0, -0.1400948, 0
MOTB, 147182275, 1, 1, 0, 1
RCIN, 147182278, 1492, 1497, 982, 1492, 1167, 982, 982, 982, 982, 982, 982, 982, 1494, 1494
RCOU, 147182283, 982, 982, 982, 982, 0, 0, 0, 0, 0, 0, 0, 0, 0, 0
VIBE, 147182290, 0.02226339, 0.01759303, 0.03576495, 0, 0, 0
CTRL, 147182294, 2.419895E-05, 6.076672E-05, 2.852368E-05, 6.70838E-05, 7.340235E-06
IMU, 147182304, 0.0008164027, -0.001020352, 0.000363696, -0.230549, 0.1153417, -9.768612, 0, 0, 0, 1, 1
IMU, 147222144, 0.0002533984, 0.0007107598, -0.0002254417, -0.2450107, 0.1275793, -9.770164, 0, 0, 0, 1, 1
IMU, 147262138, -0.0005846596, -0.0001606443, -0.001101411, -0.2214615, 0.1367154, -9.758289, 0, 0, 0, 1, 1
GPS, 147279709, 3, 35812800, 1958, 9, 1.12, -34.0729263, 18.8399987, 72.83, 0.2022375, 171.4692, -0.28, 1
GPA, 147279709, 2.08, 3.25, 5.18, 0.85, 1, 147279
CURR, 147279780, 16.52544, 0, 0.04027995
CUR2, 147279783, 16.5037, 0, 18.32756
MAG, 147279797, 59, 46, -264, -208, 24, -34, 0, 0, 0, 1, 147279789
MAG2, 147279797, 50, 97, -258, -121, 141, -76, 0, 0, 0, 1, 147279792
BARO, 147282141, -0.3570467, 102039, 32.13, 0.02963767, 147282, 0
CTUN, 147282161, 0, 0, 0, 0.3347042, 0, -0.4651646, -0.35, 0.00, 0.00, 0, 0, -9
ATT, 147282262, -0.64, -0.64, -2.89, -2.89, 317.75, 317.76, 0.06, 0.10
NKF1, 147282267, -0.64, -2.89, 317.75, -0.01501722, 0.1120057, 0.097973, 0, -0.4968795, 2.604895, 0.4651646, 0.01, -0.02, 0.19
NKF2, 147282267, 3, 0.00, 0.00, 0.00, 0.00, 0.00, 79, 0, -251, 0, 0, 0, 0
NKF3, 147282267, -0.01, -0.07, 0.05, -0.22, 0.10, 0.46, 0, 0, 0, 5.39, 0.00
NKF4, 147282267, 0.02, 0.01, 0.03, 0.06, 0.00, 0.0001378721, 0, 0, 0, 16, 9087, 0, 0
NKF5, 147282267, 0, 0, 0, 0, 0.13, 0.56, 0.03, 0.09, 0.14, 0.002789302, 0.005430099, 0.01828334
AHR2, 147282291, -0.71, -2.77, 313.64, 74.18, -34.0729263, 18.8399987
POS, 147282300, -34.072928, 18.8399998, 74.55, -0.4651646
RATE, 147282303, -0.05432032, -0.05432032, 2.05312E-05, -0.01562015, -0.01562015, -1.09418E-05, -0.2699925, -0.2699925, 7.579357E-06, 0, -0.7091522, 0
MOTB, 147282308, 1, 1, 0, 1
RCIN, 147282311, 1492, 1497, 982, 1494, 1167, 982, 982, 982, 982, 982, 982, 982, 1494, 1494
RCOU, 147282316, 982, 982, 982, 982, 0, 0, 0, 0, 0, 0, 0, 0, 0, 0
VIBE, 147282321, 0.02331222, 0.01843994, 0.03341211, 0, 0, 0
CTRL, 147282325, 2.285766E-05, 5.858894E-05, 2.696658E-05, 6.42875E-05, 7.025758E-06
RAD, 147299698, 199, 106, 81, 66, 77, 0, 0
RAD, 147299712, 199, 106, 81, 66, 77, 0, 0
IMU, 147302291, 0.0001307293, -0.0007356778, -0.0009683808, -0.2333548, 0.1290805, -9.750388, 0, 0, 0, 1, 1
IMU, 147342131, -0.0002545466, 4.314043E-05, -0.0003649746, -0.2363634, 0.144265, -9.764655, 0, 0, 0, 1, 1
CURR, 147379781, 16.54718, 0, 0.04027995
CUR2, 147379789, 16.56893, 0, 18.32756
MAG, 147379804, 60, 29, -269, -208, 24, -34, 0, 0, 0, 1, 147379797
MAG2, 147379804, 53, 87, -258, -121, 141, -76, 0, 0, 0, 1, 147379800
BARO, 147382138, 0.1283136, 102033.5, 32.13, -0.2894031, 147382, 0
CTUN, 147382158, 0, 0, 0, 0.3347042, 0, -0.4556534, 0.12, 0.00, 0.00, 0, 0, -9
ATT, 147382213, -0.64, -0.64, -2.89, -2.89, 317.70, 317.71, 0.06, 0.09
NKF1, 147382219, -0.64, -2.89, 317.70, -0.0178469, 0.1117541, 0.09421604, 0, -0.4988592, 2.611041, 0.4556534, 0.01, -0.02, 0.20
NKF2, 147382219, 3, 0.00, 0.00, 0.00, 0.00, 0.00, 79, 0, -251, 0, 0, 0, 0
NKF3, 147382219, 0.18, 0.08, 0.37, -0.22, 0.07, 0.38, 0, 0, 0, 11.62, 0.00
NKF4, 147382219, 0.09, 0.00, 0.02, 0.13, 0.00, 0.0001696282, 0, 0, 0, 16, 9087, 0, 0
NKF5, 147382219, 0, 0, 0, 0, 0.15, 0.56, 0.03, 0.09, 0.14, 0.002796402, 0.01577388, 0.04026275
AHR2, 147382246, -0.83, -2.76, 313.50, 74.66, -34.0729263, 18.8399987
POS, 147382252, -34.072928, 18.8399999, 74.56, -0.4556534
RATE, 147382256, -0.02744487, -0.02744487, -1.744676E-05, 0.01698917, 0.01698917, 2.087901E-05, -0.2348766, -0.2348766, 2.124119E-06, 0, -0.4989624, 0
MOTB, 147382261, 1, 1, 0, 1
RCIN, 147382264, 1492, 1497, 982, 1497, 1167, 982, 982, 982, 982, 982, 982, 982, 1494, 1494
RCOU, 147382269, 982, 982, 982, 982, 0, 0, 0, 0, 0, 0, 0, 0, 0, 0
VIBE, 147382277, 0.02134827, 0.02045712, 0.03399115, 0, 0, 0
CTRL, 147382280, 2.511557E-05, 6.205243E-05, 2.671725E-05, 6.453427E-05, 6.219894E-06
IMU, 147382289, -0.0001681867, -5.951506E-05, -0.0006039805, -0.2283741, 0.1333503, -9.76446, 0, 0, 0, 1, 1
IMU, 147422139, 0.0009096224, 0.0008828887, 0.0003715373, -0.2318172, 0.1276893, -9.757432, 0, 0, 0, 1, 1
IMU, 147462221, -6.540204E-05, 0.0007011394, -0.001777452, -0.229323, 0.1348131, -9.783997, 0, 0, 0, 1, 1
GPS, 147479789, 3, 35813000, 1958, 9, 1.12, -34.0729266, 18.8399993, 72.76, 0.2780288, 142.3058, 0.03, 1
GPA, 147479789, 2.08, 3.26, 5.20, 0.77, 1, 147479
CURR, 147479858, 16.56893, 0, 0.04027995
CUR2, 147479862, 16.54718, 2.76, 18.40431
MAG, 147479876, 60, 27, -271, -208, 24, -34, 0, 0, 0, 1, 147479869
MAG2, 147479876, 46, 81, -265, -121, 141, -76, 0, 0, 0, 1, 147479872
BARO, 147482173, -0.1338925, 102036.5, 32.13, -0.3626255, 147482, 0
CTUN, 147482194, 0, 0, 0, 0.3347042, 0, -0.4472375, -0.13, 0.00, 0.00, 0, 0, -9
ATT, 147482263, -0.64, -0.64, -2.89, -2.89, 317.65, 317.66, 0.07, 0.08
NKF1, 147482268, -0.64, -2.89, 317.65, -0.0208716, 0.111447, 0.09043491, 0, -0.5024502, 2.617616, 0.4472375, 0.01, -0.02, 0.20
NKF2, 147482268, 3, 0.00, 0.00, 0.00, 0.00, 0.00, 79, 0, -251, 0, 0, 0, 0
NKF3, 147482268, 0.18, 0.08, 0.37, -0.22, 0.07, 0.05, 0, 0, 0, 15.83, 0.00
NKF4, 147482268, 0.09, 0.00, 0.00, 0.18, 0.00, 0.0002050432, 0, 0, 0, 16, 9087, 0, 0
NKF5, 147482268, 0, 0, 0, 0, 0.14, 0.55, 0.05, 0.09, 0.14, 0.003121384, 0.01150829, 0.02825457
AHR2, 147482295, -0.96, -2.74, 313.51, 74.4, -34.0729266, 18.8399993
POS, 147482302, -34.0729281, 18.8399999, 74.57, -0.4472375
RATE, 147482305, -0.0485469, -0.0485469, 9.039609E-05, -0.06144091, -0.06144091, -0.0001663371, -0.2072973, -0.2072973, -1.054553E-05, 0, -1.240826, 0
MOTB, 147482311, 1, 1, 0, 1
RCIN, 147482314, 1492, 1497, 982, 1502, 1167, 982, 982, 982, 982, 982, 982, 982, 1494, 1494
RCOU, 147482319, 982, 982, 982, 982, 0, 0, 0, 0, 0, 0, 0, 0, 0, 0
VIBE, 147482325, 0.01765316, 0.0184037, 0.03248365, 0, 0, 0
CTRL, 147482329, 2.343327E-05, 5.731746E-05, 2.936546E-05, 7.001834E-05, 7.105528E-06
IMU, 147502242, -6.161394E-05, -0.0002611548, -0.0001856642, -0.227542, 0.129443, -9.760721, 0, 0, 0, 1, 1
IMU, 147542132, 0.0008563256, 0.001102735, -0.0004372753, -0.2309844, 0.1308727, -9.76662, 0, 0, 0, 1, 1
CURR, 147579760, 16.52544, 0, 0.04027995
CUR2, 147579769, 16.52544, 0, 18.40431
MAG, 147579807, 59, 31, -272, -208, 24, -34, 0, 0, 0, 1, 147579774
MAG2, 147579807, 50, 91, -268, -121, 141, -76, 0, 0, 0, 1, 147579802
BARO, 147582132, 0.04184141, 102034.5, 32.13, 0.08455452, 147582, 0
CTUN, 147582153, 0, 0, 0, 0.3347042, 0, -0.440785, 0.04, 0.00, 0.00, 0, 0, -8
ATT, 147582209, -0.64, -0.64, -2.89, -2.89, 317.60, 317.61, 0.07, 0.06
NKF1, 147582214, -0.64, -2.89, 317.60, -0.02680495, 0.1121993, 0.08732493, 0, -0.5119662, 2.626934, 0.440785, 0.01, -0.02, 0.20
NKF2, 147582214, 3, 0.00, 0.00, 0.00, 0.00, 0.00, 79, 0, -251, 0, 0, 0, 0
NKF3, 147582214, 0.19, -0.06, 0.05, -0.21, 0.04, 0.54, 0, 0, 0, 3.09, 0.00
NKF4, 147582214, 0.04, 0.00, 0.03, 0.03, 0.00, 0.0002324186, 0, 0, 0, 16, 9087, 0, 0
NKF5, 147582214, 0, 0, 0, 0, 0.15, 0.55, 0.05, 0.09, 0.14, 0.002804805, 0.01868063, 0.04237745
AHR2, 147582245, -0.90, -2.66, 313.52, 74.58, -34.0729266, 18.8399993
POS, 147582251, -34.0729281, 18.84, 74.57, -0.440785
RATE, 147582255, -0.01289539, -0.01289539, -3.915566E-05, -0.01209669, -0.01209669, -0.0001268003, -0.12983, -0.12983, -1.157715E-05, 0, 0.2205849, 0
MOTB, 147582260, 1, 1, 0, 1
RCIN, 147582263, 1492, 1497, 982, 1504, 1167, 982, 982, 982, 982, 982, 982, 982, 1494, 1494
RCOU, 147582268, 982, 982, 982, 982, 0, 0, 0, 0, 0, 0, 0, 0, 0, 0
VIBE, 147582275, 0.01678578, 0.01643046, 0.03497016, 0, 0, 0
CTRL, 147582279, 2.296819E-05, 5.523078E-05, 3.077567E-05, 7.372134E-05, 8.002524E-06
IMU, 147582290, 8.730691E-05, -0.0005700274, 0.001245349, -0.2348959, 0.1304411, -9.771471, 0, 0, 0, 1, 1
IMU, 147622138, 0.000787227, 0.0007147744, -0.0005843953, -0.2242207, 0.1365862, -9.760524, 0, 0, 0, 1, 1
IMU, 147662164, 0.0005999933, 0.0004799557, 0.000505185, -0.2249907, 0.1267838, -9.777515, 0, 0, 0, 1, 1
GPS, 147679721, 3, 35813200, 1958, 9, 1.12, -34.0729264, 18.84, 72.67, 0.3818376, 45, 0.16, 1
GPA, 147679721, 2.08, 3.27, 5.22, 0.98, 1, 147679
CURR, 147679788, 16.56893, 0, 0.04027995
CUR2, 147679792, 16.59067, 0, 18.40431
MAG, 147679806, 60, 34, -271, -208, 24, -34, 0, 0, 0, 1, 147679798
MAG2, 147679806, 48, 95, -265, -121, 141, -76, 0, 0, 0, 1, 147679801
BARO, 147682148, 0.09484052, 102033.9, 32.12, 0.455897, 147682, 0
CTUN, 147682169, 0, 0, 0, 0.3347042, 0, -0.4340988, 0.09, 0.00, 0.00, 0, 0, -8
ATT, 147682225, -0.64, -0.64, -2.88, -2.88, 317.56, 317.57, 0.11, 0.06
NKF1, 147682230, -0.64, -2.88, 317.56, -0.0321722, 0.1131601, 0.08425621, 0, -0.5219699, 2.637145, 0.4340988, 0.01, -0.02, 0.20
NKF2, 147682230, 3, 0.00, 0.00, 0.00, 0.00, 0.00, 79, 0, -251, 0, 0, 0, 0
NKF3, 147682230, 0.19, -0.06, 0.05, -0.21, 0.04, 0.27, 0, 0, 0, 1.55, 0.00
NKF4, 147682230, 0.04, 0.00, 0.01, 0.01, 0.00, 0.0002532403, 0, 0, 0, 16, 9087, 0, 0
NKF5, 147682230, 0, 0, 0, 0, 0.15, 0.55, 0.05, 0.09, 0.15, 0.002401953, 0.01415715, 0.03485925
AHR2, 147682258, -0.84, -2.58, 313.50, 74.63, -34.0729264, 18.84
POS, 147682265, -34.0729282, 18.8400001, 74.58, -0.4340988
RATE, 147682268, -0.0391649, -0.0391649, -7.314786E-05, 0.02644109, 0.02644109, 8.059855E-05, -0.1828005, -0.1828005, 5.3645E-07, 0, 0.2307892, 0
MOTB, 147682273, 1, 1, 0, 1
RCIN, 147682275, 1492, 1497, 982, 1506, 1167, 982, 982, 982, 982, 982, 982, 982, 1494, 1494
RCOU, 147682280, 982, 982, 982, 982, 0, 0, 0, 0, 0, 0, 0, 0, 0, 0
VIBE, 147682287, 0.01788101, 0.01791224, 0.03034926, 0, 0, 0
CTRL, 147682291, 2.22172E-05, 5.44446E-05, 2.76988E-05, 6.717286E-05, 7.756212E-06
IMU, 147702133, 0.000220373, 0.0003192242, -0.0005295607, -0.2405562, 0.1166484, -9.774064, 0, 0, 0, 1, 1
IMU, 147742134, 6.899134E-05, 0.0005327404, -0.001047278, -0.2414884, 0.1333721, -9.771233, 0, 0, 0, 1, 1
CURR, 147779851, 16.54718, 0, 0.04027995
CUR2, 147779859, 16.56893, 2.76, 18.48103
MAG, 147779874, 57, 44, -269, -208, 24, -34, 0, 0, 0, 1, 147779867
MAG2, 147779874, 54, 91, -270, -121, 141, -76, 0, 0, 0, 1, 147779870
BARO, 147782138, -0.04463083, 102035.5, 32.13, 0.424516, 147782, 0
CTUN, 147782158, 0, 0, 0, 0.3347042, 0, -0.4295622, -0.04, 0.00, 0.00, 0, 0, -8
ATT, 147782213, -0.65, -0.65, -2.88, -2.88, 317.51, 317.52, 0.11, 0.09
NKF1, 147782218, -0.65, -2.88, 317.51, -0.03181232, 0.1166361, 0.08204529, 0, -0.5197338, 2.652021, 0.4295622, 0.01, -0.02, 0.20
NKF2, 147782218, 3, 0.00, 0.00, 0.00, 0.00, 0.00, 79, 0, -251, 0, 0, 0, 0
NKF3, 147782218, -0.31, -0.15, -0.08, -0.20, 0.01, 0.45, 0, 0, 0, 5.12, 0.00
NKF4, 147782218, 0.07, 0.00, 0.02, 0.05, 0.00, 0.0002925372, 0, 0, 0, 16, 9087, 0, 0
NKF5, 147782218, 0, 0, 0, 0, 0.15, 0.55, 0.05, 0.09, 0.15, 0.002136248, 0.008728408, 0.01906186
AHR2, 147782248, -0.58, -2.75, 313.44, 74.49, -34.0729264, 18.84
POS, 147782255, -34.0729282, 18.8400003, 74.59, -0.4295622
RATE, 147782259, -0.04004459, -0.04004459, -0.0001175051, 0.01583544, 0.01583544, -5.890893E-05, -0.1744712, -0.1744712, -9.317209E-06, 0, -0.5099297, 0
MOTB, 147782264, 1, 1, 0, 1
RCIN, 147782267, 1492, 1497, 982, 1507, 1167, 982, 982, 982, 982, 982, 982, 982, 1494, 1494
RCOU, 147782272, 982, 982, 982, 982, 0, 0, 0, 0, 0, 0, 0, 0, 0, 0
VIBE, 147782279, 0.01916762, 0.0196093, 0.0280844, 0, 0, 0
CTRL, 147782283, 1.986422E-05, 4.975753E-05, 2.58208E-05, 6.357314E-05, 7.80215E-06
IMU, 147782293, -0.0003884588, -8.242275E-05, 0.0004821694, -0.223636, 0.1455201, -9.764078, 0, 0, 0, 1, 1
IMU, 147822140, 0.000390923, 2.147047E-05, -0.0006632766, -0.2441772, 0.1272368, -9.77295, 0, 0, 0, 1, 1
IMU, 147862246, 0.001456488, 0.0006939012, 0.001049264, -0.2283295, 0.1344111, -9.763704, 0, 0, 0, 1, 1
CURR, 147879820, 16.56893, 0, 0.04027995
CUR2, 147879826, 16.54718, 0.92, 18.50658
MAG, 147879841, 60, 36, -268, -208, 24, -34, 0, 0, 0, 1, 147879833
MAG2, 147879841, 47, 92, -262, -121, 141, -76, 0, 0, 0, 1, 147879836
BARO, 147882138, -0.2398907, 102037.7, 32.12, 0.177826, 147882, 0
CTUN, 147882157, 0, 0, 0, 0.3347042, 0, -0.4245898, -0.23, 0.00, 0.00, 0, 0, -7
ATT, 147882213, -0.64, -0.64, -2.87, -2.87, 317.48, 317.49, 0.11, 0.09
NKF1, 147882217, -0.64, -2.87, 317.48, -0.0313323, 0.1201616, 0.07966801, 0, -0.5167528, 2.666938, 0.4245898, 0.01, -0.02, 0.20
NKF2, 147882217, 3, 0.00, 0.00, 0.00, 0.00, 0.00, 79, 0, -251, 0, 0, 0, 0
NKF3, 147882217, -0.31, -0.15, -0.08, -0.20, 0.01, 0.50, 0, 0, 0, 6.82, 0.00
NKF4, 147882217, 0.07, 0.00, 0.03, 0.07, 0.00, 0.0003270046, 0, 0, 0, 16, 9087, 0, 0
NKF5, 147882217, 0, 0, 0, 0, 0.16, 0.55, 0.05, 0.09, 0.15, 0.001998744, 0.00620603, 0.01700241
AHR2, 147882242, -0.32, -2.91, 313.29, 74.3, -34.0729264, 18.84
POS, 147882249, -34.0729282, 18.8400005, 74.59, -0.4245898
RATE, 147882252, 0.00371682, 0.00371682, -1.749023E-05, 0.004066924, 0.004066924, -3.489772E-06, -0.1340042, -0.1340042, -6.73972E-06, 0, 0.1986504, 0
MOTB, 147882257, 1, 1, 0, 1
RCIN, 147882260, 1492, 1497, 982, 1507, 1167, 982, 982, 982, 982, 982, 982, 982, 1494, 1494
RCOU, 147882267, 982, 982, 982, 982, 0, 0, 0, 0, 0, 0, 0, 0, 0, 0
VIBE, 147882274, 0.02128866, 0.01879265, 0.03058706, 0, 0, 0
CTRL, 147882278, 2.047791E-05, 5.051063E-05, 2.39062E-05, 5.847973E-05, 7.570863E-06
GPS, 147899697, 3, 35813400, 1958, 9, 1.12, -34.0729262, 18.8400005, 72.55, 0.1920937, 231.3402, -0.02, 1
GPA, 147899697, 2.08, 3.28, 5.24, 0.94, 1, 147899
IMU, 147902187, 8.567168E-05, -0.001622029, 0.0007102572, -0.2322314, 0.1356078, -9.766581, 0, 0, 0, 1, 1
IMU, 147942131, 1.897582E-06, 0.0002897737, -0.001421121, -0.2384596, 0.122317, -9.771683, 0, 0, 0, 1, 1
CURR, 147979767, 16.56893, 0, 0.04027995
CUR2, 147979775, 16.5037, 0, 18.50658
MAG, 147979789, 59, 42, -269, -208, 24, -34, 0, 0, 0, 1, 147979782
MAG2, 147979789, 50, 90, -267, -121, 141, -76, 0, 0, 0, 1, 147979785
DU32, 147979807, 7, 17163736
TERR, 147981374, 2, -34.0729282, 18.8400006, 100, 81.04484, 0.05812073, 0, 336
BARO, 147982152, 0.1952599, 102032.7, 32.11, -0.2466899, 147982, 0
CTUN, 147982169, 0, 0, 0, 0.3347042, 0, -0.4185164, 0.19, 0.00, 0.00, 0, 0, -7
ATT, 147982290, -0.64, -0.64, -2.87, -2.87, 317.44, 317.45, 0.13, 0.10
NKF1, 147982295, -0.64, -2.87, 317.44, -0.03198461, 0.1199924, 0.07706669, 0, -0.515833, 2.67523, 0.4185164, 0.01, -0.02, 0.20
NKF2, 147982295, 3, 0.00, 0.00, 0.00, 0.00, 0.00, 79, 0, -251, 0, 0, 0, 0
NKF3, 147982295, 0.09, 0.27, 0.09, -0.23, -0.04, 0.35, 0, 0, 0, 14.80, 0.00
NKF4, 147982295, 0.06, 0.00, 0.02, 0.17, 0.00, 0.0003396353, 0, 0, 0, 16, 9087, 0, 0
NKF5, 147982295, 0, 0, 0, 0, 0.16, 0.55, 0.05, 0.09, 0.15, 0.002390716, 0.01082568, 0.02391788
AHR2, 147982324, -0.48, -2.97, 313.23, 74.73, -34.0729262, 18.8400005
POS, 147982331, -34.0729282, 18.8400006, 74.6, -0.4185164
RATE, 147982334, -0.01882656, -0.01882656, -3.095998E-05, -0.02376953, -0.02376953, -7.706264E-05, -0.1951287, -0.1951287, -3.806996E-06, 0, 0.05722046, 0
MOTB, 147982339, 1, 1, 0, 1
RCIN, 147982342, 1492, 1497, 982, 1506, 1167, 982, 982, 982, 982, 982, 982, 982, 1494, 1494
RCOU, 147982347, 982, 982, 982, 982, 0, 0, 0, 0, 0, 0, 0, 0, 0, 0
VIBE, 147982352, 0.02088887, 0.01825035, 0.03531981, 0, 0, 0
CTRL, 147982356, 2.039161E-05, 4.971056E-05, 2.312992E-05, 5.522874E-05, 8.469777E-06
IMU, 147982366, -1.481014E-05, -0.0007732275, 0.0001411119, -0.2302898, 0.1361817, -9.769616, 0, 0, 0, 1, 1
IMU, 148022148, -0.0001821493, -0.001048625, 0.0002216885, -0.2285175, 0.1456846, -9.762686, 0, 0, 0, 1, 1
IMU, 148062139, 0.0003340991, -0.0003883161, 0.0007332752, -0.2373016, 0.1347124, -9.753799, 0, 0, 0, 1, 1
GPS, 148079791, 3, 35813600, 1958, 9, 1.12, -34.0729265, 18.8400007, 72.44, 0.3228002, 196.1892, -0.19, 1
GPA, 148079791, 2.08, 3.30, 5.25, 0.95, 1, 148079
CURR, 148079858, 16.54718, 0, 0.04027995
CUR2, 148079863, 16.5037, 2.76, 18.58332
MAG, 148079878, 60, 39, -266, -208, 24, -34, 0, 0, 0, 1, 148079870
MAG2, 148079878, 48, 95, -267, -121, 141, -76, 0, 0, 0, 1, 148079874
BARO, 148082152, 0.04463083, 102034.5, 32.11, -0.2754559, 148082, 0
CTUN, 148082173, 0, 0, 0, 0.3347042, 0, -0.4128427, 0.04, 0.00, 0.00, 0, 0, -7
ATT, 148082233, -0.64, -0.64, -2.88, -2.88, 317.39, 317.40, 0.12, 0.10
NKF1, 148082238, -0.64, -2.88, 317.39, -0.03262556, 0.1185048, 0.07483897, 0, -0.516205, 2.680185, 0.4128427, 0.01, -0.02, 0.20
NKF2, 148082238, 3, 0.00, 0.00, 0.00, 0.00, 0.00, 79, 0, -251, 0, 0, 0, 0
NKF3, 148082238, 0.09, 0.27, 0.09, -0.23, -0.04, 0.15, 0, 0, 0, 8.44, 0.00
NKF4, 148082238, 0.06, 0.00, 0.01, 0.09, 0.00, 0.0003392312, 0, 0, 0, 16, 9087, 0, 0
NKF5, 148082238, 0, 0, 0, 0, 0.16, 0.55, 0.05, 0.09, 0.15, 0.002486154, 0.007651742, 0.0164153
AHR2, 148082267, -0.75, -2.99, 313.13, 74.58, -34.0729265, 18.8400007
POS, 148082274, -34.0729282, 18.8400006, 74.6, -0.4128427
RATE, 148082278, -0.04182756, -0.04182756, -1.93262E-05, -0.0238872, -0.0238872, -1.008899E-05, -0.2205284, -0.2205284, 9.524728E-06, 0, -0.1274109, 0
MOTB, 148082284, 1, 1, 0, 1
RCIN, 148082287, 1492, 1497, 982, 1490, 1167, 982, 982, 982, 982, 982, 982, 982, 1494, 1494
RCOU, 148082292, 982, 982, 982, 982, 0, 0, 0, 0, 0, 0, 0, 0, 0, 0
VIBE, 148082299, 0.02109488, 0.01888364, 0.03372211, 0, 0, 0
CTRL, 148082303, 2.063309E-05, 5.07677E-05, 2.248477E-05, 5.429663E-05, 7.62633E-06
IMU, 148102127, -0.0006309885, -0.001192991, -0.001112453, -0.2343491, 0.1423335, -9.762108, 0, 0, 0, 1, 1
IMU, 148142126, 5.401042E-05, 0.0002139302, -0.0002263116, -0.2314517, 0.1397882, -9.759251, 0, 0, 0, 1, 1
CURR, 148179754, 16.54718, 0, 0.04027995
CUR2, 148179761, 16.48195, 1.84, 18.63439
MAG, 148179777, 62, 24, -271, -208, 24, -34, 0, 0, 0, 1, 148179769
MAG2, 148179777, 50, 83, -269, -121, 141, -76, 0, 0, 0, 1, 148179773
BARO, 148182141, -0.01115771, 102035.1, 32.11, 0.2955049, 148182, 0
CTUN, 148182161, 0, 0, 0, 0.3347042, 0, -0.4055747, -0.01, 0.00, 0.00, 0, 0, -7
ATT, 148182215, -0.65, -0.65, -2.88, -2.88, 317.35, 317.36, 0.12, 0.10
NKF1, 148182220, -0.65, -2.88, 317.35, -0.0373992, 0.114688, 0.07207983, 0, -0.523928, 2.680851, 0.4055747, 0.01, -0.02, 0.20
NKF2, 148182220, 3, 0.00, 0.00, 0.00, 0.00, 0.00, 79, 0, -251, 0, 0, 0, 0
NKF3, 148182220, 0.27, 0.19, 0.26, -0.22, -0.06, 0.57, 0, 0, 0, 12.61, 0.00
NKF4, 148182220, 0.09, 0.00, 0.03, 0.14, 0.00, 0.0003500855, 0, 0, 0, 16, 9087, 0, 0
NKF5, 148182220, 0, 0, 0, 0, 0.18, 0.54, 0.06, 0.09, 0.15, 0.002897684, 0.01997141, 0.04335072
AHR2, 148182249, -0.81, -2.89, 313.06, 74.52, -34.0729265, 18.8400007
POS, 148182255, -34.0729283, 18.8400006, 74.61, -0.4055747
RATE, 148182259, 0.002668625, 0.002668625, -2.501286E-05, 0.0391592, 0.0391592, 3.06228E-05, -0.2109584, -0.2109584, -4.564344E-06, 0, -0.2750397, 0
MOTB, 148182264, 1, 1, 0, 1
RCIN, 148182267, 1492, 1497, 982, 1471, 1167, 982, 982, 982, 982, 982, 982, 982, 1494, 1494
RCOU, 148182272, 982, 982, 982, 982, 0, 0, 0, 0, 0, 0, 0, 0, 0, 0
VIBE, 148182279, 0.02013199, 0.01844297, 0.03306313, 0, 0, 0
CTRL, 148182282, 2.134708E-05, 5.240762E-05, 2.263708E-05, 5.579102E-05, 7.607199E-06
IMU, 148182292, 0.0003648639, 0.000322997, -0.0001096648, -0.2328092, 0.1318003, -9.766092, 0, 0, 0, 1, 1
IMU, 148222139, 0.0002138983, 0.001293738, 0.0005994631, -0.2386611, 0.1284315, -9.76616, 0, 0, 0, 1, 1
IMU, 148262200, 0.0005257663, 5.025207E-06, 0.0006588768, -0.2296256, 0.1444597, -9.767033, 0, 0, 0, 1, 1
GPS, 148279726, 3, 35813800, 1958, 9, 1.12, -34.0729266, 18.8400006, 72.40, 0.14, 180, 0.06, 1
GPA, 148279726, 2.08, 3.30, 5.26, 0.79, 1, 148279
CURR, 148279797, 16.54718, 0, 0.04027995
CUR2, 148279801, 16.5037, 0, 18.63439
MAG, 148279815, 59, 38, -264, -208, 24, -34, 0, 0, 0, 1, 148279808
MAG2, 148279815, 50, 94, -259, -121, 141, -76, 0, 0, 0, 1, 148279811
BARO, 148282157, -0.05578854, 102035.6, 32.11, 0.4393348, 148282, 0
CTUN, 148282178, 0, 0, 0, 0.3347042, 0, -0.39701, -0.05, 0.00, 0.00, 0, 0, -6
ATT, 148282233, -0.66, -0.66, -2.87, -2.87, 317.30, 317.31, 0.12, 0.10
NKF1, 148282238, -0.66, -2.87, 317.30, -0.04186894, 0.1116379, 0.06922758, 0, -0.532819, 2.682601, 0.3970101, 0.01, -0.02, 0.20
NKF2, 148282238, 3, 0.00, 0.00, 0.00, 0.00, 0.00, 79, 0, -251, 0, 0, 0, 0
NKF3, 148282238, 0.27, 0.19, 0.26, -0.22, -0.06, 0.41, 0, 0, 0, 10.05, 0.00
NKF4, 148282238, 0.09, 0.00, 0.02, 0.11, 0.00, 0.0003610811, 0, 0, 0, 16, 9087, 0, 0
NKF5, 148282238, 0, 0, 0, 0, 0.18, 0.54, 0.06, 0.09, 0.15, 0.003084094, 0.01459276, 0.03515531
AHR2, 148282265, -0.87, -2.79, 313.11, 74.48, -34.0729266, 18.8400006
POS, 148282272, -34.0729283, 18.8400006, 74.62, -0.3970101
RATE, 148282275, -0.02096352, -0.02096352, 4.32844E-05, -0.04021467, -0.04021467, -5.253387E-05, -0.1809224, -0.1809224, -1.747159E-06, 0, -1.41716, 0
MOTB, 148282280, 1, 1, 0, 1
RCIN, 148282283, 1492, 1497, 982, 1470, 1167, 982, 982, 982, 982, 982, 982, 982, 1494, 1494
RCOU, 148282289, 982, 982, 982, 982, 0, 0, 0, 0, 0, 0, 0, 0, 0, 0
VIBE, 148282295, 0.0192113, 0.02380666, 0.03215298, 0, 0, 0
CTRL, 148282299, 1.932575E-05, 4.786097E-05, 2.296692E-05, 5.58733E-05, 7.052502E-06
IMU, 148302131, 0.0009428419, 0.0006677116, 0.000584379, -0.2329032, 0.137293, -9.774153, 0, 0, 0, 1, 1
RAD, 148329774, 199, 105, 82, 66, 85, 0, 0
RAD, 148329787, 199, 105, 82, 66, 85, 0, 0
IMU, 148342155, -0.0003895618, 0.0007825646, -0.0004879975, -0.2351984, 0.1366485, -9.767704, 0, 0, 0, 1, 1
CURR, 148379836, 16.56893, 0, 0.04027995
CUR2, 148379847, 16.5037, 0, 18.63439
MAG, 148379862, 60, 35, -265, -208, 24, -34, 0, 0, 0, 1, 148379854
MAG2, 148379862, 48, 97, -270, -121, 141, -76, 0, 0, 0, 1, 148379857
BARO, 148382165, 0.1645762, 102033.1, 32.10, -0.02702259, 148382, 0
CTUN, 148382185, 0, 0, 0, 0.3347042, 0, -0.3888294, 0.16, 0.00, 0.00, 0, 0, -6
ATT, 148382242, -0.66, -0.66, -2.87, -2.87, 317.24, 317.25, 0.12, 0.09
NKF1, 148382247, -0.66, -2.87, 317.24, -0.04639713, 0.1079764, 0.0663451, 0, -0.5416259, 2.682719, 0.3888294, 0.01, -0.02, 0.20
NKF2, 148382247, 3, 0.00, 0.00, 0.00, 0.00, 0.00, 79, 0, -251, 0, 0, 0, 0
NKF3, 148382247, 0.09, 0.09, 0.00, -0.22, -0.04, 0.35, 0, 0, 0, -1.23, 0.00
NKF4, 148382247, 0.02, 0.00, 0.02, 0.01, 0.00, 0.0003148336, 0, 0, 0, 16, 9087, 0, 0
NKF5, 148382247, 0, 0, 0, 0, 0.18, 0.54, 0.06, 0.09, 0.15, 0.002595975, 0.01560207, 0.03458302
AHR2, 148382273, -0.75, -2.82, 313.03, 74.7, -34.0729266, 18.8400006
POS, 148382279, -34.0729284, 18.8400006, 74.63, -0.3888294
RATE, 148382283, 0.03105795, 0.03105795, 5.878191E-05, 0.02179505, 0.02179505, -1.858048E-05, -0.2492364, -0.2492364, 7.602956E-06, 0, -0.1900673, 0
MOTB, 148382288, 1, 1, 0, 1
RCIN, 148382291, 1492, 1497, 982, 1480, 1167, 982, 982, 982, 982, 982, 982, 982, 1494, 1494
RCOU, 148382295, 982, 982, 982, 982, 0, 0, 0, 0, 0, 0, 0, 0, 0, 0
VIBE, 148382302, 0.0195575, 0.02032201, 0.0319824, 0, 0, 0
CTRL, 148382306, 2.036824E-05, 4.994488E-05, 2.340066E-05, 5.716691E-05, 6.663538E-06
IMU, 148382315, 0.0008609747, 2.084772E-05, -0.0007809931, -0.232656, 0.1349172, -9.766949, 0, 0, 0, 1, 1
IMU, 148422133, 0.000339191, 0.0001634432, -0.0003225013, -0.2336252, 0.1363647, -9.770562, 0, 0, 0, 1, 1
IMU, 148462202, -0.0001613934, -0.0007038614, -0.0002602466, -0.2327403, 0.1264662, -9.747356, 0, 0, 0, 1, 1
GPS, 148479774, 3, 35814000, 1958, 9, 1.12, -34.0729264, 18.8400008, 72.31, 0.01414214, 225, 0.31, 1
GPA, 148479774, 2.08, 3.31, 5.28, 0.81, 1, 148479
CURR, 148479841, 16.54718, 0, 0.04027995
CUR2, 148479844, 16.52544, 0, 18.63439
MAG, 148479858, 61, 35, -264, -208, 24, -34, 0, 0, 0, 1, 148479851
MAG2, 148479858, 48, 84, -268, -121, 141, -76, 0, 0, 0, 1, 148479854
BARO, 148482145, -0.03347313, 102035.4, 32.11, -0.1307544, 148482, 0
CTUN, 148482166, 0, 0, 0, 0.3347042, 0, -0.3817307, -0.03, 0.00, 0.00, 0, 0, -6
ATT, 148482223, -0.67, -0.67, -2.87, -2.87, 317.20, 317.21, 0.11, 0.08
NKF1, 148482227, -0.67, -2.87, 317.20, -0.05063507, 0.1053107, 0.06437986, 0, -0.5502354, 2.684176, 0.3817307, 0.01, -0.02, 0.20
NKF2, 148482227, 3, 0.00, 0.00, 0.00, 0.00, 0.00, 79, 0, -251, 0, 0, 0, 0
NKF3, 148482227, 0.09, 0.09, 0.00, -0.22, -0.04, 0.31, 0, 0, 0, 9.95, 0.00
NKF4, 148482227, 0.02, 0.00, 0.02, 0.11, 0.00, 0.0002652031, 0, 0, 0, 16, 9087, 0, 0
NKF5, 148482227, 0, 0, 0, 0, 0.18, 0.54, 0.08, 0.09, 0.15, 0.002652497, 0.01113008, 0.02717803
AHR2, 148482256, -0.63, -2.86, 312.97, 74.5, -34.0729264, 18.8400008
POS, 148482263, -34.0729285, 18.8400007, 74.63, -0.3817307
RATE, 148482266, 0.02342556, 0.02342556, -6.245999E-05, 0.01709077, 0.01709077, -9.448442E-06, -0.2306137, -0.2306137, 2.825642E-06, 0, -0.2322197, 0
MOTB, 148482271, 1, 1, 0, 1
RCIN, 148482274, 1492, 1497, 982, 1482, 1167, 982, 982, 982, 982, 982, 982, 982, 1494, 1494
RCOU, 148482279, 982, 982, 982, 982, 0, 0, 0, 0, 0, 0, 0, 0, 0, 0
VIBE, 148482286, 0.01976417, 0.02086825, 0.03164882, 0, 0, 0
CTRL, 148482290, 1.885524E-05, 4.641692E-05, 2.293802E-05, 5.568098E-05, 6.030139E-06
EV, 148484350, 57
IMU, 148502212, 0.0004353999, -0.000562799, 2.899966E-05, -0.2341865, 0.1377855, -9.771667, 0, 0, 0, 1, 1
IMU, 148542133, -4.830651E-05, 7.270538E-05, 0.0004166019, -0.2222266, 0.1335056, -9.763389, 0, 0, 0, 1, 1
CURR, 148579788, 16.56893, 0, 0.04027995
CUR2, 148579797, 16.54718, 0, 18.63439
MAG, 148579812, 56, 32, -269, -208, 24, -34, 0, 0, 0, 1, 148579804
MAG2, 148579812, 54, 86, -267, -121, 141, -76, 0, 0, 0, 1, 148579808
BARO, 148582158, -0.02231542, 102035.2, 32.10, 0.108962, 148582, 0
CTUN, 148582180, 0, 0, 0, 0.3347042, 0, -0.3789408, -0.02, 0.00, 0.00, 0, 0, -6
ATT, 148582242, -0.67, -0.67, -2.87, -2.87, 317.15, 317.16, 0.11, 0.07
NKF1, 148582247, -0.67, -2.87, 317.15, -0.05253259, 0.1011763, 0.06407829, 0, -0.5541898, 2.684352, 0.3789408, 0.01, -0.02, 0.20
NKF2, 148582247, 3, 0.00, 0.00, 0.00, 0.00, 0.00, 79, 0, -251, 0, 0, 0, 0
NKF3, 148582247, -0.04, 0.10, -0.24, -0.24, -0.06, 0.54, 0, 0, 0, 7.32, 0.00
NKF4, 148582247, 0.05, 0.01, 0.03, 0.08, 0.00, 0.0002343669, 0, 0, 0, 16, 9087, 0, 0
NKF5, 148582247, 0, 0, 0, 0, 0.18, 0.54, 0.08, 0.09, 0.15, 0.002524061, 0.01013701, 0.02083146
AHR2, 148582278, -0.56, -2.92, 312.91, 74.51, -34.0729264, 18.8400008
POS, 148582284, -34.0729285, 18.8400007, 74.64, -0.3789408
RATE, 148582288, 0.02358676, 0.02358676, 1.434541E-05, 0.08420542, 0.08420542, 2.679585E-05, -0.2154039, -0.2154039, -1.018704E-06, 0, -0.9908676, 0
MOTB, 148582293, 1, 1, 0, 1
RCIN, 148582297, 1492, 1497, 982, 1485, 1167, 982, 982, 982, 982, 982, 982, 982, 1494, 1494
RCOU, 148582302, 1011, 1011, 1011, 1011, 0, 0, 0, 0, 0, 0, 0, 0, 0, 0
VIBE, 148582309, 0.01993, 0.02127087, 0.03509437, 0, 0, 0
CTRL, 148582312, 2.1252E-05, 5.335234E-05, 2.282431E-05, 5.693779E-05, 6.007888E-06
IMU, 148582322, 0.0007296597, 0.001113019, -0.0001969434, -0.2229489, 0.131179, -9.75938, 0, 0, 0, 1, 1
IMU, 148622135, -0.0001103838, -1.908397E-05, -0.0001265536, -0.2354566, 0.1392424, -9.77416, 0, 0, 0, 1, 1
IMU, 148662177, -0.0005699339, 0.000111316, -0.0004211758, -0.219371, 0.1307967, -9.760697, 0, 0, 0, 1, 1
GPS, 148679710, 3, 35814200, 1958, 9, 1.12, -34.0729261, 18.8400008, 72.21, 0.06082762, 350.5377, 0.3, 1
GPA, 148679710, 2.08, 3.32, 5.29, 0.82, 1, 148679
CURR, 148679775, 16.52544, 0, 0.04027995
CUR2, 148679779, 16.5037, 2.76, 18.71105
MAG, 148679794, 57, 32, -268, -208, 24, -34, 0, 0, 0, 1, 148679786
MAG2, 148679794, 51, 91, -269, -121, 141, -76, 0, 0, 0, 1, 148679789
BARO, 148682141, -0.03347313, 102035.3, 32.09, -0.003486788, 148682, 0
CTUN, 148682160, 0, 0, 0, 0.3347042, 0, -0.3752531, -0.03, 0.00, 0.00, 0, 0, -6
ATT, 148682258, -0.68, -0.68, -2.87, -2.87, 317.11, 317.12, 0.10, 0.06
NKF1, 148682263, -0.68, -2.87, 317.11, -0.05403407, 0.09794861, 0.06318575, 0, -0.5577378, 2.685349, 0.3752531, 0.01, -0.02, 0.20
NKF2, 148682263, 3, 0.00, 0.00, 0.00, 0.00, 0.00, 79, 0, -251, 0, 0, 0, 0
NKF3, 148682263, -0.04, 0.10, -0.24, -0.24, -0.06, 0.33, 0, 0, 0, 7.21, 0.00
NKF4, 148682263, 0.05, 0.01, 0.02, 0.08, 0.00, 0.0002146155, 0, 0, 0, 16, 9087, 0, 0
NKF5, 148682263, 0, 0, 0, 0, 0.18, 0.54, 0.07, 0.09, 0.15, 0.002409069, 0.006659121, 0.01516678
AHR2, 148682287, -0.50, -2.99, 312.86, 74.5, -34.0729261, 18.8400008
POS, 148682294, -34.0729286, 18.8400007, 74.64, -0.3752531
RATE, 148682297, -0.06956431, -0.06956431, -5.116528E-05, -0.00479289, -0.00479289, -8.443017E-05, -0.1839013, -0.1839013, -6.590445E-06, 0, -0.5206108, 0
MOTB, 148682303, 1, 1, 0, 1
RCIN, 148682306, 1492, 1497, 982, 1486, 1167, 982, 982, 982, 982, 982, 982, 982, 1494, 1494
RCOU, 148682311, 1042, 1042, 1042, 1042, 0, 0, 0, 0, 0, 0, 0, 0, 0, 0
VIBE, 148682316, 0.02078963, 0.02053722, 0.03224998, 0, 0, 0
CTRL, 148682320, 2.365404E-05, 5.549911E-05, 2.452446E-05, 6.153043E-05, 5.218692E-06
IMU, 148702264, 0.0004045318, -0.000544305, 0.0004177357, -0.2333039, 0.141061, -9.766196, 0, 0, 0, 1, 1
IMU, 148742161, 0.001018007, -3.926943E-05, -0.0009059486, -0.2414961, 0.1361291, -9.771162, 0, 0, 0, 1, 1
CURR, 148779847, 16.5037, 0, 0.04027995
CUR2, 148779855, 16.5037, 2.76, 18.78778
MAG, 148779870, 59, 37, -271, -208, 24, -34, 0, 0, 0, 1, 148779862
MAG2, 148779870, 51, 91, -272, -121, 141, -76, 0, 0, 0, 1, 148779865
BARO, 148782202, -0.01115771, 102035.1, 32.09, -0.2641239, 148782, 0
CTUN, 148782223, 0, 0, 0, 0.3347042, 0, -0.3754851, -0.01, 0.00, 0.00, 0, 0, -6
ATT, 148782339, -0.68, -0.68, -2.88, -2.88, 317.06, 317.07, 0.10, 0.07
NKF1, 148782346, -0.68, -2.88, 317.06, -0.052975, 0.09446817, 0.06356878, 0, -0.5545218, 2.684852, 0.3754851, 0.01, -0.02, 0.20
NKF2, 148782346, 3, 0.00, 0.00, 0.00, 0.00, 0.00, 79, 0, -251, 0, 0, 0, 0
NKF3, 148782346, -0.11, 0.10, -0.23, -0.25, -0.05, 0.35, 0, 0, 0, 6.67, 0.00
NKF4, 148782346, 0.05, 0.01, 0.02, 0.07, 0.00, 0.0002195993, 0, 0, 0, 16, 9087, 0, 0
NKF5, 148782346, 0, 0, 0, 0, 0.17, 0.54, 0.07, 0.09, 0.15, 0.0023473, 0.01210504, 0.02553648
AHR2, 148782387, -0.47, -3.02, 312.82, 74.52, -34.0729261, 18.8400008
POS, 148782393, -34.0729285, 18.8400007, 74.64, -0.3754851
RATE, 148782397, 0.01249668, 0.01249668, 7.691765E-06, 0.01969692, 0.01969692, 0.0001339517, -0.2294402, -0.2294402, 4.301148E-06, 0, -0.9253502, 0
MOTB, 148782402, 1, 1, 0, 1
RCIN, 148782405, 1492, 1497, 982, 1487, 1167, 982, 982, 982, 982, 982, 982, 982, 1494, 1494
RCOU, 148782411, 1073, 1073, 1073, 1073, 0, 0, 0, 0, 0, 0, 0, 0, 0, 0
VIBE, 148782418, 0.01956027, 0.01757203, 0.03521635, 0, 0, 0
CTRL, 148782422, 2.430027E-05, 5.773966E-05, 2.43168E-05, 6.208471E-05, 5.607345E-06
IMU, 148782432, 0.0005368454, -1.181295E-05, -0.0004249609, -0.2362715, 0.1332363, -9.759658, 0, 0, 0, 1, 1
IMU, 148822168, -0.0005667539, -0.0005419543, -0.0005365558, -0.2216522, 0.1269197, -9.758343, 0, 0, 0, 1, 1
GPS, 148859775, 3, 35814400, 1958, 9, 1.12, -34.0729257, 18.8400005, 72.20, 0.05, 143.1301, 0.38, 1
GPA, 148859775, 2.08, 3.33, 5.31, 0.82, 1, 148859
IMU, 148862227, 0.0003808395, -0.0002021382, -0.0006208075, -0.2341845, 0.1193958, -9.751327, 0, 0, 0, 1, 1
CURR, 148879827, 16.56893, 0, 0.04027995
CUR2, 148879834, 16.63416, 0, 18.78778
MAG, 148879851, 60, 40, -267, -208, 24, -34, 0, 0, 0, 1, 148879843
MAG2, 148879851, 45, 97, -265, -121, 141, -76, 0, 0, 0, 1, 148879846
BARO, 148882163, -0.1785233, 102037, 32.08, -0.258022, 148882, 0
CTUN, 148882184, 0, 0, 0, 0.3347042, 0, -0.3755732, -0.17, 0.00, 0.00, 0, 0, -6
ATT, 148882240, -0.69, -0.69, -2.88, -2.88, 317.02, 317.03, 0.09, 0.08
NKF1, 148882245, -0.69, -2.88, 317.02, -0.05167963, 0.09086577, 0.06415569, 0, -0.5518073, 2.685521, 0.3755732, 0.01, -0.02, 0.20
NKF2, 148882245, 3, 0.00, 0.00, 0.00, 0.00, 0.00, 79, 0, -251, 0, 0, 0, 0
NKF3, 148882245, -0.11, 0.10, -0.23, -0.25, -0.05, 0.34, 0, 0, 0, 5.93, 0.00
NKF4, 148882245, 0.05, 0.01, 0.02, 0.06, 0.00, 0.0002282769, 0, 0, 0, 16, 9087, 0, 0
NKF5, 148882245, 0, 0, 0, 0, 0.17, 0.53, 0.07, 0.09, 0.15, 0.002222921, 0.00755965, 0.01564621
AHR2, 148882273, -0.45, -3.03, 312.75, 74.36, -34.0729257, 18.8400005
POS, 148882280, -34.0729285, 18.8400007, 74.64, -0.3755732
RATE, 148882283, -0.00576971, -0.00576971, -0.0001115476, 0.03251297, 0.03251297, 5.04704E-05, -0.1542426, -0.1542426, -1.454681E-05, 0, 1.301193, 0
MOTB, 148882288, 1, 1, 0, 1
RCIN, 148882291, 1491, 1497, 982, 1488, 1167, 982, 982, 982, 982, 982, 982, 982, 1494, 1494
RCOU, 148882296, 1084, 1084, 1084, 1084, 0, 0, 0, 0, 0, 0, 0, 0, 0, 0
VIBE, 148882303, 0.02040173, 0.02198065, 0.03407943, 0, 0, 0
CTRL, 148882307, 2.288169E-05, 5.43129E-05, 2.502303E-05, 6.395025E-05, 6.272177E-06
IMU, 148902130, 0.0001156853, -1.531463E-05, 0.001281594, -0.2308544, 0.1370842, -9.758286, 0, 0, 0, 1, 1
IMU, 148942171, 0.001600517, -0.0002198895, -0.001675049, -0.23589, 0.1265421, -9.747511, 0, 0, 0, 1, 1
CURR, 148979851, 16.56893, 0, 0.04027995
CUR2, 148979859, 16.61242, 0, 18.78778
MAG, 148979875, 58, 36, -268, -208, 24, -34, 0, 0, 0, 1, 148979866
MAG2, 148979875, 47, 95, -265, -121, 141, -76, 0, 0, 0, 1, 148979869
DU32, 148979892, 7, 386520
TERR, 148981381, 2, -34.0729285, 18.8400007, 100, 81.04234, 0.09061432, 0, 336
BARO, 148982216, -0.1673656, 102036.9, 32.07, -0.2676106, 148982, 0
CTUN, 148982235, 0, 0, 0, 0.3347042, 0, -0.3809358, -0.16, 0.00, 0.00, 0, 0, -6
ATT, 148982347, -0.69, -0.69, -2.88, -2.88, 316.98, 316.99, 0.09, 0.08
NKF1, 148982357, -0.69, -2.88, 316.98, -0.05076026, 0.08747823, 0.06710745, 0, -0.5466602, 2.685199, 0.3809357, 0.01, -0.02, 0.20
NKF2, 148982357, 3, 0.00, 0.00, 0.00, 0.00, 0.00, 79, 0, -251, 0, 0, 0, 0
NKF3, 148982357, 0.00, 0.05, -0.31, -0.29, -0.02, 0.38, 0, 0, 0, 8.81, 0.00
NKF4, 148982357, 0.06, 0.01, 0.02, 0.10, 0.00, 0.0001884358, 0, 0, 0, 16, 9087, 0, 0
NKF5, 148982357, 0, 0, 0, 0, 0.15, 0.53, 0.07, 0.09, 0.15, 0.002301448, 0.009973492, 0.02455525
AHR2, 148982401, -0.49, -2.96, 312.66, 74.37, -34.0729257, 18.8400005
POS, 148982409, -34.0729285, 18.8400007, 74.63, -0.3809357
RATE, 148982413, -0.03910681, -0.03910681, -9.715239E-06, 0.0534071, 0.0534071, 7.734013E-05, -0.1744945, -0.1744945, -1.100281E-05, 0, 0.04301071, 0
MOTB, 148982419, 1, 1, 0, 1
RCIN, 148982422, 1491, 1497, 982, 1488, 1167, 982, 982, 982, 982, 982, 982, 982, 1494, 1494
RCOU, 148982427, 1084, 1084, 1084, 1084, 0, 0, 0, 0, 0, 0, 0, 0, 0, 0
VIBE, 148982433, 0.0203806, 0.01866462, 0.03590557, 0, 0, 0
CTRL, 148982436, 2.385621E-05, 5.531524E-05, 2.360921E-05, 6.05973E-05, 8.985778E-06
IMU, 148982447, -0.0003636117, 0.0005774295, 0.0005396665, -0.2348403, 0.1296069, -9.7695, 0, 0, 0, 1, 1
IMU, 149022157, -0.0001830893, 0.0005667944, 0.0008675432, -0.2395087, 0.1282194, -9.750105, 0, 0, 0, 1, 1
GPS, 149059779, 3, 35814600, 1958, 9, 1.12, -34.0729256, 18.8400006, 72.10, 0.06403124, 141.3402, 0.25, 1
GPA, 149059779, 2.08, 3.35, 5.34, 0.82, 1, 149059
IMU, 149062221, 0.0008826093, 0.0006401763, -0.0009500623, -0.240382, 0.1250635, -9.748638, 0, 0, 0, 1, 1
CURR, 149079820, 16.54718, 0, 0.04027995
CUR2, 149079826, 16.48195, 0, 18.78778
MAG, 149079841, 59, 28, -263, -208, 24, -34, 0, 0, 0, 1, 149079832
MAG2, 149079841, 52, 81, -265, -121, 141, -76, 0, 0, 0, 1, 149079836
BARO, 149082181, -0.1952599, 102037.2, 32.06, -0.458512, 149082, 0
CTUN, 149082203, 0, 0, 0, 0.3347042, 0, -0.3846137, -0.19, 0.00, 0.00, 0, 0, -6
ATT, 149082259, -0.69, -0.69, -2.89, -2.89, 316.93, 316.94, 0.07, 0.07
NKF1, 149082264, -0.69, -2.89, 316.93, -0.05102683, 0.08523951, 0.06877347, 0, -0.544252, 2.686943, 0.3846137, 0.01, -0.02, 0.20
NKF2, 149082264, 3, 0.00, 0.00, 0.00, 0.00, 0.00, 79, 0, -251, 0, 0, 0, 0
NKF3, 149082264, 0.00, 0.05, -0.31, -0.29, -0.02, 0.21, 0, 0, 0, 10.58, 0.00
NKF4, 149082264, 0.06, 0.01, 0.01, 0.12, 0.00, 0.0001575145, 0, 0, 0, 16, 9087, 0, 0
NKF5, 149082264, 0, 0, 0, 0, 0.15, 0.53, 0.07, 0.09, 0.15, 0.002474319, 0.006299234, 0.01768863
AHR2, 149082293, -0.51, -2.91, 312.59, 74.34, -34.0729256, 18.8400006
POS, 149082300, -34.0729284, 18.8400007, 74.63, -0.3846137
RATE, 149082304, 0.02411482, 0.02411482, -8.95668E-05, 0.0319583, 0.0319583, -2.651587E-05, -0.2312604, -0.2312604, 3.737967E-06, 0, 0.6521225, 0
MOTB, 149082309, 1, 1, 0, 1
RCIN, 149082312, 1480, 1497, 982, 1486, 1167, 982, 982, 982, 982, 982, 982, 982, 1494, 1494
RCOU, 149082317, 1084, 1084, 1084, 1084, 0, 0, 0, 0, 0, 0, 0, 0, 0, 0
VIBE, 149082325, 0.01873563, 0.02038595, 0.03549496, 0, 0, 0
CTRL, 149082330, 2.385674E-05, 5.714816E-05, 2.492601E-05, 6.40679E-05, 8.758298E-06
IMU, 149102139, 0.000751935, 0.001478475, -0.0002656218, -0.2201732, 0.1280327, -9.755972, 0, 0, 0, 1, 1
IMU, 149142172, -0.0004682642, 1.625564E-05, 0.0001440532, -0.2375033, 0.1342928, -9.760019, 0, 0, 0, 1, 1
CURR, 149179858, 16.56893, 0, 0.04027995
CUR2, 149179866, 16.48195, 0, 18.78778
MAG, 149179880, 62, 29, -270, -208, 24, -34, 0, 0, 0, 1, 149179873
MAG2, 149179880, 58, 94, -270, -121, 141, -76, 0, 0, 0, 1, 149179876
BARO, 149182211, 0.1394714, 102033.4, 32.05, -0.39575, 149182, 0
CTUN, 149182230, 0, 0, 0, 0.3347042, 0, -0.3912543, 0.13, 0.00, 0.00, 0, 0, -7
ATT, 149182306, -0.69, -0.69, -2.89, -2.89, 316.89, 316.90, 0.07, 0.06
NKF1, 149182311, -0.69, -2.89, 316.89, -0.05039393, 0.08228367, 0.07125247, 0, -0.5397711, 2.688031, 0.3912543, 0.01, -0.02, 0.20
NKF2, 149182311, 3, 0.00, 0.00, 0.00, 0.00, 0.00, 79, 0, -251, 0, 0, 0, 0
NKF3, 149182311, 0.00, 0.04, -0.17, -0.30, -0.02, 0.23, 0, 0, 0, 8.48, 0.00
NKF4, 149182311, 0.03, 0.01, 0.01, 0.09, 0.00, 0.0001299985, 0, 0, 0, 16, 9087, 0, 0
NKF5, 149182311, 0, 0, 0, 0, 0.14, 0.53, 0.04, 0.09, 0.15, 0.002555025, 0.007569956, 0.02378577
AHR2, 149182352, -0.52, -2.90, 312.59, 74.67, -34.0729256, 18.8400006
POS, 149182359, -34.0729284, 18.8400007, 74.62, -0.3912543
RATE, 149182368, 0.02738194, 0.02738194, 2.38288E-05, 0.002718894, 0.002718894, -1.09361E-05, -0.1730395, -0.1730395, -1.020221E-05, 0, 0.4989624, 0
MOTB, 149182373, 1, 1, 0, 1
RCIN, 149182376, 1458, 1497, 982, 1478, 1167, 982, 982, 982, 982, 982, 982, 982, 1494, 1494
RCOU, 149182387, 1084, 1084, 1084, 1084, 0, 0, 0, 0, 0, 0, 0, 0, 0, 0
VIBE, 149182403, 0.02134971, 0.02133689, 0.03342942, 0, 0, 0
CTRL, 149182407, 2.238317E-05, 5.406838E-05, 2.444642E-05, 6.178489E-05, 8.394262E-06
IMU, 149182416, 0.000795316, -0.0003046868, 0.0005537811, -0.2376507, 0.1328647, -9.774188, 0, 0, 0, 1, 1
IMU, 149222187, 0.0005779422, 0.0003600359, -0.0002856339, -0.2314891, 0.1309548, -9.772809, 0, 0, 0, 1, 1
RAD, 149229810, 200, 105, 100, 64, 78, 0, 0
RAD, 149229823, 200, 105, 100, 64, 78, 0, 0
IMU, 149262234, 0.0004657454, 0.0009913228, -1.062144E-06, -0.2300087, 0.1390933, -9.745621, 0, 0, 0, 1, 1
GPS, 149279723, 3, 35814800, 1958, 9, 1.12, -34.0729255, 18.8400007, 72.03, 0.08062258, 119.7449, 0.32, 1
GPA, 149279723, 2.08, 3.36, 5.36, 0.84, 1, 149279
CURR, 149279796, 16.54718, 0, 0.04027995
CUR2, 149279800, 16.59067, 0, 18.78778
MAG, 149279814, 63, 36, -272, -208, 24, -34, 0, 0, 0, 1, 149279807
MAG2, 149279814, 53, 91, -268, -121, 141, -76, 0, 0, 0, 1, 149279810
BARO, 149282151, -0.1673656, 102036.9, 32.03, 0.120294, 149282, 0
CTUN, 149282171, 0, 0, 0, 0.3347042, 0, -0.3967039, -0.16, 0.00, 0.00, 0, 0, -7
ATT, 149282233, -0.69, -0.69, -2.89, -2.89, 316.84, 316.85, 0.06, 0.06
NKF1, 149282237, -0.69, -2.89, 316.84, -0.05005516, 0.08082759, 0.07276943, 0, -0.537828, 2.690661, 0.3967039, 0.01, -0.02, 0.20
NKF2, 149282237, 3, 0.00, 0.00, 0.00, 0.00, 0.00, 79, 0, -251, 0, 0, 0, 0
NKF3, 149282237, 0.00, 0.04, -0.17, -0.30, -0.02, 0.20, 0, 0, 0, 1.94, 0.00
NKF4, 149282237, 0.03, 0.01, 0.01, 0.02, 0.00, 0.0001099114, 0, 0, 0, 16, 9087, 0, 0
NKF5, 149282237, 0, 0, 0, 0, 0.13, 0.53, 0.04, 0.09, 0.15, 0.002255046, 0.004641236, 0.0176056
AHR2, 149282264, -0.52, -2.88, 312.59, 74.37, -34.0729255, 18.8400007
POS, 149282271, -34.0729284, 18.8400007, 74.62, -0.3967039
RATE, 149282275, -0.07456551, -0.07456551, -3.803457E-05, 2.914836E-06, 2.914836E-06, 5.620406E-05, -0.2044505, -0.2044505, -1.210049E-06, 0, -0.5119324, 0
MOTB, 149282280, 1, 1, 0, 1
RCIN, 149282283, 1475, 1497, 982, 1488, 1167, 982, 982, 982, 982, 982, 982, 982, 1494, 1494
