FMT, 128, 89, FMT, BBnNZ, Type,Length,Name,Format,Columns
FMT, 129, 31, PARM, QNf, TimeUS,Name,Value
FMT, 130, 46, GPS, QBIHBcLLefffB, TimeUS,Status,GMS,GWk,NSats,HDop,Lat,Lng,Alt,Spd,GCrs,VZ,U
FMT, 131, 46, GPS2, QBIHBcLLefffB, TimeUS,Status,GMS,GWk,NSats,HDop,Lat,Lng,Alt,Spd,GCrs,VZ,U
FMT, 196, 24, GPA, QCCCCBI, TimeUS,VDop,HAcc,VAcc,SAcc,VV,SMS
FMT, 197, 24, GPA2, QCCCCBI, TimeUS,VDop,HAcc,VAcc,SAcc,VV,SMS
FMT, 132, 49, IMU, QffffffIIfBB, TimeUS,GyrX,GyrY,GyrZ,AccX,AccY,AccZ,ErrG,ErrA,Temp,GyHlt,AcHlt
FMT, 133, 75, MSG, QZ, TimeUS,Message
FMT, 134, 39, RCIN, QHHHHHHHHHHHHHH, TimeUS,C1,C2,C3,C4,C5,C6,C7,C8,C9,C10,C11,C12,C13,C14
FMT, 135, 39, RCOU, QHHHHHHHHHHHHHH, TimeUS,C1,C2,C3,C4,C5,C6,C7,C8,C9,C10,C11,C12,C13,C14
FMT, 136, 15, RSSI, Qf, TimeUS,RXRSSI
FMT, 138, 33, BARO, QffcfIf, TimeUS,Alt,Press,Temp,CRt,SMS,Offset
FMT, 139, 21, POWR, QffH, TimeUS,Vcc,VServo,Flags
FMT, 146, 45, CMD, QHHHfffffff, TimeUS,CTot,CNum,CId,Prm1,Prm2,Prm3,Prm4,Lat,Lng,Alt
FMT, 147, 20, RAD, QBBBBBHH, TimeUS,RSSI,RemRSSI,TxBuf,Noise,RemNoise,RxErrors,Fixed
FMT, 149, 43, CAM, QIHLLeeeccC, TimeUS,GPSTime,GPSWeek,Lat,Lng,Alt,RelAlt,GPSAlt,Roll,Pitch,Yaw
FMT, 218, 43, TRIG, QIHLLeeeccC, TimeUS,GPSTime,GPSWeek,Lat,Lng,Alt,RelAlt,GPSAlt,Roll,Pitch,Yaw
FMT, 166, 30, ARSP, QffcffB, TimeUS,Airspeed,DiffPress,Temp,RawPress,Offset,U
FMT, 168, 23, CURR, Qfff, TimeUS,Volt,Curr,CurrTot
FMT, 169, 23, CUR2, Qfff, TimeUS,Volt,Curr,CurrTot
FMT, 167, 27, ATT, QccccCCCC, TimeUS,DesRoll,Roll,DesPitch,Pitch,DesYaw,Yaw,ErrRP,ErrYaw
FMT, 170, 34, MAG, QhhhhhhhhhBI, TimeUS,MagX,MagY,MagZ,OfsX,OfsY,OfsZ,MOfsX,MOfsY,MOfsZ,Health,S
FMT, 173, 14, MODE, QMBB, TimeUS,Mode,ModeNum,Rsn
FMT, 198, 15, RFND, QCC, TimeUS,Dist1,Dist2
FMT, 209, 33, DMS, IIIIIBBBBBBBBBB, TimeMS,N,Dp,RT,RS,Er,Fa,Fmn,Fmx,Pa,Pmn,Pmx,Sa,Smn,Smx
FMT, 137, 49, IMU2, QffffffIIfBB, TimeUS,GyrX,GyrY,GyrZ,AccX,AccY,AccZ,ErrG,ErrA,Temp,GyHlt,AcHlt
FMT, 150, 49, IMU3, QffffffIIfBB, TimeUS,GyrX,GyrY,GyrZ,AccX,AccY,AccZ,ErrG,ErrA,Temp,GyHlt,AcHlt
FMT, 140, 29, AHR2, QccCfLL, TimeUS,Roll,Pitch,Yaw,Alt,Lat,Lng
FMT, 184, 27, POS, QLLff, TimeUS,Lat,Lng,Alt,RelAlt
FMT, 141, 29, SIM, QccCfLL, TimeUS,Roll,Pitch,Yaw,Alt,Lat,Lng
FMT, 142, 51, EKF1, QccCfffffffccc, TimeUS,Roll,Pitch,Yaw,VN,VE,VD,dPD,PN,PE,PD,GX,GY,GZ
FMT, 143, 30, EKF2, Qbbbcchhhhhh, TimeUS,Ratio,AZ1bias,AZ2bias,VWN,VWE,MN,ME,MD,MX,MY,MZ
FMT, 144, 31, EKF3, Qcccccchhhc, TimeUS,IVN,IVE,IVD,IPN,IPE,IPD,IMX,IMY,IMZ,IVT
FMT, 145, 34, EKF4, QcccccccbbHBHH, TimeUS,SV,SP,SH,SMX,SMY,SMZ,SVT,OFN,OFE,FS,TS,SS,GPS
FMT, 164, 28, EKF5, QBhhhcccCC, TimeUS,NI,FIX,FIY,AFI,HAGL,offset,RI,rng,Herr
FMT, 200, 51, NKF1, QccCfffffffccc, TimeUS,Roll,Pitch,Yaw,VN,VE,VD,dPD,PN,PE,PD,GX,GY,GZ
FMT, 201, 35, NKF2, QbccccchhhhhhB, TimeUS,AZbias,GSX,GSY,GSZ,VWN,VWE,MN,ME,MD,MX,MY,MZ,MI
FMT, 202, 33, NKF3, Qcccccchhhcc, TimeUS,IVN,IVE,IVD,IPN,IPE,IPD,IMX,IMY,IMZ,IYAW,IVT
FMT, 203, 35, NKF4, QcccccfbbHBHHb, TimeUS,SV,SP,SH,SM,SVT,errRP,OFN,OFE,FS,TS,SS,GPS,PI
FMT, 204, 40, NKF5, QBhhhcccCCfff, TimeUS,NI,FIX,FIY,AFI,HAGL,offset,RI,rng,Herr,eAng,eVel,ePos
FMT, 205, 51, NKF6, QccCfffffffccc, TimeUS,Roll,Pitch,Yaw,VN,VE,VD,dPD,PN,PE,PD,GX,GY,GZ
FMT, 206, 35, NKF7, QbccccchhhhhhB, TimeUS,AZbias,GSX,GSY,GSZ,VWN,VWE,MN,ME,MD,MX,MY,MZ,MI
FMT, 207, 33, NKF8, Qcccccchhhcc, TimeUS,IVN,IVE,IVD,IPN,IPE,IPD,IMX,IMY,IMZ,IYAW,IVT
FMT, 208, 35, NKF9, QcccccfbbHBHHb, TimeUS,SV,SP,SH,SM,SVT,errRP,OFN,OFE,FS,TS,SS,GPS,PI
FMT, 151, 34, TERR, QBLLHffHH, TimeUS,Status,Lat,Lng,Spacing,TerrH,CHeight,Pending,Loaded
FMT, 152, 18, UBX1, QBHBBH, TimeUS,Instance,noisePerMS,jamInd,aPower,agcCnt
FMT, 153, 16, UBX2, QBbBbB, TimeUS,Instance,ofsI,magI,ofsQ,magQ
FMT, 154, 18, UBY1, QBHBBH, TimeUS,Instance,noisePerMS,jamInd,aPower,agcCnt
FMT, 155, 16, UBY2, QBbBbB, TimeUS,Instance,ofsI,magI,ofsQ,magQ
FMT, 174, 42, GRAW, QIHBBddfBbB, TimeUS,WkMS,Week,numSV,sv,cpMes,prMes,doMes,mesQI,cno,lli
FMT, 175, 24, GRXH, QdHbBB, TimeUS,rcvTime,week,leapS,numMeas,recStat
FMT, 176, 41, GRXS, QddfBBBHBBBBB, TimeUS,prMes,cpMes,doMes,gnss,sv,freq,lock,cno,prD,cpD,doD,trk
FMT, 177, 63, SBFE, QIHBBdddfffff, TimeUS,TOW,WN,Mode,Err,Lat,Lng,Height,Undul,Vn,Ve,Vu,COG
FMT, 156, 19, ESC1, Qcccc, TimeUS,RPM,Volt,Curr,Temp
FMT, 157, 19, ESC2, Qcccc, TimeUS,RPM,Volt,Curr,Temp
FMT, 158, 19, ESC3, Qcccc, TimeUS,RPM,Volt,Curr,Temp
FMT, 159, 19, ESC4, Qcccc, TimeUS,RPM,Volt,Curr,Temp
FMT, 160, 19, ESC5, Qcccc, TimeUS,RPM,Volt,Curr,Temp
FMT, 161, 19, ESC6, Qcccc, TimeUS,RPM,Volt,Curr,Temp
FMT, 162, 19, ESC7, Qcccc, TimeUS,RPM,Volt,Curr,Temp
FMT, 163, 19, ESC8, Qcccc, TimeUS,RPM,Volt,Curr,Temp
FMT, 171, 34, MAG2, QhhhhhhhhhBI, TimeUS,MagX,MagY,MagZ,OfsX,OfsY,OfsZ,MOfsX,MOfsY,MOfsZ,Health,S
FMT, 172, 34, MAG3, QhhhhhhhhhBI, TimeUS,MagX,MagY,MagZ,OfsX,OfsY,OfsZ,MOfsX,MOfsY,MOfsZ,Health,S
FMT, 178, 31, ACC1, QQfff, TimeUS,SampleUS,AccX,AccY,AccZ
FMT, 179, 31, ACC2, QQfff, TimeUS,SampleUS,AccX,AccY,AccZ
FMT, 180, 31, ACC3, QQfff, TimeUS,SampleUS,AccX,AccY,AccZ
FMT, 181, 31, GYR1, QQfff, TimeUS,SampleUS,GyrX,GyrY,GyrZ
FMT, 182, 31, GYR2, QQfff, TimeUS,SampleUS,GyrX,GyrY,GyrZ
FMT, 183, 31, GYR3, QQfff, TimeUS,SampleUS,GyrX,GyrY,GyrZ
FMT, 185, 35, PIDR, Qffffff, TimeUS,Des,P,I,D,FF,AFF
FMT, 186, 35, PIDP, Qffffff, TimeUS,Des,P,I,D,FF,AFF
FMT, 187, 35, PIDY, Qffffff, TimeUS,Des,P,I,D,FF,AFF
FMT, 188, 35, PIDA, Qffffff, TimeUS,Des,P,I,D,FF,AFF
FMT, 189, 35, PIDS, Qffffff, TimeUS,Des,P,I,D,FF,AFF
FMT, 165, 33, BAR2, QffcfIf, TimeUS,Alt,Press,Temp,CRt,SMS,Offset
FMT, 199, 33, BAR3, QffcfI, TimeUS,Alt,Press,Temp,CRt,SMS
FMT, 190, 35, VIBE, QfffIII, TimeUS,VibeX,VibeY,VibeZ,Clip0,Clip1,Clip2
FMT, 191, 47, IMT, Qfffffffff, TimeUS,DelT,DelvT,DelaT,DelAX,DelAY,DelAZ,DelVX,DelVY,DelVZ
FMT, 192, 47, IMT2, Qfffffffff, TimeUS,DelT,DelvT,DelaT,DelAX,DelAY,DelAZ,DelVX,DelVY,DelVZ
FMT, 193, 47, IMT3, Qfffffffff, TimeUS,DelT,DelvT,DelaT,DelAX,DelAY,DelAZ,DelVX,DelVY,DelVZ
FMT, 194, 24, ORGN, QBLLe, TimeUS,Type,Lat,Lng,Alt
FMT, 195, 19, RPM, Qff, TimeUS,rpm1,rpm2
FMT, 219, 47, GMB1, Iffffffffff, TimeMS,dt,dax,day,daz,dvx,dvy,dvz,jx,jy,jz
FMT, 220, 44, GMB2, IBfffffffff, TimeMS,es,ex,ey,ez,rx,ry,rz,tx,ty,tz
FMT, 221, 13, GMB3, Ihhh, TimeMS,rl_torque_cmd,el_torque_cmd,az_torque_cmd
FMT, 222, 59, RATE, Qffffffffffff, TimeUS,RDes,R,ROut,PDes,P,POut,YDes,Y,YOut,ADes,A,AOut
FMT, 223, 23, RALY, QBBLLh, TimeUS,Tot,Seq,Lat,Lng,Alt
FMT, 210, 23, SBPH, QIII, TimeUS,CrcError,LastInject,IARhyp
FMT, 215, 80, SBR1, QHHBZ, TimeUS,msg_type,sender_id,msg_len,d1
FMT, 216, 205, SBR2, QHZZZ, TimeUS,msg_type,d2,d3,d4
FMT, 25, 41, ATUN, QBBfffffff, TimeUS,Axis,TuneStep,Targ,Min,Max,RP,RD,SP,ddt
FMT, 26, 19, ATDE, Qff, TimeUS,Angle,Rate
FMT, 31, 22, PTUN, QBfHHH, TimeUS,Param,TunVal,CtrlIn,TunLo,TunHi
FMT, 12, 28, OF, QBffff, TimeUS,Qual,flowX,flowY,bodyX,bodyY
FMT, 5, 51, NTUN, Qffffffffff, TimeUS,DPosX,DPosY,PosX,PosY,DVelX,DVelY,VelX,VelY,DAccX,DAccY
FMT, 4, 51, CTUN, Qffffffeccfhh, TimeUS,ThI,ABst,ThO,ThH,DAlt,Alt,BAlt,DSAlt,SAlt,TAlt,DCRt,CRt
FMT, 6, 28, PM, QHHIhBHI, TimeUS,NLon,NLoop,MaxT,PMT,I2CErr,INSErr,LogDrop
FMT, 30, 27, MOTB, Qffff, TimeUS,LiftMax,BatVolt,BatRes,ThLimit
FMT, 13, 12, EV, QB, TimeUS,Id
FMT, 20, 14, D16, QBh, TimeUS,Id,Value
FMT, 21, 14, DU16, QBH, TimeUS,Id,Value
FMT, 22, 16, D32, QBi, TimeUS,Id,Value
FMT, 23, 16, DU32, QBI, TimeUS,Id,Value
FMT, 24, 16, DFLT, QBf, TimeUS,Id,Value
FMT, 19, 13, ERR, QBB, TimeUS,Subsys,ECode
FMT, 32, 19, HELI, Qff, TimeUS,DRRPM,ERRPM
FMT, 33, 29, PL, QBBffff, TimeUS,Heal,TAcq,pX,pY,vX,vY
FMT, 34, 36, GUID, QBffffff, TimeUS,Type,pX,pY,pZ,vX,vY,vZ
FMT, 35, 32, THRO, QBffffbbbb, TimeUS,Stage,Vel,VelZ,Acc,AccEfZ,Throw,AttOk,HgtOk,PosOk
FMT, 36, 44, PRX, QBffffffff, TimeUS,Health,D0,D45,D90,D135,D180,D225,D270,D315
EV, 192169979, 10
MODE, 192169985, Stabilize, 0, 1
FMT, 254, 31, CTRL, Qfffff, TimeUS,RMSRollP,RMSRollD,RMSPitchP,RMSPitchD,RMSYaw
MSG, 192248067, APM:Copter V3.4.6 (5221448a)
MSG, 192248070, New mission
MSG, 192248074, Frame: QUAD
MODE, 192248077, Stabilize, 0, 1
IMU, 192250459, -0.005487865, -0.003881781, 0.002652051, 0.4134223, 0.4747703, -9.764358, 0, 0, 0, 1, 1
CURR, 192268139, 12.43757, 0, 0.0644621
CUR2, 192268149, 12.45931, 0, 2.632452
MAG, 192268165, 74, -31, -225, -208, 24, -34, 0, 0, 0, 1, 192268157
MAG2, 192268165, 62, 16, -260, -121, 141, -76, 0, 0, 0, 1, 192268160
BARO, 192270440, -0.06479684, 102006.7, 26.05, 0.3864551, 192270, 0
CTUN, 192270461, 0, 0, 0, 0.4812081, 0, -0.4288727, -0.06, 0.00, 0.00, 0, 0, -10
ATT, 192270547, -2.96, -2.96, 1.20, 1.20, 25.68, 25.68, 0.00, 0.22
NKF1, 192270552, -2.96, 1.20, 25.68, -0.08870671, -0.1547682, 0.1025664, 0, 2.323397, -0.436152, 0.4288727, -0.05, 0.00, 0.23
NKF2, 192270552, 0, 0.00, 0.00, 0.00, 0.00, 0.00, 89, 0, -196, 0, 0, 0, 0
NKF3, 192270552, -0.04, -0.13, -0.01, 0.06, -0.11, 0.15, 0, 0, 0, 10.65, 0.00
NKF4, 192270552, 0.03, 0.00, 0.01, 0.12, 0.00, 0.0002200917, 0, 0, 0, 16, 9087, 0, 0
NKF5, 192270552, 0, 0, 0, 0, 0.10, 0.50, 0.00, 0.09, 0.14, 0.0038095, 0.005996773, 0.01556648
AHR2, 192270586, -3.01, 0.82, 23.61, 85.29, -34.0728668, 18.8399844
POS, 192270593, -34.0728665, 18.8399826, 85.36, -0.4288727
RATE, 192270597, -0.5061658, -0.5061658, 0.0002677182, -0.03400733, -0.03400733, -1.492646E-05, -0.1331584, -0.1331584, 3.606195E-06, 0, -2.111244, 0
MOTB, 192270604, 1, 1, 0, 1
RCIN, 192270607, 1492, 1493, 982, 2002, 1167, 982, 982, 982, 982, 982, 982, 982, 1494, 1494
RCOU, 192270613, 982, 982, 982, 982, 0, 0, 0, 0, 0, 0, 0, 0, 0, 0
VIBE, 192270620, 0.02481978, 0.02757883, 0.03436399, 0, 0, 0
CTRL, 192270624, 0.0001025104, 0.0001748026, 7.229687E-05, 0.0001298546, 1.997928E-05
IMU, 192290440, -0.009601197, 0.002738856, 0.0001459801, 0.4054751, 0.4911494, -9.758642, 0, 0, 0, 1, 1
IMU, 192330363, 0.005051724, 0.002500747, 0.004679736, 0.4332976, 0.5189163, -9.750042, 0, 0, 0, 1, 1
GPS, 192368016, 3, 32902600, 1958, 12, 0.85, -34.072867, 18.8399845, 84.97, 0.1204159, 175.2363, 0.08, 1
GPA, 192368016, 1.34, 2.75, 4.31, 1.05, 1, 192368
CURR, 192368093, 12.45931, 0, 0.0644621
CUR2, 192368099, 12.41582, 0, 2.632452
MAG, 192368113, 76, -30, -224, -208, 24, -34, 0, 0, 0, 1, 192368106
MAG2, 192368113, 62, 21, -261, -121, 141, -76, 0, 0, 0, 1, 192368109
BARO, 192370386, -0.3239842, 102009.8, 26.05, 0.474383, 192370, 0
CTUN, 192370405, 0, 0, 0, 0.4812081, 0, -0.4366479, -0.32, 0.00, 0.00, 0, 0, -10
ATT, 192370483, -2.95, -2.95, 1.22, 1.22, 25.64, 25.64, 0.01, 0.23
NKF1, 192370488, -2.95, 1.22, 25.64, -0.09284071, -0.155439, 0.1043534, 0, 2.314141, -0.4390052, 0.4366479, -0.05, 0.00, 0.23
NKF2, 192370488, 0, 0.00, 0.00, 0.00, 0.00, 0.00, 89, 0, -196, 0, 0, 0, 0
NKF3, 192370488, -0.04, -0.13, -0.01, 0.06, -0.11, 0.20, 0, 0, 0, 12.48, 0.00
NKF4, 192370488, 0.03, 0.00, 0.01, 0.14, 0.00, 0.0002061374, 0, 0, 0, 16, 9087, 0, 0
NKF5, 192370488, 0, 0, 0, 0, 0.10, 0.51, 0.00, 0.09, 0.14, 0.003657216, 0.001429003, 0.007242216
AHR2, 192370517, -3.04, 0.83, 23.47, 85.03, -34.072867, 18.8399845
POS, 192370522, -34.0728666, 18.8399826, 85.35, -0.4366479
RATE, 192370526, 0.1837106, 0.1837106, 7.464745E-05, 0.2684291, 0.2684291, -0.0001878351, 0.04844768, 0.04844768, -5.770979E-06, 0, -3.057194, 0
MOTB, 192370532, 1, 1, 0, 1
RCIN, 192370535, 1492, 1493, 982, 2002, 1167, 982, 982, 982, 982, 982, 982, 982, 1494, 1494
RCOU, 192370540, 982, 982, 982, 982, 0, 0, 0, 0, 0, 0, 0, 0, 0, 0
VIBE, 192370547, 0.02866464, 0.02611236, 0.03140564, 0, 0, 0
CTRL, 192370551, 0.0001003425, 0.0001686779, 6.558223E-05, 0.0001223927, 2.084264E-05
IMU, 192370560, 0.0022374, 0.004514467, 0.004895438, 0.4085876, 0.4761884, -9.756311, 0, 0, 0, 1, 1
IMU, 192410363, -0.005520107, 0.01203867, 0.00133359, 0.4056371, 0.4762859, -9.746264, 0, 0, 0, 1, 1
IMU, 192450403, 0.006269135, 0.006358429, 0.005943176, 0.450328, 0.5072067, -9.746905, 0, 0, 0, 1, 1
CURR, 192468062, 12.41582, 0, 0.0644621
CUR2, 192468072, 12.43757, 0, 2.632452
MAG, 192468087, 71, -34, -224, -208, 24, -34, 0, 0, 0, 1, 192468079
MAG2, 192468087, 62, 15, -253, -121, 141, -76, 0, 0, 0, 1, 192468082
BARO, 192470364, 0.01079947, 102005.8, 26.04, 0.3918532, 192470, 0
CTUN, 192470384, 0, 0, 0, 0.4812081, 0, -0.4426717, 0.01, 0.00, 0.00, 0, 0, -10
ATT, 192470470, -2.94, -2.94, 1.27, 1.27, 25.60, 25.60, 0.01, 0.22
NKF1, 192470475, -2.94, 1.27, 25.60, -0.0965483, -0.1554042, 0.107103, 0, 2.302927, -0.4391696, 0.4426717, -0.05, 0.00, 0.23
NKF2, 192470475, 0, 0.00, 0.00, 0.00, 0.00, 0.00, 89, 0, -196, 0, 0, 0, 0
NKF3, 192470475, 0.03, -0.15, 0.01, 0.06, -0.12, 0.34, 0, 0, 0, 15.83, 0.00
NKF4, 192470475, 0.03, 0.00, 0.02, 0.18, 0.00, 0.0001973615, 0, 0, 0, 16, 9087, 0, 0
NKF5, 192470475, 0, 0, 0, 0, 0.10, 0.51, 0.00, 0.09, 0.14, 0.003716109, 0.005082892, 0.0187109
AHR2, 192470504, -3.01, 0.91, 23.33, 85.37, -34.072867, 18.8399845
POS, 192470511, -34.0728667, 18.8399826, 85.34, -0.4426717
RATE, 192470514, 0.2150746, 0.2150746, 0.0003443806, 0.3822624, 0.3822624, -0.0001564008, 0.02394021, 0.02394021, 4.219447E-06, 0, -2.948761, 0
MOTB, 192470520, 1, 1, 0, 1
RCIN, 192470523, 1492, 1493, 982, 2002, 1167, 982, 982, 982, 982, 982, 982, 982, 1494, 1494
RCOU, 192470528, 982, 982, 982, 982, 0, 0, 0, 0, 0, 0, 0, 0, 0, 0
VIBE, 192470534, 0.03418146, 0.03443632, 0.03289137, 0, 0, 0
CTRL, 192470538, 9.79605E-05, 0.0001657762, 6.252654E-05, 0.0001139656, 2.060192E-05
IMU, 192490394, -0.0002444909, 0.007654289, 0.003418955, 0.4235907, 0.4733469, -9.773335, 0, 0, 0, 1, 1
IMU, 192530373, 0.006493347, 0.005162101, 0.004446818, 0.4399941, 0.468448, -9.763756, 0, 0, 0, 1, 1
GPS, 192567951, 3, 32902800, 1958, 12, 0.85, -34.0728671, 18.8399844, 84.94, 0.1431782, 294.7751, -0.09999999, 1
GPA, 192567951, 1.34, 2.75, 4.32, 0.91, 1, 192567
CURR, 192568021, 12.41582, 0, 0.0644621
CUR2, 192568026, 12.43757, 0, 2.632452
MAG, 192568041, 74, -36, -224, -208, 24, -34, 0, 0, 0, 1, 192568033
MAG2, 192568041, 62, 10, -255, -121, 141, -76, 0, 0, 0, 1, 192568036
BARO, 192570373, -0.2537876, 102009, 26.05, 0.1753987, 192570, 0
CTUN, 192570394, 0, 0, 0, 0.4812081, 0, -0.4475183, -0.25, 0.00, 0.00, 0, 0, -10
ATT, 192570451, -2.92, -2.92, 1.29, 1.29, 25.55, 25.55, 0.03, 0.21
NKF1, 192570456, -2.92, 1.29, 25.55, -0.1001259, -0.1576983, 0.1085978, 0, 2.291512, -0.4423594, 0.4475183, -0.05, 0.00, 0.23
NKF2, 192570456, 0, 0.00, 0.00, 0.00, 0.00, 0.00, 89, 0, -196, 0, 0, 0, 0
NKF3, 192570456, 0.03, -0.15, 0.01, 0.06, -0.12, 0.09, 0, 0, 0, 16.75, 0.00
NKF4, 192570456, 0.03, 0.00, 0.00, 0.19, 0.00, 0.0001916977, 0, 0, 0, 16, 9087, 0, 0
NKF5, 192570456, 0, 0, 0, 0, 0.10, 0.51, 0.00, 0.09, 0.14, 0.003828502, 0.001154318, 0.01018349
AHR2, 192570485, -2.96, 0.98, 23.24, 85.1, -34.0728671, 18.8399844
POS, 192570490, -34.0728668, 18.8399826, 85.34, -0.4475183
RATE, 192570494, -0.1590275, -0.1590275, 0.0002063, 0.1564302, 0.1564302, -6.40321E-05, -0.06577764, -0.06577764, 1.597881E-05, 0, -3.782082, 0
MOTB, 192570499, 1, 1, 0, 1
RCIN, 192570503, 1492, 1493, 982, 2002, 1167, 982, 982, 982, 982, 982, 982, 982, 1494, 1494
RCOU, 192570508, 982, 982, 982, 982, 0, 0, 0, 0, 0, 0, 0, 0, 0, 0
VIBE, 192570515, 0.02374012, 0.02662449, 0.0324716, 0, 0, 0
CTRL, 192570520, 9.460888E-05, 0.0001579557, 6.010086E-05, 0.0001118664, 1.830888E-05
IMU, 192570530, -0.00374574, 0.002559698, 0.002912669, 0.4406622, 0.4560247, -9.748533, 0, 0, 0, 1, 1
IMU, 192610350, -0.008182624, 0.002363698, 0.0007784213, 0.4283904, 0.4900754, -9.749184, 0, 0, 0, 1, 1
IMU, 192650350, -0.002371911, 0.001296494, 0.002402935, 0.4466269, 0.4826025, -9.745271, 0, 0, 0, 1, 1
CURR, 192668044, 12.39408, 0, 0.0644621
CUR2, 192668052, 12.39408, 0, 2.632452
MAG, 192668067, 76, -35, -226, -208, 24, -34, 0, 0, 0, 1, 192668059
MAG2, 192668067, 67, 9, -254, -121, 141, -76, 0, 0, 0, 1, 192668062
BARO, 192670363, -0.2159895, 102008.5, 26.05, 0.07581687, 192670, 0
CTUN, 192670384, 0, 0, 0, 0.4812081, 0, -0.450092, -0.21, 0.00, 0.00, 0, 0, -10
ATT, 192670445, -2.94, -2.94, 1.30, 1.30, 25.50, 25.50, 0.03, 0.21
NKF1, 192670450, -2.94, 1.30, 25.50, -0.1018845, -0.1592931, 0.1088421, 0, 2.283896, -0.446207, 0.450092, -0.05, 0.00, 0.23
NKF2, 192670450, 0, 0.00, 0.00, 0.00, 0.00, 0.00, 89, 0, -196, 0, 0, 0, 0
NKF3, 192670450, -0.15, -0.01, 0.20, 0.07, -0.13, 0.42, 0, 0, 0, 12.75, 0.00
NKF4, 192670450, 0.05, 0.00, 0.02, 0.14, 0.00, 0.0001831342, 0, 0, 0, 16, 9087, 0, 0
NKF5, 192670450, 0, 0, 0, 0, 0.11, 0.51, 0.01, 0.09, 0.14, 0.003806853, 0.006740308, 0.02357053
AHR2, 192670477, -3.09, 0.92, 23.13, 85.14, -34.0728671, 18.8399844
POS, 192670483, -34.0728668, 18.8399825, 85.33, -0.450092
RATE, 192670486, -0.06012362, -0.06012362, -2.973273E-05, -0.06936828, -0.06936828, 0.0003620218, -0.04146606, -0.04146606, -1.514646E-05, 0, -0.6603241, 0
MOTB, 192670491, 1, 1, 0, 1
RCIN, 192670495, 1492, 1493, 982, 2002, 1167, 982, 982, 982, 982, 982, 982, 982, 1494, 1494
RCOU, 192670500, 982, 982, 982, 982, 0, 0, 0, 0, 0, 0, 0, 0, 0, 0
VIBE, 192670507, 0.02293085, 0.02183203, 0.03219935, 0, 0, 0
CTRL, 192670511, 8.309675E-05, 0.0001410093, 5.651386E-05, 0.0001111321, 1.748477E-05
IMU, 192690358, -0.00137639, -0.005936628, 0.003318884, 0.445366, 0.4698797, -9.765397, 0, 0, 0, 1, 1
IMU, 192730377, -0.005441773, 0.004546385, 0.0007636277, 0.4275025, 0.4832708, -9.792247, 0, 0, 0, 1, 1
GPS, 192767971, 3, 32903000, 1958, 12, 0.85, -34.0728672, 18.8399836, 84.84, 0.5141984, 256.5043, -0.23, 1
GPA, 192767971, 1.34, 2.76, 4.33, 0.66, 1, 192767
CURR, 192768045, 12.45931, 0, 0.0644621
CUR2, 192768049, 12.43757, 0, 2.632452
MAG, 192768063, 75, -33, -228, -208, 24, -34, 0, 0, 0, 1, 192768056
MAG2, 192768063, 69, 14, -252, -121, 141, -76, 0, 0, 0, 1, 192768059
BARO, 192770388, -0.2375884, 102008.8, 26.04, -0.08774569, 192770, 0
CTUN, 192770409, 0, 0, 0, 0.4812081, 0, -0.4514665, -0.23, 0.00, 0.00, 0, 0, -10
ATT, 192770470, -2.94, -2.94, 1.29, 1.29, 25.46, 25.46, 0.06, 0.21
NKF1, 192770475, -2.94, 1.29, 25.46, -0.1038255, -0.1629449, 0.109558, 0, 2.276168, -0.4534215, 0.4514665, -0.05, 0.00, 0.23
NKF2, 192770475, 0, 0.00, 0.00, 0.00, 0.00, 0.00, 89, 0, -196, 0, 0, 0, 0
NKF3, 192770475, -0.15, -0.01, 0.20, 0.07, -0.13, 0.15, 0, 0, 0, 12.66, 0.00
NKF4, 192770475, 0.05, 0.00, 0.01, 0.14, 0.00, 0.0001761462, 0, 0, 0, 16, 9087, 0, 0
NKF5, 192770475, 0, 0, 0, 0, 0.10, 0.51, 0.01, 0.09, 0.14, 0.003763717, 0.006080119, 0.01977041
AHR2, 192770502, -3.20, 0.85, 23.02, 85.12, -34.0728672, 18.8399836
POS, 192770508, -34.0728669, 18.8399824, 85.33, -0.4514665
RATE, 192770511, 0.119757, 0.119757, 0.0001177537, -0.2636955, -0.2636955, 0.0002298933, -0.01621899, -0.01621899, -1.668715E-05, 0, -3.243828, 0
MOTB, 192770517, 1, 1, 0, 1
RCIN, 192770520, 1492, 1493, 982, 2002, 1167, 982, 982, 982, 982, 982, 982, 982, 1494, 1494
RCOU, 192770525, 982, 982, 982, 982, 0, 0, 0, 0, 0, 0, 0, 0, 0, 0
VIBE, 192770534, 0.02894443, 0.02036922, 0.03783375, 0, 0, 0
CTRL, 192770537, 7.833858E-05, 0.0001380542, 6.90929E-05, 0.0001264865, 1.616594E-05
IMU, 192770548, 0.00111759, -0.004772511, 0.003796699, 0.4481252, 0.470649, -9.752733, 0, 0, 0, 1, 1
IMU, 192810355, -0.01024052, -0.002178953, 0.0003509685, 0.4235193, 0.4568708, -9.768501, 0, 0, 0, 1, 1
IMU, 192850430, -0.01033418, -0.004030965, 0.002271134, 0.4497232, 0.5210112, -9.755331, 0, 0, 0, 1, 1
CURR, 192868058, 12.45931, 0, 0.0644621
CUR2, 192868067, 12.43757, 0, 2.632452
MAG, 192868082, 74, -39, -225, -208, 24, -34, 0, 0, 0, 1, 192868074
MAG2, 192868082, 62, 6, -257, -121, 141, -76, 0, 0, 0, 1, 192868077
BARO, 192870387, -0.4913761, 102011.8, 26.05, -0.379669, 192870, 0
CTUN, 192870408, 0, 0, 0, 0.4812081, 0, -0.4497008, -0.49, 0.00, 0.00, 0, 0, -10
ATT, 192870489, -2.98, -2.98, 1.27, 1.27, 25.40, 25.40, 0.06, 0.19
NKF1, 192870494, -2.98, 1.27, 25.40, -0.1069552, -0.1716406, 0.1089292, 0, 2.266461, -0.4719689, 0.4497008, -0.05, 0.00, 0.23
NKF2, 192870494, 0, 0.00, 0.00, 0.00, 0.00, 0.00, 89, 0, -196, 0, 0, 0, 0
NKF3, 192870494, 0.02, 0.34, 0.33, 0.06, -0.12, 0.18, 0, 0, 0, 13.44, 0.00
NKF4, 192870494, 0.10, 0.00, 0.01, 0.15, 0.00, 0.0002260228, 0, 0, 0, 16, 9087, 0, 0
NKF5, 192870494, 0, 0, 0, 0, 0.11, 0.51, 0.01, 0.09, 0.14, 0.003722911, 0.02063518, 0.04534037
AHR2, 192870524, -3.37, 0.99, 22.90, 84.86, -34.0728672, 18.8399836
POS, 192870529, -34.072867, 18.8399822, 85.34, -0.4497008
RATE, 192870532, 0.1438743, 0.1438743, -0.0002976043, -0.2967644, -0.2967644, -0.0002425558, -0.01519187, -0.01519187, -2.413009E-05, 0, -1.747704, 0
MOTB, 192870538, 1, 1, 0, 1
RCIN, 192870541, 1492, 1493, 982, 2002, 1167, 982, 982, 982, 982, 982, 982, 982, 1494, 1494
RCOU, 192870546, 982, 982, 982, 982, 0, 0, 0, 0, 0, 0, 0, 0, 0, 0
VIBE, 192870554, 0.025729, 0.02526508, 0.03765884, 0, 0, 0
CTRL, 192870558, 0.0001104808, 0.0001713971, 6.659103E-05, 0.0001281487, 1.943503E-05
IMU, 192890367, 0.006701785, -0.003423464, 0.004448799, 0.4259173, 0.4993956, -9.77768, 0, 0, 0, 1, 1
IMU, 192930486, 0.005775806, -0.007008364, 0.003038432, 0.4192948, 0.472565, -9.749874, 0, 0, 0, 1, 1
GPS, 192968002, 3, 32903200, 1958, 12, 0.85, -34.0728674, 18.8399832, 84.87, 0.02, 180, 0.12, 1
GPA, 192968002, 1.34, 2.76, 4.34, 0.83, 1, 192968
CURR, 192968078, 12.41582, 0, 0.0644621
CUR2, 192968083, 12.41582, 0, 2.632452
MAG, 192968097, 72, -33, -224, -208, 24, -34, 0, 0, 0, 1, 192968089
MAG2, 192968097, 63, 12, -256, -121, 141, -76, 0, 0, 0, 1, 192968092
DU32, 192968114, 7, 17163736
TERR, 192969528, 2, -34.0728671, 18.839982, 100, 81.58605, -0.0137558, 0, 336
BARO, 192970390, -0.3023853, 102009.5, 26.05, -0.5956585, 192970, 0
CTUN, 192970405, 0, 0, 0, 0.4812081, 0, -0.4487697, -0.30, 0.00, 0.00, 0, 0, -10
ATT, 192970528, -2.96, -2.96, 1.26, 1.26, 25.36, 25.36, 0.11, 0.19
NKF1, 192970534, -2.96, 1.26, 25.36, -0.1105699, -0.1813916, 0.1083261, 0, 2.256122, -0.4931993, 0.4487696, -0.05, 0.00, 0.23
NKF2, 192970534, 0, 0.00, 0.00, 0.00, 0.00, 0.00, 89, 0, -196, 0, 0, 0, 0
NKF3, 192970534, 0.02, 0.34, 0.33, 0.06, -0.12, 0.16, 0, 0, 0, 14.41, 0.00
NKF4, 192970534, 0.10, 0.00, 0.01, 0.16, 0.00, 0.0002771909, 0, 0, 0, 16, 9087, 0, 0
NKF5, 192970534, 0, 0, 0, 0, 0.11, 0.51, 0.01, 0.09, 0.15, 0.003739005, 0.0171276, 0.03959484
AHR2, 192970560, -3.49, 1.14, 22.83, 85.05, -34.0728674, 18.8399832
POS, 192970566, -34.0728671, 18.839982, 85.34, -0.4487696
RATE, 192970569, -0.04245058, -0.04245058, -1.002648E-05, 0.1176084, 0.1176084, -6.024945E-05, -0.1975452, -0.1975452, 2.185473E-05, 0, -0.6766319, 0
MOTB, 192970575, 1, 1, 0, 1
RCIN, 192970578, 1492, 1493, 982, 2002, 1167, 982, 982, 982, 982, 982, 982, 982, 1494, 1494
RCOU, 192970583, 982, 982, 982, 982, 0, 0, 0, 0, 0, 0, 0, 0, 0, 0
VIBE, 192970588, 0.02641755, 0.02624334, 0.03782317, 0, 0, 0
CTRL, 192970592, 9.778255E-05, 0.0001552801, 6.841176E-05, 0.0001276417, 1.747854E-05
IMU, 192970601, -0.001715507, 0.001880233, 0.000658071, 0.4211082, 0.4754689, -9.779504, 0, 0, 0, 1, 1
IMU, 193010359, 0.003320812, 0.002070478, 0.004136587, 0.4222772, 0.4759073, -9.776135, 0, 0, 0, 1, 1
IMU, 193050396, -0.003662962, 0.006035672, 0.001917315, 0.4419856, 0.4924979, -9.768993, 0, 0, 0, 1, 1
CURR, 193068063, 12.41582, 0, 0.0644621
CUR2, 193068071, 12.43757, 0, 2.632452
MAG, 193068087, 69, -37, -228, -208, 24, -34, 0, 0, 0, 1, 193068078
MAG2, 193068087, 58, 9, -252, -121, 141, -76, 0, 0, 0, 1, 193068082
RAD, 193068122, 194, 96, 100, 64, 42, 0, 0
RAD, 193068132, 194, 96, 100, 64, 42, 0, 0
BARO, 193070382, -0.2807863, 102009.3, 26.05, -0.5821591, 193070, 0
CTUN, 193070402, 0, 0, 0, 0.4812081, 0, -0.4501604, -0.28, 0.00, 0.00, 0, 0, -10
ATT, 193070464, -2.95, -2.95, 1.28, 1.28, 25.31, 25.31, 0.11, 0.17
NKF1, 193070469, -2.95, 1.28, 25.31, -0.1131642, -0.1869896, 0.1078099, 0, 2.247128, -0.507454, 0.4501604, -0.05, 0.00, 0.23
NKF2, 193070469, 0, 0.00, 0.00, 0.00, 0.00, 0.00, 89, 0, -196, 0, 0, 0, 0
NKF3, 193070469, -0.08, -0.18, -0.02, 0.07, -0.09, -0.07, 0, 0, 0, 10.75, 0.00
NKF4, 193070469, 0.04, 0.00, 0.00, 0.12, 0.00, 0.0002842135, 0, 0, 0, 16, 9087, 0, 0
NKF5, 193070469, 0, 0, 0, 0, 0.10, 0.51, 0.01, 0.09, 0.15, 0.003586903, 0.006184793, 0.01485634
AHR2, 193070498, -3.19, 0.96, 22.74, 85.07, -34.0728674, 18.8399832
POS, 193070505, -34.0728672, 18.8399818, 85.33, -0.4501604
RATE, 193070508, 0.1823509, 0.1823509, -0.0003934422, 0.3017965, 0.3017965, 0.0002304415, -0.1050726, -0.1050726, -1.395382E-06, 0, -0.6516457, 0
MOTB, 193070515, 1, 1, 0, 1
RCIN, 193070517, 1492, 1493, 982, 2002, 1167, 982, 982, 982, 982, 982, 982, 982, 1494, 1494
RCOU, 193070523, 982, 982, 982, 982, 0, 0, 0, 0, 0, 0, 0, 0, 0, 0
VIBE, 193070529, 0.03124485, 0.0273049, 0.03462773, 0, 0, 0
CTRL, 193070533, 9.357178E-05, 0.0001561881, 6.228052E-05, 0.0001203299, 1.637986E-05
IMU, 193090360, 0.006641228, 0.001836666, 0.004924191, 0.4432389, 0.4732156, -9.760561, 0, 0, 0, 1, 1
IMU, 193130351, -0.0002689734, 0.004639979, 0.001170384, 0.425742, 0.4555588, -9.764046, 0, 0, 0, 1, 1
GPS, 193167943, 3, 32903400, 1958, 12, 0.85, -34.0728674, 18.8399831, 84.82, 0.1131371, 315, 0.01, 1
GPA, 193167943, 1.34, 2.77, 4.34, 0.93, 1, 193167
CURR, 193168014, 12.41582, 0, 0.0644621
CUR2, 193168017, 12.43757, 0, 2.632452
MAG, 193168031, 73, -36, -225, -208, 24, -34, 0, 0, 0, 1, 193168024
MAG2, 193168031, 63, 12, -251, -121, 141, -76, 0, 0, 0, 1, 193168027
BARO, 193170369, -0.1727916, 102008, 26.05, -0.1569299, 193170, 0
CTUN, 193170387, 0, 0, 0, 0.4812081, 0, -0.4543703, -0.17, 0.00, 0.00, 0, 0, -10
ATT, 193170445, -2.94, -2.94, 1.29, 1.29, 25.27, 25.27, 0.10, 0.17
NKF1, 193170449, -2.94, 1.29, 25.27, -0.1150549, -0.192976, 0.1093809, 0, 2.237998, -0.5221227, 0.4543703, -0.05, 0.00, 0.23
NKF2, 193170449, 0, 0.00, 0.00, 0.00, 0.00, 0.00, 89, 0, -196, 0, 0, 0, 0
NKF3, 193170449, -0.08, -0.18, -0.02, 0.07, -0.09, 0.12, 0, 0, 0, 13.29, 0.00
NKF4, 193170449, 0.04, 0.00, 0.00, 0.15, 0.00, 0.0002796998, 0, 0, 0, 16, 9087, 0, 0
NKF5, 193170449, 0, 0, 0, 0, 0.10, 0.52, 0.00, 0.09, 0.15, 0.003559739, 0.006561852, 0.016284
AHR2, 193170474, -2.88, 0.77, 22.68, 85.18, -34.0728674, 18.8399831
POS, 193170480, -34.0728672, 18.8399817, 85.33, -0.4543703
RATE, 193170483, 0.08261473, 0.08261473, -0.0002031719, -0.03897926, -0.03897926, 0.0001357666, -0.08547773, -0.08547773, -6.099607E-06, 0, -3.055668, 0
MOTB, 193170489, 1, 1, 0, 1
RCIN, 193170492, 1492, 1493, 982, 2002, 1167, 982, 982, 982, 982, 982, 982, 982, 1494, 1494
RCOU, 193170496, 982, 982, 982, 982, 0, 0, 0, 0, 0, 0, 0, 0, 0, 0
VIBE, 193170503, 0.02817964, 0.02396229, 0.03094875, 0, 0, 0
CTRL, 193170507, 8.418646E-05, 0.0001430497, 5.873606E-05, 0.0001110289, 1.556062E-05
IMU, 193170516, 0.0004650001, -0.0008518587, 0.00262652, 0.4507367, 0.4882333, -9.753483, 0, 0, 0, 1, 1
IMU, 193210380, -0.01063269, -0.0006828076, -0.0001015118, 0.4148418, 0.4459714, -9.755165, 0, 0, 0, 1, 1
IMU, 193250376, -0.01616817, -0.007386275, -0.002567441, 0.4298318, 0.4947332, -9.772594, 0, 0, 0, 1, 1
CURR, 193268053, 12.43757, 0, 0.0644621
CUR2, 193268061, 12.43757, 0, 2.632452
MAG, 193268077, 75, -34, -221, -208, 24, -34, 0, 0, 0, 1, 193268069
MAG2, 193268077, 57, 13, -255, -121, 141, -76, 0, 0, 0, 1, 193268073
BARO, 193270369, -0.5075753, 102012, 26.05, 0.318922, 193270, 0
CTUN, 193270389, 0, 0, 0, 0.4812081, 0, -0.4578604, -0.50, 0.00, 0.00, 0, 0, -11
ATT, 193270450, -3.00, -3.00, 1.26, 1.26, 25.20, 25.20, 0.10, 0.18
NKF1, 193270455, -3.00, 1.26, 25.20, -0.1151452, -0.1974908, 0.1103317, 0, 2.233817, -0.5333225, 0.4578604, -0.05, 0.00, 0.23
NKF2, 193270455, 0, 0.00, 0.00, 0.00, 0.00, 0.00, 89, 0, -196, 0, 0, 0, 0
NKF3, 193270455, -0.18, -0.10, 0.09, 0.07, -0.09, 0.14, 0, 0, 0, 9.45, 0.00
NKF4, 193270455, 0.04, 0.00, 0.00, 0.10, 0.00, 0.0002779842, 0, 0, 0, 16, 9087, 0, 0
NKF5, 193270455, 0, 0, 0, 0, 0.10, 0.52, 0.00, 0.09, 0.15, 0.00338815, 0.01020068, 0.02125563
AHR2, 193270483, -2.99, 0.71, 22.57, 84.85, -34.0728674, 18.8399831
POS, 193270490, -34.0728673, 18.8399816, 85.33, -0.4578604
RATE, 193270493, -0.5774446, -0.5774446, -0.0002653888, -0.4218816, -0.4218816, 1.554117E-05, -0.2550147, -0.2550147, -1.080858E-05, 0, -1.202011, 0
MOTB, 193270498, 1, 1, 0, 1
RCIN, 193270502, 1492, 1493, 982, 2002, 1167, 982, 982, 982, 982, 982, 982, 982, 1494, 1494
RCOU, 193270508, 982, 982, 982, 982, 0, 0, 0, 0, 0, 0, 0, 0, 0, 0
VIBE, 193270514, 0.02688061, 0.02601906, 0.03419187, 0, 0, 0
CTRL, 193270518, 9.507877E-05, 0.0001514169, 5.470511E-05, 0.0001030164, 1.895293E-05
IMU, 193290383, -0.007368829, -0.005799189, 0.0001974401, 0.419342, 0.4844517, -9.764809, 0, 0, 0, 1, 1
IMU, 193330355, 0.003795113, -0.001024834, 0.003422036, 0.4256988, 0.4948717, -9.764181, 0, 0, 0, 1, 1
GPS, 193368006, 3, 32903600, 1958, 12, 0.85, -34.0728674, 18.8399831, 84.78, 0.04123105, 75.96375, 0.08, 1
GPA, 193368006, 1.34, 2.78, 4.35, 0.76, 1, 193368
CURR, 193368086, 12.43757, 0, 0.0644621
CUR2, 193368090, 12.37234, 0, 2.632452
MAG, 193368105, 73, -36, -221, -208, 24, -34, 0, 0, 0, 1, 193368096
MAG2, 193368105, 63, 12, -259, -121, 141, -76, 0, 0, 0, 1, 193368100
BARO, 193370381, -0.3833813, 102010.5, 26.05, 0.1366808, 193370, 0
CTUN, 193370401, 0, 0, 0, 0.4812081, 0, -0.4617382, -0.38, 0.00, 0.00, 0, 0, -11
ATT, 193370479, -2.99, -2.99, 1.26, 1.26, 25.16, 25.16, 0.09, 0.18
NKF1, 193370484, -2.99, 1.26, 25.16, -0.116012, -0.201824, 0.1101913, 0, 2.229021, -0.5464189, 0.4617382, -0.05, 0.00, 0.23
NKF2, 193370484, 0, 0.00, 0.00, 0.00, 0.00, 0.00, 89, 0, -196, 0, 0, 0, 0
NKF3, 193370484, -0.18, -0.10, 0.09, 0.07, -0.09, 0.25, 0, 0, 0, 11.99, 0.00
NKF4, 193370484, 0.04, 0.00, 0.01, 0.13, 0.00, 0.0002773018, 0, 0, 0, 16, 9087, 0, 0
NKF5, 193370484, 0, 0, 0, 0, 0.10, 0.53, 0.00, 0.09, 0.15, 0.003310072, 0.00770606, 0.01918747
AHR2, 193370511, -3.03, 0.66, 22.46, 84.97, -34.0728674, 18.8399831
POS, 193370516, -34.0728673, 18.8399814, 85.32, -0.4617382
RATE, 193370519, 0.4279367, 0.4279367, -0.0001264699, 0.2288478, 0.2288478, -6.098092E-05, 0.007076049, 0.007076049, -1.0816E-05, 0, -1.047707, 0
MOTB, 193370525, 1, 1, 0, 1
RCIN, 193370528, 1492, 1493, 982, 2002, 1167, 982, 982, 982, 982, 982, 982, 982, 1494, 1494
RCOU, 193370533, 982, 982, 982, 982, 0, 0, 0, 0, 0, 0, 0, 0, 0, 0
VIBE, 193370540, 0.02280159, 0.02225296, 0.03065155, 0, 0, 0
CTRL, 193370544, 8.875658E-05, 0.0001368553, 5.384543E-05, 9.886023E-05, 2.076847E-05
IMU, 193370554, 0.006489412, 0.003823772, 0.004258919, 0.4242653, 0.486621, -9.775016, 0, 0, 0, 1, 1
IMU, 193410357, 0.004999186, 0.00274107, 0.002890455, 0.4154409, 0.459617, -9.75681, 0, 0, 0, 1, 1
IMU, 193450435, 0.01118927, -0.002509384, 0.004461685, 0.4448573, 0.473893, -9.768562, 0, 0, 0, 1, 1
CURR, 193468035, 12.37234, 0, 0.0644621
CUR2, 193468042, 12.41582, 0, 2.632452
MAG, 193468058, 71, -36, -222, -208, 24, -34, 0, 0, 0, 1, 193468049
MAG2, 193468058, 62, 11, -253, -121, 141, -76, 0, 0, 0, 1, 193468052
BARO, 193470396, -0.2213892, 102008.5, 26.05, -0.3712319, 193470, 0
CTUN, 193470416, 0, 0, 0, 0.4812081, 0, -0.465452, -0.22, 0.00, 0.00, 0, 0, -11
ATT, 193470508, -2.95, -2.95, 1.25, 1.25, 25.13, 25.13, 0.09, 0.17
NKF1, 193470513, -2.95, 1.25, 25.13, -0.1149658, -0.203411, 0.1110782, 0, 2.226007, -0.5516943, 0.465452, -0.05, 0.00, 0.23
NKF2, 193470513, 0, 0.00, 0.00, 0.00, 0.00, 0.00, 89, 0, -196, 0, 0, 0, 0
NKF3, 193470513, -0.11, -0.22, 0.02, 0.06, -0.09, -0.07, 0, 0, 0, 13.74, 0.00
NKF4, 193470513, 0.05, 0.00, 0.00, 0.15, 0.00, 0.0002991759, 0, 0, 0, 16, 9087, 0, 0
NKF5, 193470513, 0, 0, 0, 0, 0.10, 0.53, 0.00, 0.09, 0.15, 0.003408481, 0.01286517, 0.02614784
AHR2, 193470541, -2.90, 0.67, 22.37, 85.13, -34.0728674, 18.8399831
POS, 193470547, -34.0728674, 18.8399814, 85.32, -0.465452
RATE, 193470551, 0.3217956, 0.3217956, 0.0001600379, -0.1739488, -0.1739488, -6.826941E-05, -0.1026424, -0.1026424, 2.205318E-05, 0, -2.280807, 0
MOTB, 193470557, 1, 1, 0, 1
RCIN, 193470560, 1492, 1493, 982, 2002, 1167, 982, 982, 982, 982, 982, 982, 982, 1494, 1494
RCOU, 193470565, 982, 982, 982, 982, 0, 0, 0, 0, 0, 0, 0, 0, 0, 0
VIBE, 193470571, 0.02199931, 0.02552301, 0.03242409, 0, 0, 0
CTRL, 193470575, 8.401995E-05, 0.0001377883, 5.194085E-05, 9.72285E-05, 1.846365E-05
IMU, 193490377, 0.002408989, -0.003164456, 0.002855116, 0.4127793, 0.4679921, -9.755422, 0, 0, 0, 1, 1
IMU, 193530358, 0.003977795, -0.003906351, 0.003292582, 0.4187423, 0.4865404, -9.792648, 0, 0, 0, 1, 1
GPS, 193567944, 3, 32903800, 1958, 12, 0.85, -34.0728674, 18.8399833, 84.79, 0.06708204, 333.4349, -0.06, 1
GPA, 193567944, 1.34, 2.78, 4.35, 1.02, 1, 193567
CURR, 193568013, 12.37234, 0, 0.0644621
CUR2, 193568017, 12.43757, 0, 2.632452
MAG, 193568033, 72, -39, -221, -208, 24, -34, 0, 0, 0, 1, 193568024
MAG2, 193568033, 58, 16, -248, -121, 141, -76, 0, 0, 0, 1, 193568028
BARO, 193570376, -0.2807863, 102009.3, 26.05, -0.2480504, 193570, 0
CTUN, 193570396, 0, 0, 0, 0.4812081, 0, -0.471758, -0.28, 0.00, 0.00, 0, 0, -11
ATT, 193570453, -2.92, -2.92, 1.21, 1.21, 25.08, 25.08, 0.08, 0.17
NKF1, 193570458, -2.92, 1.21, 25.08, -0.1146769, -0.205276, 0.1132097, 0, 2.221664, -0.5593362, 0.471758, -0.05, 0.00, 0.23
NKF2, 193570458, 0, 0.00, 0.00, 0.00, 0.00, 0.00, 89, 0, -196, 0, 0, 0, 0
NKF3, 193570458, -0.11, -0.22, 0.02, 0.06, -0.09, 0.06, 0, 0, 0, 11.96, 0.00
NKF4, 193570458, 0.05, 0.00, 0.00, 0.13, 0.00, 0.0003205521, 0, 0, 0, 16, 9087, 0, 0
NKF5, 193570458, 0, 0, 0, 0, 0.10, 0.54, 0.00, 0.09, 0.15, 0.003353058, 0.007345009, 0.01543289
AHR2, 193570484, -2.78, 0.64, 22.28, 85.07, -34.0728674, 18.8399833
POS, 193570489, -34.0728674, 18.8399813, 85.31, -0.471758
RATE, 193570492, 0.1102232, 0.1102232, 0.0007026779, -0.8329921, -0.8329921, -0.0002179067, -0.155157, -0.155157, 9.968557E-06, 0, -8.449459, 0
MOTB, 193570498, 1, 1, 0, 1
RCIN, 193570500, 1492, 1493, 982, 2002, 1167, 982, 982, 982, 982, 982, 982, 982, 1494, 1494
RCOU, 193570506, 982, 982, 982, 982, 0, 0, 0, 0, 0, 0, 0, 0, 0, 0
VIBE, 193570514, 0.02693253, 0.02695573, 0.04424158, 0, 0, 0
CTRL, 193570518, 8.115108E-05, 0.000138143, 6.107442E-05, 0.0001015324, 1.644675E-05
IMU, 193570526, 0.0009469569, -0.01470652, 0.001417971, 0.4221633, 0.4403775, -9.703265, 0, 0, 0, 1, 1
IMU, 193610357, -0.01067553, -0.001752343, -0.003924366, 0.396488, 0.4900232, -9.781779, 0, 0, 0, 1, 1
IMU, 193650355, 0.01487716, 0.002343085, 0.00510175, 0.3951191, 0.4655291, -9.786458, 0, 0, 0, 1, 1
CURR, 193667989, 12.58978, 0, 0.0644621
CUR2, 193667995, 12.41582, 0.92, 2.658004
MAG, 193668011, 70, -37, -224, -208, 24, -34, 0, 0, 0, 1, 193668004
MAG2, 193668011, 66, 13, -254, -121, 141, -76, 0, 0, 0, 1, 193668006
BARO, 193670350, -0.1457929, 102007.7, 26.05, 0.3543577, 193670, 0
CTUN, 193670371, 0, 0, 0, 0.4812081, 0, -0.4762315, -0.14, 0.00, 0.00, 0, 0, -11
ATT, 193670427, -2.90, -2.90, 1.20, 1.20, 25.04, 25.04, 0.08, 0.16
NKF1, 193670432, -2.90, 1.20, 25.04, -0.1150378, -0.2064967, 0.1123501, 0, 2.220006, -0.5631353, 0.4762315, -0.05, 0.00, 0.23
NKF2, 193670432, 0, 0.00, 0.00, 0.00, 0.00, 0.00, 89, 0, -196, 0, 0, 0, 0
NKF3, 193670432, -0.16, -0.15, 0.16, 0.06, -0.12, 0.22, 0, 0, 0, 11.13, 0.00
NKF4, 193670432, 0.05, 0.00, 0.01, 0.12, 0.00, 0.000308144, 0, 0, 0, 16, 9087, 0, 0
NKF5, 193670432, 0, 0, 0, 0, 0.10, 0.54, 0.00, 0.09, 0.15, 0.00335104, 0.01263918, 0.02824094
AHR2, 193670456, -2.81, 0.62, 22.19, 85.21, -34.0728674, 18.8399833
POS, 193670461, -34.0728674, 18.8399812, 85.31, -0.4762315
RATE, 193670464, 0.6408052, 0.6408052, 0.0001962461, 0.3276667, 0.3276667, -6.485689E-05, 0.09037751, 0.09037751, -3.685665E-05, 0, -3.092194, 0
MOTB, 193670470, 1, 1, 0, 1
RCIN, 193670473, 1492, 1493, 982, 2002, 1167, 982, 982, 982, 982, 982, 982, 982, 1494, 1494
RCOU, 193670478, 982, 982, 982, 982, 0, 0, 0, 0, 0, 0, 0, 0, 0, 0
VIBE, 193670486, 0.02554109, 0.03274637, 0.0368034, 0, 0, 0
CTRL, 193670489, 0.0001266085, 0.0002114305, 6.933988E-05, 0.0001086364, 2.64663E-05
IMU, 193690460, 0.007396052, 0.01193776, 0.006562028, 0.4097436, 0.4645662, -9.768181, 0, 0, 0, 1, 1
IMU, 193730358, 0.01189672, 0.02048865, 0.007292015, 0.4098837, 0.4586099, -9.781174, 0, 0, 0, 1, 1
GPS, 193767974, 3, 32904000, 1958, 12, 0.85, -34.0728675, 18.8399835, 84.77, 0.0728011, 105.9454, 0.07, 1
GPA, 193767974, 1.34, 2.79, 4.36, 0.87, 1, 193767
CURR, 193768044, 12.43757, 0, 0.0644621
CUR2, 193768049, 12.37234, 0, 2.658004
MAG, 193768063, 69, -43, -227, -208, 24, -34, 0, 0, 0, 1, 193768056
MAG2, 193768063, 60, 10, -258, -121, 141, -76, 0, 0, 0, 1, 193768059
BARO, 193770366, -0.2483879, 102008.9, 26.06, 0.5889088, 193770, 0
CTUN, 193770385, 0, 0, 0, 0.4812081, 0, -0.4804345, -0.24, 0.00, 0.00, 0, 0, -11
ATT, 193770441, -2.83, -2.83, 1.29, 1.29, 25.01, 25.01, 0.08, 0.14
NKF1, 193770447, -2.83, 1.29, 25.01, -0.1147857, -0.2085537, 0.1121292, 0, 2.216733, -0.570378, 0.4804345, -0.05, 0.00, 0.23
NKF2, 193770447, 0, 0.00, 0.00, 0.00, 0.00, 0.00, 89, 0, -196, 0, 0, 0, 0
NKF3, 193770447, -0.16, -0.15, 0.16, 0.06, -0.12, 0.16, 0, 0, 0, 10.05, 0.00
NKF4, 193770447, 0.05, 0.00, 0.01, 0.11, 0.00, 0.0002909637, 0, 0, 0, 16, 9087, 0, 0
NKF5, 193770447, 0, 0, 0, 0, 0.10, 0.54, 0.00, 0.09, 0.15, 0.003212347, 0.007150216, 0.01764525
AHR2, 193770475, -2.79, 0.71, 22.13, 85.11, -34.0728675, 18.8399835
POS, 193770481, -34.0728674, 18.8399812, 85.3, -0.4804345
RATE, 193770485, 0.7944845, 0.7944845, 0.000154853, 1.162502, 1.162502, 0.0002009314, 0.2457707, 0.2457707, -1.120347E-05, 0, -2.726269, 0
MOTB, 193770490, 1, 1, 0, 1
RCIN, 193770493, 1492, 1493, 982, 2002, 1167, 982, 982, 982, 982, 982, 982, 982, 1494, 1494
RCOU, 193770499, 982, 982, 982, 982, 0, 0, 0, 0, 0, 0, 0, 0, 0, 0
VIBE, 193770506, 0.02923686, 0.02729016, 0.03316831, 0, 0, 0
CTRL, 193770510, 0.0001069944, 0.0001788815, 7.02668E-05, 0.0001059217, 2.497839E-05
IMU, 193770520, 0.012886, 0.02012224, 0.008434766, 0.4589252, 0.443779, -9.758543, 0, 0, 0, 1, 1
IMU, 193810347, 0.005420965, 0.02810031, -0.0005700289, 0.4434979, 0.4429882, -9.826035, 0, 0, 0, 1, 1
IMU, 193850474, 0.01791849, 0.0130318, -0.0100881, 0.4769793, 0.4966595, -9.780297, 0, 0, 0, 1, 1
CURR, 193868052, 12.43757, 0, 0.0644621
CUR2, 193868060, 12.41582, 0, 2.658004
MAG, 193868078, 67, -43, -222, -208, 24, -34, 0, 0, 0, 1, 193868068
MAG2, 193868078, 56, 11, -255, -121, 141, -76, 0, 0, 0, 1, 193868071
BARO, 193870373, -0.41038, 102010.8, 26.05, 0.3172345, 193870, 0
CTUN, 193870393, 0, 0, 0, 0.4812081, 0, -0.4837742, -0.41, 0.00, 0.00, 0, 0, -10
ATT, 193870473, -2.75, -2.75, 1.37, 1.37, 24.93, 24.93, 0.08, 0.13
NKF1, 193870477, -2.75, 1.37, 24.93, -0.1142816, -0.2058431, 0.1085182, 0, 2.213648, -0.5703949, 0.4837742, -0.05, 0.00, 0.23
NKF2, 193870477, 0, 0.00, 0.00, 0.00, 0.00, 0.00, 89, 0, -196, 0, 0, 0, 0
NKF3, 193870477, -0.07, -0.25, 0.03, 0.05, -0.14, 0.30, 0, 0, 0, 10.14, 0.00
NKF4, 193870477, 0.05, 0.00, 0.02, 0.11, 0.00, 0.0002999145, 0, 0, 0, 16, 9087, 0, 0
NKF5, 193870477, 0, 0, 0, 0, 0.10, 0.55, 0.00, 0.09, 0.15, 0.003174316, 0.01389579, 0.03331814
AHR2, 193870506, -2.62, 0.82, 22.04, 84.93999, -34.0728675, 18.8399835
POS, 193870512, -34.0728675, 18.8399812, 85.3, -0.4837742
RATE, 193870515, 2.238213, 2.238213, -0.0005136416, 0.07344756, 0.07344756, 0.0005220299, -0.9847935, -0.9847935, 8.125538E-05, 0, 4.622078, 0
MOTB, 193870520, 1, 1, 0, 1
RCIN, 193870524, 1492, 1493, 982, 2002, 1167, 982, 982, 982, 982, 982, 982, 982, 1494, 1494
RCOU, 193870529, 982, 982, 982, 982, 0, 0, 0, 0, 0, 0, 0, 0, 0, 0
VIBE, 193870536, 0.03502059, 0.04188741, 0.0400847, 0, 0, 0
CTRL, 193870540, 0.0001580845, 0.0002281381, 0.0001092813, 0.000155577, 4.861254E-05
IMU, 193890368, 0.05323473, -0.001841914, -0.01522301, 0.4214869, 0.4674222, -9.893246, 0, 0, 0, 1, 1
IMU, 193930512, 0.1678928, -0.0125414, -0.0008846596, 0.3830559, 0.6064694, -9.856808, 0, 0, 0, 1, 1
GPS, 193967981, 3, 32904200, 1958, 12, 0.85, -34.0728675, 18.8399837, 84.71, 0.1252996, 28.61046, -0.03, 1
GPA, 193967981, 1.34, 2.80, 4.36, 0.85, 1, 193967
CURR, 193968061, 12.41582, 0, 0.0644621
CUR2, 193968066, 12.37234, 0.92, 2.683563
MAG, 193968080, 63, -51, -216, -208, 24, -34, 0, 0, 0, 1, 193968072
MAG2, 193968080, 54, 14, -241, -121, 141, -76, 0, 0, 0, 1, 193968075
DU32, 193968098, 7, 17163736
TERR, 193969529, 2, -34.0728675, 18.8399811, 100, 81.58225, -0.04995728, 0, 336
BARO, 193970387, -0.1727916, 102008, 26.06, -0.1198066, 193970, 0
CTUN, 193970403, 0, 0, 0, 0.4812081, 0, -0.4862711, -0.17, 0.00, 0.00, 0, 0, -10
ATT, 193970508, -2.07, -2.07, 1.19, 1.19, 24.82, 24.82, 0.07, 0.10
NKF1, 193970514, -2.07, 1.19, 24.82, -0.1117269, -0.2002921, 0.108685, 0, 2.208512, -0.5738344, 0.4862711, -0.05, 0.00, 0.23
NKF2, 193970514, 0, 0.00, 0.00, 0.00, 0.00, 0.00, 89, 0, -196, 0, 0, 0, 0
NKF3, 193970514, -0.07, -0.25, 0.03, 0.05, -0.14, 0.20, 0, 0, 0, 6.05, 0.00
NKF4, 193970514, 0.05, 0.00, 0.01, 0.07, 0.00, 0.0003126794, 0, 0, 0, 16, 9087, 0, 0
NKF5, 193970514, 0, 0, 0, 0, 0.10, 0.55, 0.00, 0.09, 0.15, 0.002840919, 0.007047759, 0.01965999
AHR2, 193970546, -1.86, 0.67, 21.93, 85.18, -34.0728675, 18.8399837
POS, 193970552, -34.0728675, 18.8399811, 85.3, -0.4862711
RATE, 193970556, 7.596814, 7.596814, 0.003876643, -4.91954, -4.91954, -0.003267753, -0.196813, -0.196813, -8.376979E-05, 0, -36.56921, 0
MOTB, 193970562, 1, 1, 0, 1
RCIN, 193970565, 1492, 1493, 982, 2002, 1167, 982, 982, 982, 982, 982, 982, 982, 1494, 1494
RCOU, 193970570, 982, 982, 982, 982, 0, 0, 0, 0, 0, 0, 0, 0, 0, 0
VIBE, 193970575, 0.1777404, 0.1685635, 0.2380781, 0, 0, 0
CTRL, 193970579, 0.0004740497, 0.0008010808, 0.0005488078, 0.001197716, 8.104968E-05
IMU, 193970589, 0.1316059, -0.08602841, 0.0007219663, 0.5310389, 0.3067064, -9.421127, 0, 0, 0, 1, 1
PM, 193970598, 0, 4000, 2524, 10, 0, 0, 19
IMU, 194010370, 0.02687611, -0.02985451, -0.003229905, 0.3222964, 0.554882, -9.984545, 0, 0, 0, 1, 1
IMU, 194050350, -0.01913895, 0.01329324, 0.00310871, 0.5541638, 0.3314394, -9.788329, 0, 0, 0, 1, 1
CURR, 194067990, 12.43757, 0, 0.0644621
CUR2, 194067997, 12.41582, 0, 2.683563
MAG, 194068012, 58, -55, -220, -208, 24, -34, 0, 0, 0, 1, 194068004
MAG2, 194068012, 52, 13, -252, -121, 141, -76, 0, 0, 0, 1, 194068007
BARO, 194070352, -0.1349934, 102007.6, 26.05, -0.2514253, 194070, 0
CTUN, 194070371, 0, 0, 0, 0.4812081, 0, -0.4882352, -0.13, 0.00, 0.00, 0, 0, -11
ATT, 194070429, -2.08, -2.08, 1.13, 1.13, 24.76, 24.76, 0.07, 0.10
NKF1, 194070434, -2.08, 1.13, 24.76, -0.1119462, -0.2058086, 0.1127888, 0, 2.208729, -0.5707511, 0.4882352, -0.05, 0.00, 0.23
NKF2, 194070434, 0, 0.00, 0.00, 0.00, 0.00, 0.00, 89, 0, -196, 0, 0, 0, 0
NKF3, 194070434, -0.21, -0.24, 0.13, 0.06, -0.15, 0.04, 0, 0, 0, 5.22, 0.00
NKF4, 194070434, 0.07, 0.00, 0.00, 0.06, 0.00, 0.0003429879, 0, 0, 0, 16, 9087, 0, 0
NKF5, 194070434, 0, 0, 0, 0, 0.10, 0.55, 0.00, 0.09, 0.15, 0.002644743, 0.01854973, 0.04266616
AHR2, 194070464, -1.90, 0.55, 21.91, 85.22, -34.0728675, 18.8399837
POS, 194070470, -34.0728675, 18.8399812, 85.3, -0.4882352
RATE, 194070474, 0.3841104, 0.3841104, -0.001849008, 0.1640408, 0.1640408, -0.001388415, -0.3237702, -0.3237702, -1.380323E-05, 0, -1.246738, 0
MOTB, 194070480, 1, 1, 0, 1
RCIN, 194070483, 1492, 1493, 982, 2002, 1167, 982, 982, 982, 982, 982, 982, 982, 1494, 1494
RCOU, 194070488, 982, 982, 982, 982, 0, 0, 0, 0, 0, 0, 0, 0, 0, 0
VIBE, 194070495, 0.1895703, 0.3112509, 0.2819202, 0, 0, 0
CTRL, 194070499, 0.0009434742, 0.001956379, 0.000543462, 0.001148485, 8.322551E-05
IMU, 194090353, 0.004750441, -0.01655945, 0.001431545, 0.466979, 0.3061752, -9.769016, 0, 0, 0, 1, 1
RAD, 194107937, 197, 96, 100, 65, 48, 0, 0
RAD, 194107948, 197, 96, 100, 65, 48, 0, 0
IMU, 194130345, -0.005689968, 0.001473427, 0.002474979, 0.4274563, 0.303842, -9.787748, 0, 0, 0, 1, 1
GPS, 194167940, 3, 32904400, 1958, 12, 0.85, -34.0728673, 18.8399839, 84.68, 0.1649242, 345.9637, -0.02, 1
GPA, 194167940, 1.34, 2.80, 4.37, 1.04, 1, 194167
CURR, 194168007, 12.43757, 0, 0.0644621
CUR2, 194168011, 12.39408, 0, 2.683563
MAG, 194168024, 57, -62, -223, -208, 24, -34, 0, 0, 0, 1, 194168017
MAG2, 194168024, 55, 4, -257, -121, 141, -76, 0, 0, 0, 1, 194168020
EV, 194170071, 57
BARO, 194170372, -0.2591874, 102009, 26.06, 0.1383683, 194170, 0
CTUN, 194170390, 0, 0, 0, 0.4812081, 0, -0.491628, -0.25, 0.00, 0.00, 0, 0, -11
ATT, 194170471, -2.07, -2.07, 1.10, 1.10, 24.71, 24.71, 0.07, 0.11
NKF1, 194170477, -2.07, 1.10, 24.71, -0.1097344, -0.2061619, 0.1128898, 0, 2.207631, -0.5716147, 0.491628, -0.05, 0.00, 0.23
NKF2, 194170477, 0, 0.00, 0.00, 0.00, 0.00, 0.00, 89, 0, -196, 0, 0, 0, 0
NKF3, 194170477, -0.21, -0.24, 0.13, 0.06, -0.15, 0.28, 0, 0, 0, 0.07, 0.00
NKF4, 194170477, 0.07, 0.00, 0.01, 0.00, 0.00, 0.0003705999, 0, 0, 0, 16, 9087, 0, 0
NKF5, 194170477, 0, 0, 0, 0, 0.10, 0.56, 0.00, 0.09, 0.15, 0.002054353, 0.01014041, 0.02626054
AHR2, 194170500, -1.92, 0.47, 21.96, 85.1, -34.0728673, 18.8399839
POS, 194170506, -34.0728675, 18.8399812, 85.29, -0.491628
RATE, 194170509, 0.1118825, 0.1118825, 8.865958E-05, -0.1970783, -0.1970783, 0.0001669451, -0.2644801, -0.2644801, 1.339774E-05, 0, 0.3815651, 0
MOTB, 194170514, 1, 1, 0, 1
RCIN, 194170517, 1492, 1493, 982, 2002, 1167, 982, 982, 982, 982, 982, 982, 982, 1494, 1494
RCOU, 194170522, 982, 982, 982, 982, 0, 0, 0, 0, 0, 0, 0, 0, 0, 0
VIBE, 194170527, 0.1159182, 0.1768135, 0.1670549, 0, 0, 0
CTRL, 194170531, 0.0007765254, 0.001618657, 0.0004631138, 0.0009842246, 7.003787E-05
IMU, 194170541, 0.0009696856, -0.003603192, -0.0004644254, 0.4208229, 0.3225986, -9.796062, 0, 0, 0, 1, 1
IMU, 194210376, -0.001203042, 0.001350252, -0.0005142126, 0.4207366, 0.3172841, -9.79577, 0, 0, 0, 1, 1
IMU, 194250348, -0.000355205, -8.346041E-05, -0.0004783027, 0.4021924, 0.3072542, -9.792923, 0, 0, 0, 1, 1
CURR, 194267989, 12.39408, 0, 0.0644621
CUR2, 194267997, 12.41582, 0, 2.683563
MAG, 194268012, 55, -57, -218, -208, 24, -34, 0, 0, 0, 1, 194268003
MAG2, 194268012, 49, 7, -251, -121, 141, -76, 0, 0, 0, 1, 194268007
BARO, 194270356, -0.3131847, 102009.6, 26.05, 0.3644822, 194270, 0
CTUN, 194270376, 0, 0, 0, 0.4812081, 0, -0.4928271, -0.31, 0.00, 0.00, 0, 0, -11
ATT, 194270433, -2.06, -2.06, 1.09, 1.09, 24.67, 24.67, 0.07, 0.11
NKF1, 194270439, -2.06, 1.09, 24.67, -0.1067144, -0.2054349, 0.110985, 0, 2.211101, -0.5701804, 0.4928271, -0.05, 0.00, 0.23
NKF2, 194270439, 0, 0.00, 0.00, 0.00, 0.00, 0.00, 89, 0, -196, 0, 0, 0, 0
NKF3, 194270439, -0.25, -0.13, 0.11, 0.04, -0.18, 0.32, 0, 0, 0, -3.88, 0.00
NKF4, 194270439, 0.06, 0.00, 0.02, 0.04, 0.00, 0.000360734, 0, 0, 0, 16, 9087, 0, 0
NKF5, 194270439, 0, 0, 0, 0, 0.11, 0.56, 0.00, 0.09, 0.15, 0.001516944, 0.01622405, 0.04069752
AHR2, 194270468, -1.97, 0.47, 22.04, 85.04, -34.0728673, 18.8399839
POS, 194270475, -34.0728675, 18.8399812, 85.29, -0.4928271
RATE, 194270478, 0.04366919, 0.04366919, 3.342474E-05, -0.06464849, -0.06464849, -8.128821E-05, -0.1603692, -0.1603692, -1.39844E-05, 0, 1.505852, 0
MOTB, 194270484, 1, 1, 0, 1
RCIN, 194270487, 1492, 1493, 982, 2002, 1167, 982, 982, 982, 982, 982, 982, 982, 1494, 1494
RCOU, 194270492, 1012, 1012, 1012, 1012, 0, 0, 0, 0, 0, 0, 0, 0, 0, 0
VIBE, 194270499, 0.06908699, 0.101763, 0.09849402, 0, 0, 0
CTRL, 194270503, 0.0006353894, 0.00132465, 0.0003800527, 0.0008086503, 5.768515E-05
IMU, 194290355, -0.000401587, 0.0002613897, 0.000129013, 0.4035476, 0.3204241, -9.785894, 0, 0, 0, 1, 1
IMU, 194330379, -0.0002868614, -0.001212172, 0.0006380626, 0.399405, 0.3168833, -9.785316, 0, 0, 0, 1, 1
GPS, 194368026, 3, 32904600, 1958, 12, 0.85, -34.0728672, 18.8399841, 84.62, 0.1414213, 81.8699, 0.08, 1
GPA, 194368026, 1.34, 2.81, 4.38, 0.72, 1, 194368
CURR, 194368107, 12.39408, 0, 0.0644621
CUR2, 194368111, 12.32885, 0, 2.683563
MAG, 194368126, 55, -55, -220, -208, 24, -34, 0, 0, 0, 1, 194368118
MAG2, 194368126, 49, 8, -259, -121, 141, -76, 0, 0, 0, 1, 194368121
BARO, 194370404, -0.2807863, 102009.3, 26.05, -0.02362384, 194370, 0
CTUN, 194370425, 0, 0, 0, 0.4812081, 0, -0.4944221, -0.28, 0.00, 0.00, 0, 0, -11
ATT, 194370506, -2.06, -2.06, 1.08, 1.08, 24.64, 24.64, 0.08, 0.11
NKF1, 194370511, -2.06, 1.08, 24.64, -0.1043827, -0.2067165, 0.1102674, 0, 2.212161, -0.574301, 0.4944221, -0.05, 0.00, 0.23
NKF2, 194370511, 0, 0.00, 0.00, 0.00, 0.00, 0.00, 89, 0, -196, 0, 0, 0, 0
NKF3, 194370511, -0.25, -0.13, 0.11, 0.04, -0.18, 0.20, 0, 0, 0, -7.13, 0.00
NKF4, 194370511, 0.06, 0.00, 0.01, 0.08, 0.00, 0.0003449138, 0, 0, 0, 16, 9087, 0, 0
NKF5, 194370511, 0, 0, 0, 0, 0.10, 0.56, 0.00, 0.09, 0.15, 0.0008248278, 0.008749762, 0.02485668
AHR2, 194370539, -2.03, 0.47, 22.11, 85.07, -34.0728672, 18.8399841
POS, 194370543, -34.0728675, 18.8399811, 85.29, -0.4944221
RATE, 194370547, 0.01100365, 0.01100365, -0.0001589191, -0.01185647, -0.01185647, -0.0001446312, -0.226553, -0.226553, 2.382769E-06, 0, -0.4504204, 0
MOTB, 194370553, 1, 1, 0, 1
RCIN, 194370556, 1492, 1493, 982, 2002, 1167, 982, 982, 982, 982, 982, 982, 982, 1494, 1494
RCOU, 194370561, 1043, 1043, 1043, 1043, 0, 0, 0, 0, 0, 0, 0, 0, 0, 0
VIBE, 194370568, 0.04015411, 0.05797241, 0.0606827, 0, 0, 0
CTRL, 194370572, 0.0005199505, 0.001084246, 0.0003113274, 0.0006627694, 4.731423E-05
IMU, 194370582, -0.0007855514, -0.0003675232, 0.0001703138, 0.4059262, 0.3154309, -9.788644, 0, 0, 0, 1, 1
IMU, 194410398, 0.000217244, 7.651594E-05, 0.001203603, 0.3893739, 0.3044057, -9.807835, 0, 0, 0, 1, 1
IMU, 194450408, -0.0003485987, -0.0005519062, 0.0004000025, 0.3999996, 0.3139101, -9.782745, 0, 0, 0, 1, 1
CURR, 194468061, 12.39408, 0, 0.0644621
CUR2, 194468069, 12.43757, 0, 2.683563
MAG, 194468084, 54, -52, -216, -208, 24, -34, 0, 0, 0, 1, 194468076
MAG2, 194468084, 56, 8, -253, -121, 141, -76, 0, 0, 0, 1, 194468080
BARO, 194470376, -0.3563826, 102010.2, 26.06, -0.3965432, 194470, 0
CTUN, 194470396, 0, 0, 0, 0.4812081, 0, -0.4957992, -0.35, 0.00, 0.00, 0, 0, -10
ATT, 194470484, -2.05, -2.05, 1.07, 1.07, 24.62, 24.62, 0.08, 0.11
NKF1, 194470489, -2.05, 1.07, 24.62, -0.1021817, -0.2043295, 0.1089507, 0, 2.214138, -0.5688605, 0.4957992, -0.05, 0.00, 0.23
NKF2, 194470489, 0, 0.00, 0.00, 0.00, 0.00, 0.00, 89, 0, -196, 0, 0, 0, 0
NKF3, 194470489, -0.10, -0.32, 0.02, 0.02, -0.19, 0.14, 0, 0, 0, -6.45, 0.00
NKF4, 194470489, 0.07, 0.01, 0.00, 0.07, 0.00, 0.0003598694, 0, 0, 0, 16, 9087, 0, 0
NKF5, 194470489, 0, 0, 0, 0, 0.10, 0.56, 0.00, 0.09, 0.15, 0.000997755, 0.01653671, 0.04158028
AHR2, 194470515, -1.88, 0.51, 22.17, 85, -34.0728672, 18.8399841
POS, 194470521, -34.0728675, 18.8399812, 85.29, -0.4957992
RATE, 194470524, -0.01812538, -0.01812538, -0.0001079665, -0.03313482, -0.03313482, -0.0001272748, -0.228063, -0.228063, 4.589284E-06, 0, -1.963615, 0
MOTB, 194470530, 1, 1, 0, 1
RCIN, 194470533, 1492, 1493, 982, 2002, 1167, 982, 982, 982, 982, 982, 982, 982, 1494, 1494
RCOU, 194470538, 1074, 1074, 1074, 1074, 0, 0, 0, 0, 0, 0, 0, 0, 0, 0
VIBE, 194470543, 0.02892704, 0.03612023, 0.04072107, 0, 0, 0
CTRL, 194470547, 0.0004254463, 0.0008873259, 0.0002550601, 0.0005434012, 3.895202E-05
IMU, 194490379, -0.0002942803, -0.001021614, 0.0003114897, 0.4085589, 0.3168097, -9.773653, 0, 0, 0, 1, 1
IMU, 194530353, 5.95107E-05, -0.000877115, -0.0002862562, 0.4079709, 0.3142032, -9.769424, 0, 0, 0, 1, 1
GPS, 194567942, 3, 32904800, 1958, 12, 0.85, -34.072867, 18.8399841, 84.59, 0.25, 323.1301, -0.15, 1
GPA, 194567942, 1.34, 2.81, 4.38, 1.02, 1, 194567
CURR, 194568010, 12.43757, 0, 0.0644621
CUR2, 194568015, 12.41582, 0, 2.683563
MAG, 194568029, 57, -54, -221, -208, 24, -34, 0, 0, 0, 1, 194568021
MAG2, 194568029, 54, 9, -259, -121, 141, -76, 0, 0, 0, 1, 194568024
BARO, 194570367, -0.534574, 102012.3, 26.06, -0.4235419, 194570, 0
CTUN, 194570387, 0, 0, 0, 0.4812081, 0, -0.4985958, -0.53, 0.00, 0.00, 0, 0, -10
ATT, 194570444, -2.04, -2.04, 1.05, 1.05, 24.60, 24.60, 0.09, 0.10
NKF1, 194570449, -2.04, 1.05, 24.60, -0.1004835, -0.203475, 0.1087746, 0, 2.213684, -0.567898, 0.4985958, -0.05, 0.00, 0.23
NKF2, 194570449, 0, 0.00, 0.00, 0.00, 0.00, 0.00, 89, 0, -196, 0, 0, 0, 0
NKF3, 194570449, -0.10, -0.32, 0.02, 0.02, -0.19, 0.18, 0, 0, 0, -5.41, 0.00
NKF4, 194570449, 0.07, 0.01, 0.01, 0.06, 0.00, 0.0003788508, 0, 0, 0, 16, 9087, 0, 0
NKF5, 194570449, 0, 0, 0, 0, 0.10, 0.56, 0.00, 0.09, 0.15, 0.001133128, 0.00769435, 0.02225918
AHR2, 194570476, -1.73, 0.54, 22.22, 84.82, -34.072867, 18.8399841
POS, 194570482, -34.0728675, 18.8399812, 85.29, -0.4985958
RATE, 194570485, 0.02395031, 0.02395031, 7.123786E-05, -0.05861462, -0.05861462, -0.0002086558, -0.2439148, -0.2439148, 1.156042E-06, 0, -1.799011, 0
MOTB, 194570491, 1, 1, 0, 1
RCIN, 194570494, 1492, 1493, 982, 2002, 1167, 982, 982, 982, 982, 982, 982, 982, 1494, 1494
RCOU, 194570500, 1084, 1084, 1084, 1084, 0, 0, 0, 0, 0, 0, 0, 0, 0, 0
VIBE, 194570507, 0.02351595, 0.02506772, 0.03635832, 0, 0, 0
CTRL, 194570511, 0.0003481894, 0.0007264348, 0.0002091006, 0.0004458759, 3.193382E-05
IMU, 194570520, -0.0005621758, -0.001181862, -0.0001335045, 0.3981974, 0.3079748, -9.775723, 0, 0, 0, 1, 1
IMU, 194610356, -0.0008873207, -0.001152561, -0.0007214134, 0.4009973, 0.3029422, -9.782219, 0, 0, 0, 1, 1
IMU, 194650382, -0.00121744, 0.0001957442, -0.0002019959, 0.4083069, 0.3035045, -9.780811, 0, 0, 0, 1, 1
CURR, 194668051, 12.39408, 0, 0.0644621
CUR2, 194668060, 12.32885, 1.84, 2.734698
MAG, 194668074, 57, -58, -223, -208, 24, -34, 0, 0, 0, 1, 194668066
MAG2, 194668074, 57, 4, -255, -121, 141, -76, 0, 0, 0, 1, 194668069
BARO, 194670363, -0.4805766, 102011.6, 26.05, -0.5197247, 194670, 0
CTUN, 194670383, 0, 0, 0, 0.4812081, 0, -0.4988341, -0.48, 0.00, 0.00, 0, 0, -10
ATT, 194670452, -2.04, -2.04, 1.04, 1.04, 24.59, 24.59, 0.09, 0.10
NKF1, 194670457, -2.04, 1.04, 24.59, -0.09561697, -0.203697, 0.1073295, 0, 2.219712, -0.5675903, 0.4988341, -0.05, 0.00, 0.23
NKF2, 194670457, 0, 0.00, 0.00, 0.00, 0.00, 0.00, 89, 0, -196, 0, 0, 0, 0
NKF3, 194670457, -0.28, -0.03, 0.25, 0.01, -0.21, 0.10, 0, 0, 0, -4.35, 0.00
NKF4, 194670457, 0.08, 0.01, 0.00, 0.05, 0.00, 0.000369545, 0, 0, 0, 16, 9087, 0, 0
NKF5, 194670457, 0, 0, 0, 0, 0.10, 0.56, 0.00, 0.09, 0.15, 0.001432857, 0.01439278, 0.03601809
AHR2, 194670486, -1.89, 0.52, 22.26, 84.87, -34.072867, 18.8399841
POS, 194670492, -34.0728674, 18.8399812, 85.29, -0.4988341
RATE, 194670496, -0.0138307, -0.0138307, -7.218506E-05, -0.09047751, -0.09047751, -1.335945E-05, -0.2453784, -0.2453784, -2.450265E-06, 0, -0.8823395, 0
MOTB, 194670501, 1, 1, 0, 1
RCIN, 194670504, 1492, 1493, 982, 2002, 1167, 982, 982, 982, 982, 982, 982, 982, 1494, 1494
RCOU, 194670509, 1084, 1084, 1084, 1084, 0, 0, 0, 0, 0, 0, 0, 0, 0, 0
VIBE, 194670516, 0.01902387, 0.02294232, 0.03153261, 0, 0, 0
CTRL, 194670520, 0.0002850208, 0.0005948601, 0.0001718428, 0.0003664028, 2.617472E-05
IMU, 194690365, -0.001349324, -0.001020671, -6.050539E-06, 0.3990942, 0.3131579, -9.781481, 0, 0, 0, 1, 1
IMU, 194730348, -0.0007261384, 0.0004220567, -7.33569E-05, 0.3984955, 0.3236118, -9.782935, 0, 0, 0, 1, 1
GPS, 194767943, 3, 32905000, 1958, 12, 0.85, -34.072867, 18.8399842, 84.62, 0.09219544, 139.3987, -0.12, 1
GPA, 194767943, 1.34, 2.82, 4.39, 0.72, 1, 194767
CURR, 194768012, 12.41582, 0, 0.0644621
CUR2, 194768018, 12.43757, 0, 2.734698
MAG, 194768034, 56, -53, -224, -208, 24, -34, 0, 0, 0, 1, 194768025
MAG2, 194768034, 50, 10, -255, -121, 141, -76, 0, 0, 0, 1, 194768030
BARO, 194770370, -0.329384, 102009.9, 26.05, -0.6277195, 194770, 0
CTUN, 194770391, 0, 0, 0, 0.4812081, 0, -0.500844, -0.32, 0.00, 0.00, 0, 0, -10
ATT, 194770447, -2.04, -2.04, 1.03, 1.03, 24.58, 24.58, 0.11, 0.10
NKF1, 194770452, -2.04, 1.03, 24.58, -0.09230947, -0.2054771, 0.1063819, 0, 2.223821, -0.572357, 0.500844, -0.05, 0.00, 0.23
NKF2, 194770452, 0, 0.00, 0.00, 0.00, 0.00, 0.00, 89, 0, -196, 0, 0, 0, 0
NKF3, 194770452, -0.28, -0.03, 0.25, 0.01, -0.21, -0.06, 0, 0, 0, -3.49, 0.00
NKF4, 194770452, 0.08, 0.01, 0.00, 0.04, 0.00, 0.0003559924, 0, 0, 0, 16, 9087, 0, 0
NKF5, 194770452, 0, 0, 0, 0, 0.09, 0.57, 0.00, 0.09, 0.15, 0.001457915, 0.007815531, 0.01919898
AHR2, 194770479, -2.06, 0.49, 22.31, 85.03, -34.072867, 18.8399842
POS, 194770485, -34.0728674, 18.8399811, 85.28, -0.500844
RATE, 194770489, 0.05071014, 0.05071014, -3.872429E-05, 0.03867915, 0.03867915, -6.975545E-05, -0.2546772, -0.2546772, 5.201732E-06, 0, -2.530193, 0
MOTB, 194770495, 1, 1, 0, 1
RCIN, 194770498, 1492, 1493, 982, 2002, 1167, 982, 982, 982, 982, 982, 982, 982, 1494, 1494
RCOU, 194770503, 1084, 1084, 1084, 1084, 0, 0, 0, 0, 0, 0, 0, 0, 0, 0
VIBE, 194770511, 0.01613962, 0.01997399, 0.03191914, 0, 0, 0
CTRL, 194770515, 0.0002334615, 0.0004874171, 0.0001410011, 0.0003010712, 2.155847E-05
IMU, 194770524, -9.649374E-05, 0.0005179853, -0.0003158734, 0.3961064, 0.3103903, -9.768342, 0, 0, 0, 1, 1
IMU, 194810349, -0.0005415174, -0.0001229229, -0.0004341697, 0.3938535, 0.3155858, -9.76726, 0, 0, 0, 1, 1
IMU, 194850440, -0.00222051, -0.0002767711, 0.0004731489, 0.4018979, 0.3089158, -9.781857, 0, 0, 0, 1, 1
CURR, 194868091, 12.43757, 0, 0.0644621
CUR2, 194868100, 12.43757, 0, 2.734698
MAG, 194868116, 52, -55, -227, -208, 24, -34, 0, 0, 0, 1, 194868107
MAG2, 194868116, 56, 6, -260, -121, 141, -76, 0, 0, 0, 1, 194868111
BARO, 194870382, -0.2429882, 102008.9, 26.05, -0.2328637, 194870, 0
CTUN, 194870400, 0, 0, 0, 0.4812081, 0, -0.5025476, -0.24, 0.00, 0.00, 0, 0, -10
ATT, 194870481, -2.04, -2.04, 1.02, 1.02, 24.57, 24.57, 0.11, 0.11
NKF1, 194870486, -2.04, 1.02, 24.57, -0.0901791, -0.2040566, 0.1054807, 0, 2.225459, -0.5694854, 0.5025476, -0.05, 0.00, 0.23
NKF2, 194870486, 0, 0.00, 0.00, 0.00, 0.00, 0.00, 89, 0, -196, 0, 0, 0, 0
NKF3, 194870486, 0.00, -0.25, 0.22, 0.00, -0.21, 0.00, 0, 0, 0, -5.45, 0.00
NKF4, 194870486, 0.07, 0.01, 0.00, 0.06, 0.00, 0.0003498059, 0, 0, 0, 16, 9087, 0, 0
NKF5, 194870486, 0, 0, 0, 0, 0.10, 0.57, 0.00, 0.09, 0.15, 0.001598177, 0.0101003, 0.02786061
AHR2, 194870513, -1.88, 0.59, 22.36, 85.11, -34.072867, 18.8399842
POS, 194870518, -34.0728674, 18.8399812, 85.28, -0.5025476
RATE, 194870521, -0.04558151, -0.04558151, 6.619001E-05, 0.01897291, 0.01897291, -3.71314E-06, -0.2421592, -0.2421592, 3.406013E-06, 0, -0.8664131, 0
MOTB, 194870528, 1, 1, 0, 1
RCIN, 194870531, 1492, 1493, 982, 2002, 1167, 982, 982, 982, 982, 982, 982, 982, 1494, 1494
RCOU, 194870536, 1084, 1084, 1084, 1084, 0, 0, 0, 0, 0, 0, 0, 0, 0, 0
VIBE, 194870544, 0.01890684, 0.01802553, 0.03016823, 0, 0, 0
CTRL, 194870548, 0.0001913972, 0.0004000851, 0.0001159117, 0.0002480761, 1.8278E-05
IMU, 194890383, -0.001517802, 0.0001483786, -9.070055E-05, 0.3929783, 0.3179455, -9.794918, 0, 0, 0, 1, 1
IMU, 194930494, -0.0003355065, -0.0003097922, -8.371248E-05, 0.402593, 0.3120327, -9.790263, 0, 0, 0, 1, 1
GPS, 194968027, 3, 32905200, 1958, 12, 0.85, -34.0728671, 18.8399845, 84.61, 0.06082762, 99.46232, 0.06, 1
GPA, 194968027, 1.34, 2.82, 4.39, 0.78, 1, 194968
CURR, 194968104, 12.43757, 0, 0.0644621
CUR2, 194968108, 12.41582, 0, 2.734698
MAG, 194968122, 54, -55, -223, -208, 24, -34, 0, 0, 0, 1, 194968115
MAG2, 194968122, 52, 11, -254, -121, 141, -76, 0, 0, 0, 1, 194968118
DU32, 194968140, 7, 386520
TERR, 194969564, 2, -34.0728674, 18.8399812, 100, 81.5829, -0.07060242, 0, 336
BARO, 194970383, -0.41038, 102010.8, 26.05, 0.4218544, 194970, 0
CTUN, 194970398, 0, 0, 0, 0.4812081, 0, -0.5060006, -0.41, 0.00, 0.00, 0, 0, -10
ATT, 194970503, -2.04, -2.04, 1.02, 1.02, 24.56, 24.56, 0.09, 0.11
NKF1, 194970508, -2.04, 1.02, 24.56, -0.08966994, -0.2040344, 0.1039156, 0, 2.224356, -0.5709808, 0.5060006, -0.05, 0.00, 0.23
NKF2, 194970508, 0, 0.00, 0.00, 0.00, 0.00, 0.00, 89, 0, -196, 0, 0, 0, 0
NKF3, 194970508, 0.00, -0.25, 0.22, 0.00, -0.21, 0.15, 0, 0, 0, -4.16, 0.00
NKF4, 194970508, 0.07, 0.01, 0.00, 0.04, 0.00, 0.000346623, 0, 0, 0, 16, 9087, 0, 0
NKF5, 194970508, 0, 0, 0, 0, 0.10, 0.58, 0.00, 0.09, 0.15, 0.001521807, 0.002802046, 0.01053309
AHR2, 194970535, -1.69, 0.70, 22.44, 84.93999, -34.0728671, 18.8399845
POS, 194970542, -34.0728674, 18.8399812, 85.28, -0.5060006
RATE, 194970545, 0.04830004, 0.04830004, -4.275324E-05, 0.06064283, 0.06064283, 2.20507E-05, -0.251602, -0.251602, 2.887429E-06, 0, -0.9724617, 0
MOTB, 194970550, 1, 1, 0, 1
RCIN, 194970553, 1492, 1493, 982, 2002, 1167, 982, 982, 982, 982, 982, 982, 982, 1494, 1494
RCOU, 194970558, 1084, 1084, 1084, 1084, 0, 0, 0, 0, 0, 0, 0, 0, 0, 0
VIBE, 194970563, 0.01942285, 0.01880131, 0.02771701, 0, 0, 0
CTRL, 194970567, 0.0001571824, 0.0003291949, 9.587048E-05, 0.0002057209, 1.516985E-05
IMU, 194970577, -0.0001410842, 0.00090228, -0.0002624195, 0.4072141, 0.3218767, -9.782938, 0, 0, 0, 1, 1
IMU, 195010357, -0.001056337, -0.00014235, -0.0002405539, 0.4059078, 0.3080135, -9.781628, 0, 0, 0, 1, 1
RAD, 195027946, 207, 109, 100, 65, 48, 0, 0
RAD, 195027957, 207, 109, 100, 65, 48, 0, 0
IMU, 195050353, -0.0004096496, -0.0004577706, 0.001335544, 0.3983807, 0.3152949, -9.774261, 0, 0, 0, 1, 1
CURR, 195068003, 12.43757, 0, 0.0644621
CUR2, 195068010, 12.43757, 0, 2.734698
