FMT, 128, 89, FMT, BBnNZ, Type,Length,Name,Format,Columns
FMT, 129, 31, PARM, QNf, TimeUS,Name,Value
FMT, 130, 46, GPS, QBIHBcLLefffB, TimeUS,Status,GMS,GWk,NSats,HDop,Lat,Lng,Alt,Spd,GCrs,VZ,U
FMT, 131, 46, GPS2, QBIHBcLLefffB, TimeUS,Status,GMS,GWk,NSats,HDop,Lat,Lng,Alt,Spd,GCrs,VZ,U
FMT, 196, 24, GPA, QCCCCBI, TimeUS,VDop,HAcc,VAcc,SAcc,VV,SMS
FMT, 197, 24, GPA2, QCCCCBI, TimeUS,VDop,HAcc,VAcc,SAcc,VV,SMS
FMT, 132, 49, IMU, QffffffIIfBB, TimeUS,GyrX,GyrY,GyrZ,AccX,AccY,AccZ,ErrG,ErrA,Temp,GyHlt,AcHlt
FMT, 133, 75, MSG, QZ, TimeUS,Message
FMT, 134, 39, RCIN, QHHHHHHHHHHHHHH, TimeUS,C1,C2,C3,C4,C5,C6,C7,C8,C9,C10,C11,C12,C13,C14
FMT, 135, 39, RCOU, QHHHHHHHHHHHHHH, TimeUS,C1,C2,C3,C4,C5,C6,C7,C8,C9,C10,C11,C12,C13,C14
FMT, 136, 15, RSSI, Qf, TimeUS,RXRSSI
FMT, 138, 33, BARO, QffcfIf, TimeUS,Alt,Press,Temp,CRt,SMS,Offset
FMT, 139, 21, POWR, QffH, TimeUS,Vcc,VServo,Flags
FMT, 146, 45, CMD, QHHHfffffff, TimeUS,CTot,CNum,CId,Prm1,Prm2,Prm3,Prm4,Lat,Lng,Alt
FMT, 147, 20, RAD, QBBBBBHH, TimeUS,RSSI,RemRSSI,TxBuf,Noise,RemNoise,RxErrors,Fixed
FMT, 149, 43, CAM, QIHLLeeeccC, TimeUS,GPSTime,GPSWeek,Lat,Lng,Alt,RelAlt,GPSAlt,Roll,Pitch,Yaw
FMT, 218, 43, TRIG, QIHLLeeeccC, TimeUS,GPSTime,GPSWeek,Lat,Lng,Alt,RelAlt,GPSAlt,Roll,Pitch,Yaw
FMT, 166, 30, ARSP, QffcffB, TimeUS,Airspeed,DiffPress,Temp,RawPress,Offset,U
FMT, 168, 23, CURR, Qfff, TimeUS,Volt,Curr,CurrTot
FMT, 169, 23, CUR2, Qfff, TimeUS,Volt,Curr,CurrTot
FMT, 167, 27, ATT, QccccCCCC, TimeUS,DesRoll,Roll,DesPitch,Pitch,DesYaw,Yaw,ErrRP,ErrYaw
FMT, 170, 34, MAG, QhhhhhhhhhBI, TimeUS,MagX,MagY,MagZ,OfsX,OfsY,OfsZ,MOfsX,MOfsY,MOfsZ,Health,S
FMT, 173, 14, MODE, QMBB, TimeUS,Mode,ModeNum,Rsn
FMT, 198, 15, RFND, QCC, TimeUS,Dist1,Dist2
FMT, 209, 33, DMS, IIIIIBBBBBBBBBB, TimeMS,N,Dp,RT,RS,Er,Fa,Fmn,Fmx,Pa,Pmn,Pmx,Sa,Smn,Smx
FMT, 137, 49, IMU2, QffffffIIfBB, TimeUS,GyrX,GyrY,GyrZ,AccX,AccY,AccZ,ErrG,ErrA,Temp,GyHlt,AcHlt
FMT, 150, 49, IMU3, QffffffIIfBB, TimeUS,GyrX,GyrY,GyrZ,AccX,AccY,AccZ,ErrG,ErrA,Temp,GyHlt,AcHlt
FMT, 140, 29, AHR2, QccCfLL, TimeUS,Roll,Pitch,Yaw,Alt,Lat,Lng
FMT, 184, 27, POS, QLLff, TimeUS,Lat,Lng,Alt,RelAlt
FMT, 141, 29, SIM, QccCfLL, TimeUS,Roll,Pitch,Yaw,Alt,Lat,Lng
FMT, 142, 51, EKF1, QccCfffffffccc, TimeUS,Roll,Pitch,Yaw,VN,VE,VD,dPD,PN,PE,PD,GX,GY,GZ
FMT, 143, 30, EKF2, Qbbbcchhhhhh, TimeUS,Ratio,AZ1bias,AZ2bias,VWN,VWE,MN,ME,MD,MX,MY,MZ
FMT, 144, 31, EKF3, Qcccccchhhc, TimeUS,IVN,IVE,IVD,IPN,IPE,IPD,IMX,IMY,IMZ,IVT
FMT, 145, 34, EKF4, QcccccccbbHBHH, TimeUS,SV,SP,SH,SMX,SMY,SMZ,SVT,OFN,OFE,FS,TS,SS,GPS
FMT, 164, 28, EKF5, QBhhhcccCC, TimeUS,NI,FIX,FIY,AFI,HAGL,offset,RI,rng,Herr
FMT, 200, 51, NKF1, QccCfffffffccc, TimeUS,Roll,Pitch,Yaw,VN,VE,VD,dPD,PN,PE,PD,GX,GY,GZ
FMT, 201, 35, NKF2, QbccccchhhhhhB, TimeUS,AZbias,GSX,GSY,GSZ,VWN,VWE,MN,ME,MD,MX,MY,MZ,MI
FMT, 202, 33, NKF3, Qcccccchhhcc, TimeUS,IVN,IVE,IVD,IPN,IPE,IPD,IMX,IMY,IMZ,IYAW,IVT
FMT, 203, 35, NKF4, QcccccfbbHBHHb, TimeUS,SV,SP,SH,SM,SVT,errRP,OFN,OFE,FS,TS,SS,GPS,PI
FMT, 204, 40, NKF5, QBhhhcccCCfff, TimeUS,NI,FIX,FIY,AFI,HAGL,offset,RI,rng,Herr,eAng,eVel,ePos
FMT, 205, 51, NKF6, QccCfffffffccc, TimeUS,Roll,Pitch,Yaw,VN,VE,VD,dPD,PN,PE,PD,GX,GY,GZ
FMT, 206, 35, NKF7, QbccccchhhhhhB, TimeUS,AZbias,GSX,GSY,GSZ,VWN,VWE,MN,ME,MD,MX,MY,MZ,MI
FMT, 207, 33, NKF8, Qcccccchhhcc, TimeUS,IVN,IVE,IVD,IPN,IPE,IPD,IMX,IMY,IMZ,IYAW,IVT
FMT, 208, 35, NKF9, QcccccfbbHBHHb, TimeUS,SV,SP,SH,SM,SVT,errRP,OFN,OFE,FS,TS,SS,GPS,PI
FMT, 151, 34, TERR, QBLLHffHH, TimeUS,Status,Lat,Lng,Spacing,TerrH,CHeight,Pending,Loaded
FMT, 152, 18, UBX1, QBHBBH, TimeUS,Instance,noisePerMS,jamInd,aPower,agcCnt
FMT, 153, 16, UBX2, QBbBbB, TimeUS,Instance,ofsI,magI,ofsQ,magQ
FMT, 154, 18, UBY1, QBHBBH, TimeUS,Instance,noisePerMS,jamInd,aPower,agcCnt
FMT, 155, 16, UBY2, QBbBbB, TimeUS,Instance,ofsI,magI,ofsQ,magQ
FMT, 174, 42, GRAW, QIHBBddfBbB, TimeUS,WkMS,Week,numSV,sv,cpMes,prMes,doMes,mesQI,cno,lli
FMT, 175, 24, GRXH, QdHbBB, TimeUS,rcvTime,week,leapS,numMeas,recStat
FMT, 176, 41, GRXS, QddfBBBHBBBBB, TimeUS,prMes,cpMes,doMes,gnss,sv,freq,lock,cno,prD,cpD,doD,trk
FMT, 177, 63, SBFE, QIHBBdddfffff, TimeUS,TOW,WN,Mode,Err,Lat,Lng,Height,Undul,Vn,Ve,Vu,COG
FMT, 156, 19, ESC1, Qcccc, TimeUS,RPM,Volt,Curr,Temp
FMT, 157, 19, ESC2, Qcccc, TimeUS,RPM,Volt,Curr,Temp
FMT, 158, 19, ESC3, Qcccc, TimeUS,RPM,Volt,Curr,Temp
FMT, 159, 19, ESC4, Qcccc, TimeUS,RPM,Volt,Curr,Temp
FMT, 160, 19, ESC5, Qcccc, TimeUS,RPM,Volt,Curr,Temp
FMT, 161, 19, ESC6, Qcccc, TimeUS,RPM,Volt,Curr,Temp
FMT, 162, 19, ESC7, Qcccc, TimeUS,RPM,Volt,Curr,Temp
FMT, 163, 19, ESC8, Qcccc, TimeUS,RPM,Volt,Curr,Temp
FMT, 171, 34, MAG2, QhhhhhhhhhBI, TimeUS,MagX,MagY,MagZ,OfsX,OfsY,OfsZ,MOfsX,MOfsY,MOfsZ,Health,S
FMT, 172, 34, MAG3, QhhhhhhhhhBI, TimeUS,MagX,MagY,MagZ,OfsX,OfsY,OfsZ,MOfsX,MOfsY,MOfsZ,Health,S
FMT, 178, 31, ACC1, QQfff, TimeUS,SampleUS,AccX,AccY,AccZ
FMT, 179, 31, ACC2, QQfff, TimeUS,SampleUS,AccX,AccY,AccZ
FMT, 180, 31, ACC3, QQfff, TimeUS,SampleUS,AccX,AccY,AccZ
FMT, 181, 31, GYR1, QQfff, TimeUS,SampleUS,GyrX,GyrY,GyrZ
FMT, 182, 31, GYR2, QQfff, TimeUS,SampleUS,GyrX,GyrY,GyrZ
FMT, 183, 31, GYR3, QQfff, TimeUS,SampleUS,GyrX,GyrY,GyrZ
FMT, 185, 35, PIDR, Qffffff, TimeUS,Des,P,I,D,FF,AFF
FMT, 186, 35, PIDP, Qffffff, TimeUS,Des,P,I,D,FF,AFF
FMT, 187, 35, PIDY, Qffffff, TimeUS,Des,P,I,D,FF,AFF
FMT, 188, 35, PIDA, Qffffff, TimeUS,Des,P,I,D,FF,AFF
FMT, 189, 35, PIDS, Qffffff, TimeUS,Des,P,I,D,FF,AFF
FMT, 165, 33, BAR2, QffcfIf, TimeUS,Alt,Press,Temp,CRt,SMS,Offset
FMT, 199, 33, BAR3, QffcfI, TimeUS,Alt,Press,Temp,CRt,SMS
FMT, 190, 35, VIBE, QfffIII, TimeUS,VibeX,VibeY,VibeZ,Clip0,Clip1,Clip2
FMT, 191, 47, IMT, Qfffffffff, TimeUS,DelT,DelvT,DelaT,DelAX,DelAY,DelAZ,DelVX,DelVY,DelVZ
FMT, 192, 47, IMT2, Qfffffffff, TimeUS,DelT,DelvT,DelaT,DelAX,DelAY,DelAZ,DelVX,DelVY,DelVZ
FMT, 193, 47, IMT3, Qfffffffff, TimeUS,DelT,DelvT,DelaT,DelAX,DelAY,DelAZ,DelVX,DelVY,DelVZ
FMT, 194, 24, ORGN, QBLLe, TimeUS,Type,Lat,Lng,Alt
FMT, 195, 19, RPM, Qff, TimeUS,rpm1,rpm2
FMT, 219, 47, GMB1, Iffffffffff, TimeMS,dt,dax,day,daz,dvx,dvy,dvz,jx,jy,jz
FMT, 220, 44, GMB2, IBfffffffff, TimeMS,es,ex,ey,ez,rx,ry,rz,tx,ty,tz
FMT, 221, 13, GMB3, Ihhh, TimeMS,rl_torque_cmd,el_torque_cmd,az_torque_cmd
FMT, 222, 59, RATE, Qffffffffffff, TimeUS,RDes,R,ROut,PDes,P,POut,YDes,Y,YOut,ADes,A,AOut
FMT, 223, 23, RALY, QBBLLh, TimeUS,Tot,Seq,Lat,Lng,Alt
FMT, 210, 23, SBPH, QIII, TimeUS,CrcError,LastInject,IARhyp
FMT, 215, 80, SBR1, QHHBZ, TimeUS,msg_type,sender_id,msg_len,d1
FMT, 216, 205, SBR2, QHZZZ, TimeUS,msg_type,d2,d3,d4
FMT, 25, 41, ATUN, QBBfffffff, TimeUS,Axis,TuneStep,Targ,Min,Max,RP,RD,SP,ddt
FMT, 26, 19, ATDE, Qff, TimeUS,Angle,Rate
FMT, 31, 22, PTUN, QBfHHH, TimeUS,Param,TunVal,CtrlIn,TunLo,TunHi
FMT, 12, 28, OF, QBffff, TimeUS,Qual,flowX,flowY,bodyX,bodyY
FMT, 5, 51, NTUN, Qffffffffff, TimeUS,DPosX,DPosY,PosX,PosY,DVelX,DVelY,VelX,VelY,DAccX,DAccY
FMT, 4, 51, CTUN, Qffffffeccfhh, TimeUS,ThI,ABst,ThO,ThH,DAlt,Alt,BAlt,DSAlt,SAlt,TAlt,DCRt,CRt
FMT, 6, 28, PM, QHHIhBHI, TimeUS,NLon,NLoop,MaxT,PMT,I2CErr,INSErr,LogDrop
FMT, 30, 27, MOTB, Qffff, TimeUS,LiftMax,BatVolt,BatRes,ThLimit
FMT, 13, 12, EV, QB, TimeUS,Id
FMT, 20, 14, D16, QBh, TimeUS,Id,Value
FMT, 21, 14, DU16, QBH, TimeUS,Id,Value
FMT, 22, 16, D32, QBi, TimeUS,Id,Value
FMT, 23, 16, DU32, QBI, TimeUS,Id,Value
FMT, 24, 16, DFLT, QBf, TimeUS,Id,Value
FMT, 19, 13, ERR, QBB, TimeUS,Subsys,ECode
FMT, 32, 19, HELI, Qff, TimeUS,DRRPM,ERRPM
FMT, 33, 29, PL, QBBffff, TimeUS,Heal,TAcq,pX,pY,vX,vY
FMT, 34, 36, GUID, QBffffff, TimeUS,Type,pX,pY,pZ,vX,vY,vZ
FMT, 35, 32, THRO, QBffffbbbb, TimeUS,Stage,Vel,VelZ,Acc,AccEfZ,Throw,AttOk,HgtOk,PosOk
FMT, 36, 44, PRX, QBffffffff, TimeUS,Health,D0,D45,D90,D135,D180,D225,D270,D315
EV, 751751449, 10
MODE, 751751455, AltHold, 2, 1
FMT, 254, 31, CTRL, Qfffff, TimeUS,RMSRollP,RMSRollD,RMSPitchP,RMSPitchD,RMSYaw
MSG, 751816877, APM:Copter V3.4.6 (5221448a)
MSG, 751816880, New mission
MSG, 751816884, Frame: QUAD
MODE, 751816887, AltHold, 2, 1
CURR, 751849536, 11.80699, 0, 0.4753166
CUR2, 751849544, 11.74176, 3.68, 71.84689
MAG, 751849560, 76, 8, -242, -208, 24, -34, 0, 0, 0, 1, 751849553
MAG2, 751849560, 64, 77, -262, -121, 141, -76, 0, 0, 0, 1, 751849556
BARO, 751851902, -1.32485, 102037.4, 27.58, -0.3276999, 751851, 0
CTUN, 751851923, 0, 0, 0, 0.4812081, -0.8103868, -0.8103868, -1.32, 0.00, 0.00, 0, 0, 9
ATT, 751851989, 0.00, -0.92, 0.00, -2.52, 339.59, 339.09, 0.01, 0.12
NKF1, 751851996, -0.92, -2.52, 339.08, 0.0852579, 0.03977739, -0.09482305, 0, 3.981936, -1.677128, 0.8103868, -0.26, 0.11, 0.08
NKF2, 751851996, 2, 0.00, 0.00, 0.00, 0.00, 0.00, 74, 0, -237, 0, 0, 0, 0
NKF3, 751851996, 0.10, 0.16, 0.05, 0.50, 0.19, -0.60, 0, 0, 0, 12.46, 0.00
NKF4, 751851996, 0.04, 0.02, 0.03, 0.14, 0.00, 0.0001988967, 0, 0, 0, 16, 9087, 0, 0
NKF5, 751851996, 0, 0, 0, 0, 0.14, 0.98, 0.05, 0.09, 0.16, 0.002671123, 0.005732186, 0.0198012
AHR2, 751852026, -1.08, -2.54, 335.48, 74.55, -34.07287, 18.8399669
POS, 751852032, -34.0728654, 18.8399691, 75.88, -0.8103868
RATE, 751852036, -4.765584, 0.009498739, -0.01135539, 14.71889, -0.01347848, 0.03487225, 204.5326, -0.07247512, 0.6427271, -3840.586, -0.5592346, 0
MOTB, 751852041, 1, 1, 0, 1
RCIN, 751852044, 1493, 1493, 982, 2002, 1550, 1494, 982, 982, 982, 982, 982, 982, 1494, 1494
RCOU, 751852049, 982, 982, 982, 982, 0, 0, 0, 0, 0, 0, 0, 0, 0, 0
VIBE, 751852056, 0.01908438, 0.01978308, 0.0280685, 0, 0, 0
CTRL, 751852061, 0.01136755, 0.0001474301, 0.0346057, 0.0001122717, 0.6426327
IMU, 751852071, -0.004432244, 0.001813102, 0.0001330146, -0.1264951, 0.2093181, -9.777277, 0, 0, 0, 1, 1
IMU, 751891897, -0.0038631, 0.001864685, 0.001515661, -0.1313944, 0.214786, -9.769844, 0, 0, 0, 1, 1
IMU, 751931871, -0.004217971, 0.002257818, -0.0004861146, -0.1280881, 0.2038548, -9.77194, 0, 0, 0, 1, 1
CURR, 751949475, 11.82874, 0, 0.4753166
CUR2, 751949481, 11.74176, 0, 71.84689
MAG, 751949495, 77, 10, -243, -208, 24, -34, 0, 0, 0, 1, 751949487
MAG2, 751949495, 68, 73, -262, -121, 141, -76, 0, 0, 0, 1, 751949490
BARO, 751951877, -1.066477, 102034.4, 27.58, -0.1193092, 751951, 0
CTUN, 751951898, 0, 0, 0, 0.4812081, -0.8119365, -0.8119365, -1.06, 0.00, 0.00, 0, 0, 9
ATT, 751951957, 0.00, -0.92, 0.00, -2.52, 339.55, 339.06, 0.01, 0.11
NKF1, 751951962, -0.92, -2.52, 339.05, 0.08446757, 0.0367618, -0.09330932, 0, 3.973141, -1.685267, 0.8119365, -0.26, 0.11, 0.08
NKF2, 751951962, 2, 0.00, 0.00, 0.00, 0.00, 0.00, 74, 0, -237, 0, 0, 0, 0
NKF3, 751951962, 0.10, 0.16, 0.05, 0.50, 0.19, -0.53, 0, 0, 0, 9.57, 0.00
NKF4, 751951962, 0.04, 0.02, 0.03, 0.11, 0.00, 0.0002400047, 0, 0, 0, 16, 9087, 0, 0
NKF5, 751951962, 0, 0, 0, 0, 0.14, 0.98, 0.05, 0.09, 0.16, 0.002588373, 0.001802612, 0.01371715
AHR2, 751951991, -1.15, -2.49, 335.46, 74.81, -34.07287, 18.8399669
POS, 751951998, -34.0728655, 18.839969, 75.88, -0.8119365
RATE, 751952001, -4.74501, -0.02266865, -0.01084893, 14.73275, 0.02436432, 0.03460648, 204.5321, -0.1541604, 0.6428781, -3779.336, 0.006961823, 0
MOTB, 751952006, 1, 1, 0, 1
RCIN, 751952009, 1493, 1493, 982, 2002, 1550, 1494, 982, 982, 982, 982, 982, 982, 1494, 1494
RCOU, 751952015, 982, 982, 982, 982, 0, 0, 0, 0, 0, 0, 0, 0, 0, 0
VIBE, 751952021, 0.01868046, 0.01870642, 0.02921938, 0, 0, 0
CTRL, 751952025, 0.01132757, 0.0001411608, 0.03463884, 0.0001192442, 0.6426653
IMU, 751971872, -0.005501278, 0.001772475, 0.0005579544, -0.123862, 0.2077396, -9.767765, 0, 0, 0, 1, 1
GPS, 751989380, 3, 34197000, 1958, 12, 0.82, -34.0728698, 18.8399659, 75.98, 0.2236068, 296.5651, -0.78, 1
GPA, 751989380, 1.36, 2.73, 4.66, 0.81, 1, 751989
IMU, 752011878, -0.005325899, 0.001535969, -0.0002705737, -0.128877, 0.2264272, -9.76724, 0, 0, 0, 1, 1
CURR, 752049462, 11.80699, 0, 0.4753166
CUR2, 752049470, 11.80699, 0, 71.84689
MAG, 752049484, 74, 17, -242, -208, 24, -34, 0, 0, 0, 1, 752049476
MAG2, 752049484, 64, 75, -260, -121, 141, -76, 0, 0, 0, 1, 752049480
BARO, 752051881, -1.434796, 102038.6, 27.58, 0.3758295, 752051, 0
CTUN, 752051900, 0, 0, 0, 0.4812081, -0.8091803, -0.8091803, -1.43, 0.00, 0.00, 0, 0, 9
ATT, 752051962, 0.00, -0.93, 0.00, -2.52, 339.52, 339.02, 0.02, 0.12
NKF1, 752051968, -0.93, -2.52, 339.01, 0.08484786, 0.03275276, -0.09337243, 0, 3.966518, -1.695545, 0.8091803, -0.26, 0.11, 0.08
NKF2, 752051968, 2, 0.00, 0.00, 0.00, 0.00, 0.00, 74, 0, -237, 0, 0, 0, 0
NKF3, 752051968, -0.02, 0.23, 0.68, 0.47, 0.25, -0.52, 0, 0, 0, 6.11, 0.00
NKF4, 752051968, 0.15, 0.02, 0.03, 0.07, 0.00, 0.0002725042, 0, 0, 0, 16, 9087, 0, 0
NKF5, 752051968, 0, 0, 0, 0, 0.17, 0.98, 0.08, 0.09, 0.16, 0.002491962, 0.01567228, 0.03013504
AHR2, 752051995, -1.18, -2.50, 335.42, 74.43999, -34.0728698, 18.8399659
POS, 752052001, -34.0728655, 18.8399689, 75.89, -0.8091803
RATE, 752052004, -4.710281, -0.03059108, -0.01081449, 14.75974, -0.04278678, 0.03496112, 204.5308, -0.04298832, 0.6427506, -3781.284, -0.8167267, 0
MOTB, 752052009, 1, 1, 0, 1
RCIN, 752052013, 1493, 1492, 982, 2002, 1550, 1494, 982, 982, 982, 982, 982, 982, 1494, 1494
RCOU, 752052018, 982, 982, 982, 982, 0, 0, 0, 0, 0, 0, 0, 0, 0, 0
VIBE, 752052025, 0.01860536, 0.01922813, 0.03160249, 0, 0, 0
CTRL, 752052029, 0.01125549, 0.0001472181, 0.03467246, 0.0001383822, 0.642713
IMU, 752052038, -0.005143356, 0.001307326, 0.0006532306, -0.1216391, 0.2169152, -9.774486, 0, 0, 0, 1, 1
IMU, 752091897, -0.002967076, 0.001506477, 7.402597E-05, -0.1218526, 0.215289, -9.778841, 0, 0, 0, 1, 1
IMU, 752132110, -0.004754456, 0.001298734, 0.0007418091, -0.112609, 0.2095531, -9.788808, 0, 0, 0, 1, 1
CURR, 752149478, 11.80699, 0, 0.4753166
CUR2, 752149486, 11.80699, 0, 71.84689
MAG, 752149499, 75, 27, -239, -208, 24, -34, 0, 0, 0, 1, 752149492
MAG2, 752149499, 58, 84, -261, -121, 141, -76, 0, 0, 0, 1, 752149495
BARO, 752151876, -1.594218, 102040.5, 27.59, 0.3614656, 752151, 0
CTUN, 752151895, 0, 0, 0, 0.4812081, -0.8011239, -0.8011239, -1.59, 0.00, 0.00, 0, 0, 9
ATT, 752151957, 0.00, -0.93, 0.00, -2.53, 339.49, 338.99, 0.02, 0.15
NKF1, 752151963, -0.93, -2.53, 338.98, 0.08587114, 0.02701879, -0.09555825, 0, 3.960545, -1.709387, 0.8011239, -0.26, 0.11, 0.08
NKF2, 752151963, 2, 0.00, 0.00, 0.00, 0.00, 0.00, 74, 0, -237, 0, 0, 0, 0
NKF3, 752151963, -0.02, 0.23, 0.68, 0.47, 0.25, -0.26, 0, 0, 0, 7.81, 0.00
NKF4, 752151963, 0.15, 0.02, 0.01, 0.09, 0.00, 0.0002982588, 0, 0, 0, 16, 9087, 0, 0
NKF5, 752151963, 0, 0, 0, 0, 0.17, 0.98, 0.08, 0.09, 0.16, 0.002272875, 0.008825465, 0.01907764
AHR2, 752151987, -1.19, -2.56, 335.34, 74.28, -34.0728698, 18.8399659
POS, 752151993, -34.0728656, 18.8399687, 75.89, -0.8011239
RATE, 752151996, -4.701159, 0.01059357, -0.01122713, 14.78354, 0.000877746, 0.03481062, 204.5301, -0.05273697, 0.6427261, -3869.802, -1.61562, 0
MOTB, 752152002, 1, 1, 0, 1
RCIN, 752152005, 1493, 1493, 982, 2002, 1550, 1494, 982, 982, 982, 982, 982, 982, 1494, 1494
RCOU, 752152009, 982, 982, 982, 982, 0, 0, 0, 0, 0, 0, 0, 0, 0, 0
VIBE, 752152016, 0.01791169, 0.02113942, 0.03324374, 0, 0, 0
CTRL, 752152019, 0.01123126, 0.0001716653, 0.03473432, 0.0001272169, 0.6427248
IMU, 752171876, -0.004298188, 0.001636394, 0.000511415, -0.121508, 0.222615, -9.759621, 0, 0, 0, 1, 1
GPS, 752189397, 3, 34197200, 1958, 12, 0.82, -34.0728696, 18.8399655, 76.20, 0.2302173, 2.489553, -0.48, 1
GPA, 752189397, 1.36, 2.74, 4.68, 0.87, 1, 752189
IMU, 752211921, -0.00469524, 0.001137296, 0.0005513938, -0.1195735, 0.2115706, -9.783569, 0, 0, 0, 1, 1
CURR, 752249466, 11.78525, 0, 0.4753166
CUR2, 752249473, 11.80699, 0, 71.84689
MAG, 752249487, 75, 25, -243, -208, 24, -34, 0, 0, 0, 1, 752249480
MAG2, 752249487, 64, 87, -268, -121, 141, -76, 0, 0, 0, 1, 752249483
DU32, 752249503, 7, 17163736
TERR, 752250909, 2, -34.0728656, 18.8399686, 100, 81.59818, 0.02252197, 0, 336
BARO, 752251923, -1.286369, 102036.9, 27.59, -0.4160294, 752251, 0
CTUN, 752251939, 0, 0, 0, 0.4812081, -0.7920256, -0.7920256, -1.28, 0.00, 0.00, 0, 0, 9
ATT, 752252023, 0.00, -0.94, 0.00, -2.53, 339.46, 338.96, 0.05, 0.16
NKF1, 752252029, -0.94, -2.53, 338.95, 0.08859799, 0.02318708, -0.09751589, 0, 3.958283, -1.720937, 0.7920256, -0.26, 0.11, 0.08
NKF2, 752252029, 2, 0.00, 0.00, 0.00, 0.00, 0.00, 74, 0, -237, 0, 0, 0, 0
NKF3, 752252029, -0.14, 0.00, 0.37, 0.45, 0.28, -0.65, 0, 0, 0, 12.70, 0.00
NKF4, 752252029, 0.08, 0.02, 0.04, 0.14, 0.00, 0.000290023, 0, 0, 0, 16, 9087, 0, 0
NKF5, 752252029, 0, 0, 0, 0, 0.18, 0.98, 0.08, 0.09, 0.16, 0.002254374, 0.01288233, 0.02302322
AHR2, 752252055, -1.09, -2.60, 335.17, 74.59, -34.0728696, 18.8399655
POS, 752252061, -34.0728656, 18.8399686, 75.9, -0.7920256
RATE, 752252064, -4.674599, -0.06953233, -0.01082732, 14.83742, -0.02601856, 0.03520813, 204.5311, -0.05266585, 0.6427281, -3948.946, -1.92461, 0
MOTB, 752252069, 1, 1, 0, 1
RCIN, 752252072, 1493, 1492, 982, 2002, 1550, 1494, 982, 982, 982, 982, 982, 982, 1494, 1494
RCOU, 752252077, 982, 982, 982, 982, 0, 0, 0, 0, 0, 0, 0, 0, 0, 0
VIBE, 752252084, 0.0178831, 0.01854256, 0.03200245, 0, 0, 0
CTRL, 752252088, 0.01115637, 0.0001703829, 0.03480892, 0.0001310409, 0.6427352
IMU, 752252098, -0.005829155, 0.001602967, 0.0004883895, -0.122812, 0.2160699, -9.76334, 0, 0, 0, 1, 1
IMU, 752291887, -0.004370728, 0.002960884, 0.001025219, -0.1254112, 0.2213948, -9.788056, 0, 0, 0, 1, 1
IMU, 752331886, -0.004405639, 0.002850338, 0.0002140133, -0.1132365, 0.2239408, -9.785202, 0, 0, 0, 1, 1
CURR, 752349470, 11.80699, 0, 0.4753166
CUR2, 752349477, 11.74176, 0.92, 71.87245
MAG, 752349492, 77, 2, -246, -208, 24, -34, 0, 0, 0, 1, 752349484
MAG2, 752349492, 61, 69, -267, -121, 141, -76, 0, 0, 0, 1, 752349487
BARO, 752351881, -1.297364, 102037, 27.59, -0.7558791, 752351, 0
CTUN, 752351899, 0, 0, 0, 0.4812081, -0.7845182, -0.7845182, -1.29, 0.00, 0.00, 0, 0, 10
ATT, 752351957, 0.00, -0.95, 0.00, -2.53, 339.44, 338.94, 0.05, 0.14
NKF1, 752351963, -0.95, -2.53, 338.93, 0.09264527, 0.02031821, -0.1000679, 0, 3.958252, -1.731532, 0.7845182, -0.26, 0.11, 0.08
NKF2, 752351963, 2, 0.00, 0.00, 0.00, 0.00, 0.00, 74, 0, -237, 0, 0, 0, 0
NKF3, 752351963, -0.14, 0.00, 0.37, 0.45, 0.28, -0.81, 0, 0, 0, 19.85, 0.00
NKF4, 752351963, 0.08, 0.02, 0.05, 0.23, 0.00, 0.0002430989, 0, 0, 0, 16, 9087, 0, 0
NKF5, 752351963, 0, 0, 0, 0, 0.17, 0.97, 0.09, 0.09, 0.16, 0.002459281, 0.009873412, 0.01872355
AHR2, 752351989, -0.92, -2.62, 335.02, 74.58, -34.0728696, 18.8399655
POS, 752351995, -34.0728656, 18.8399685, 75.91, -0.7845182
RATE, 752351998, -4.655457, -0.01428056, -0.0107934, 14.85972, -0.02907273, 0.03535772, 204.5287, -0.07572729, 0.6427149, -4052.334, 0.1815796, 0
MOTB, 752352004, 1, 1, 0, 1
RCIN, 752352007, 1493, 1492, 982, 2002, 1550, 1494, 982, 982, 982, 982, 982, 982, 1494, 1494
RCOU, 752352012, 982, 982, 982, 982, 0, 0, 0, 0, 0, 0, 0, 0, 0, 0
VIBE, 752352018, 0.01921371, 0.01898946, 0.03051125, 0, 0, 0
CTRL, 752352022, 0.0111108, 0.000156489, 0.03485167, 0.0001428388, 0.6427159
IMU, 752371894, -0.004550843, 0.001969035, -0.0004524831, -0.1254453, 0.211067, -9.79151, 0, 0, 0, 1, 1
GPS, 752389394, 3, 34197400, 1958, 12, 0.82, -34.0728693, 18.839965, 76.33, 0.1676305, 287.354, -0.44, 1
GPA, 752389394, 1.36, 2.75, 4.70, 0.85, 1, 752389
IMU, 752411872, -0.005364646, 0.00143138, 0.0006740334, -0.12554, 0.2288069, -9.77755, 0, 0, 0, 1, 1
CURR, 752449472, 11.82874, 0, 0.4753166
CUR2, 752449479, 11.78525, 0, 71.87245
MAG, 752449494, 72, 19, -242, -208, 24, -34, 0, 0, 0, 1, 752449486
MAG2, 752449494, 60, 84, -266, -121, 141, -76, 0, 0, 0, 1, 752449489
BARO, 752451881, -1.379823, 102038, 27.59, -0.07387001, 752451, 0
CTUN, 752451901, 0, 0, 0, 0.4812081, -0.7794443, -0.7794443, -1.37, 0.00, 0.00, 0, 0, 10
ATT, 752451963, 0.00, -0.95, 0.00, -2.54, 339.40, 338.91, 0.06, 0.14
NKF1, 752451968, -0.95, -2.54, 338.90, 0.09544623, 0.0171155, -0.1014617, 0, 3.958126, -1.743261, 0.7794443, -0.26, 0.11, 0.08
NKF2, 752451968, 2, 0.00, 0.00, 0.00, 0.00, 0.00, 74, 0, -237, 0, 0, 0, 0
NKF3, 752451968, 0.04, 0.17, 0.33, 0.41, 0.30, -0.50, 0, 0, 0, 17.97, 0.00
NKF4, 752451968, 0.08, 0.02, 0.03, 0.20, 0.00, 0.000227389, 0, 0, 0, 16, 9087, 0, 0
NKF5, 752451968, 0, 0, 0, 0, 0.18, 0.97, 0.09, 0.09, 0.16, 0.002730048, 0.01018578, 0.01847744
AHR2, 752451997, -0.93, -2.59, 335.04, 74.5, -34.0728693, 18.839965
POS, 752452003, -34.0728656, 18.8399683, 75.92, -0.7794443
RATE, 752452006, -4.637961, -0.07900346, -0.01064873, 14.91345, -0.09780148, 0.03547899, 204.527, -0.0805787, 0.6427771, -4108.939, -1.103306, 0
MOTB, 752452011, 1, 1, 0, 1
RCIN, 752452014, 1493, 1493, 982, 2002, 1550, 1494, 982, 982, 982, 982, 982, 982, 1494, 1494
RCOU, 752452019, 982, 982, 982, 982, 0, 0, 0, 0, 0, 0, 0, 0, 0, 0
VIBE, 752452026, 0.01967455, 0.02106795, 0.03012813, 0, 0, 0
CTRL, 752452030, 0.01103532, 0.0001438932, 0.03494516, 0.0001566733, 0.6427317
IMU, 752452040, -0.006016857, 0.0003601291, 1.231519E-05, -0.1220809, 0.2142442, -9.77148, 0, 0, 0, 1, 1
IMU, 752491870, -0.004412593, 0.001548534, 0.0006088365, -0.1240374, 0.2229869, -9.769937, 0, 0, 0, 1, 1
IMU, 752531877, -0.005139011, 0.002704512, -0.0002599757, -0.1120749, 0.2098436, -9.777616, 0, 0, 0, 1, 1
CURR, 752549524, 11.80699, 0, 0.4753166
CUR2, 752549531, 11.82874, 0, 71.87245
MAG, 752549545, 75, 21, -241, -208, 24, -34, 0, 0, 0, 1, 752549537
MAG2, 752549545, 68, 83, -260, -121, 141, -76, 0, 0, 0, 1, 752549540
BARO, 752551875, -1.192915, 102035.8, 27.60, 0.4930393, 752551, 0
CTUN, 752551892, 0, 0, 0, 0.4812081, -0.773223, -0.773223, -1.19, 0.00, 0.00, 0, 0, 10
ATT, 752551950, 0.00, -0.96, 0.00, -2.54, 339.37, 338.87, 0.06, 0.15
NKF1, 752551955, -0.96, -2.54, 338.86, 0.09824073, 0.01245741, -0.1023923, 0, 3.957287, -1.757336, 0.773223, -0.26, 0.11, 0.08
NKF2, 752551955, 2, 0.00, 0.00, 0.00, 0.00, 0.00, 74, 0, -237, 0, 0, 0, 0
NKF3, 752551955, 0.04, 0.17, 0.33, 0.41, 0.30, -0.51, 0, 0, 0, 2.11, 0.00
NKF4, 752551955, 0.08, 0.02, 0.03, 0.02, 0.00, 0.0002444461, 0, 0, 0, 16, 9087, 0, 0
NKF5, 752551955, 0, 0, 0, 0, 0.18, 0.97, 0.09, 0.09, 0.15, 0.002392421, 0.005765195, 0.0123991
AHR2, 752551981, -1.06, -2.53, 334.94, 74.68, -34.0728693, 18.839965
POS, 752551986, -34.0728656, 18.8399682, 75.92, -0.773223
RATE, 752551989, -4.613035, -0.001365264, -0.01090463, 14.9448, -0.01732504, 0.03529546, 204.5282, -0.0004743046, 0.6426975, -4146.761, -1.117611, 0
MOTB, 752551994, 1, 1, 0, 1
RCIN, 752551997, 1493, 1493, 982, 2002, 1550, 1494, 982, 982, 982, 982, 982, 982, 1494, 1494
RCOU, 752552002, 982, 982, 982, 982, 0, 0, 0, 0, 0, 0, 0, 0, 0, 0
VIBE, 752552010, 0.01980993, 0.0189599, 0.03392092, 0, 0, 0
CTRL, 752552013, 0.01098031, 0.0001272526, 0.0350299, 0.0001552449, 0.6427363
IMU, 752571874, -0.004351154, 0.001917875, -0.0003234592, -0.117097, 0.2118586, -9.764326, 0, 0, 0, 1, 1
GPS, 752589380, 3, 34197600, 1958, 12, 0.82, -34.0728695, 18.8399645, 76.43, 0.2302173, 272.4896, -0.39, 1
GPA, 752589380, 1.36, 2.75, 4.72, 0.89, 1, 752589
IMU, 752611878, -0.004758446, 0.00271563, 0.001446348, -0.1216796, 0.2228869, -9.782907, 0, 0, 0, 1, 1
CURR, 752649453, 11.74176, 0, 0.4753166
CUR2, 752649461, 11.72002, 0, 71.87245
MAG, 752649475, 73, 19, -241, -208, 24, -34, 0, 0, 0, 1, 752649467
MAG2, 752649475, 57, 77, -255, -121, 141, -76, 0, 0, 0, 1, 752649470
BARO, 752651880, -1.319353, 102037.3, 27.60, 0.3916828, 752651, 0
CTUN, 752651898, 0, 0, 0, 0.4812081, -0.7678056, -0.7678056, -1.31, 0.00, 0.00, 0, 0, 10
ATT, 752651955, 0.00, -0.97, 0.00, -2.54, 339.34, 338.84, 0.06, 0.16
NKF1, 752651960, -0.97, -2.54, 338.83, 0.1001103, 0.007017782, -0.1042937, 0, 3.956019, -1.772815, 0.7678056, -0.26, 0.11, 0.08
NKF2, 752651960, 2, 0.00, 0.00, 0.00, 0.00, 0.00, 74, 0, -237, 0, 0, 0, 0
NKF3, 752651960, 0.08, 0.23, 0.28, 0.42, 0.31, -0.61, 0, 0, 0, 13.97, 0.00
NKF4, 752651960, 0.08, 0.02, 0.04, 0.16, 0.00, 0.0002649435, 0, 0, 0, 16, 9087, 0, 0
NKF5, 752651960, 0, 0, 0, 0, 0.18, 0.97, 0.09, 0.09, 0.15, 0.002558722, 0.01248345, 0.02485915
AHR2, 752651986, -1.14, -2.50, 334.83, 74.56, -34.0728695, 18.8399645
POS, 752651992, -34.0728656, 18.839968, 75.93, -0.7678056
RATE, 752651994, -4.5919, 0.03895209, -0.01097647, 14.95805, 0.01526364, 0.03543647, 204.5266, -0.06517918, 0.642662, -4223.318, 2.711391, 0
MOTB, 752652000, 1, 1, 0, 1
RCIN, 752652003, 1493, 1493, 982, 2002, 1550, 1494, 982, 982, 982, 982, 982, 982, 1494, 1494
RCOU, 752652008, 982, 982, 982, 982, 0, 0, 0, 0, 0, 0, 0, 0, 0, 0
VIBE, 752652015, 0.01825528, 0.01997182, 0.03071118, 0, 0, 0
CTRL, 752652018, 0.01095803, 0.0001638518, 0.03507151, 0.0001413611, 0.6427196
IMU, 752652027, -0.00393622, 0.002323977, 0.0002764564, -0.1156987, 0.2118477, -9.80987, 0, 0, 0, 1, 1
IMU, 752691869, -0.005122002, 0.003137978, 0.0004151326, -0.1136277, 0.2111134, -9.761082, 0, 0, 0, 1, 1
IMU, 752731866, -0.004525973, 0.002221022, -0.0001131838, -0.1313725, 0.2155858, -9.788524, 0, 0, 0, 1, 1
CURR, 752749460, 11.80699, 0, 0.4753166
CUR2, 752749467, 11.74176, 0, 71.87245
MAG, 752749480, 76, 6, -242, -208, 24, -34, 0, 0, 0, 1, 752749473
MAG2, 752749480, 71, 72, -263, -121, 141, -76, 0, 0, 0, 1, 752749476
BARO, 752751872, -1.115952, 102034.9, 27.60, 0.2714294, 752751, 0
CTUN, 752751888, 0, 0, 0, 0.4812081, -0.7630244, -0.7630244, -1.11, 0.00, 0.00, 0, 0, 10
ATT, 752752177, 0.00, -0.98, 0.00, -2.54, 339.31, 338.81, 0.06, 0.12
NKF1, 752752182, -0.98, -2.54, 338.80, 0.1009372, 1.672865E-05, -0.1054342, 0, 3.95271, -1.79134, 0.7630244, -0.26, 0.11, 0.08
NKF2, 752752182, 2, 0.00, 0.00, 0.00, 0.00, 0.00, 74, 0, -237, 0, 0, 0, 0
NKF3, 752752182, 0.08, 0.23, 0.28, 0.42, 0.31, -0.41, 0, 0, 0, 15.14, 0.00
NKF4, 752752182, 0.08, 0.02, 0.02, 0.17, 0.00, 0.0002940844, 0, 0, 0, 16, 9087, 0, 0
NKF5, 752752182, 0, 0, 0, 0, 0.18, 0.96, 0.08, 0.09, 0.15, 0.002586682, 0.004685504, 0.008198623
AHR2, 752752206, -1.19, -2.49, 334.73, 74.76, -34.0728695, 18.8399645
POS, 752752211, -34.0728656, 18.8399678, 75.93, -0.7630244
RATE, 752752214, -4.544861, 0.0147912, -0.01070448, 14.99032, -0.02209818, 0.03551401, 204.5236, -0.1318128, 0.6427988, -4269.827, -0.2613068, 0
MOTB, 752752219, 1, 1, 0, 1
RCIN, 752752222, 1493, 1493, 982, 2002, 1550, 1494, 982, 982, 982, 982, 982, 982, 1494, 1494
RCOU, 752752227, 982, 982, 982, 982, 0, 0, 0, 0, 0, 0, 0, 0, 0, 0
VIBE, 752752233, 0.02062962, 0.02330718, 0.03351864, 0, 0, 0
CTRL, 752752236, 0.01087457, 0.0001715054, 0.03512449, 0.0001432374, 0.6427091
IMU, 752771872, -0.004732491, 0.003085408, 0.0002961797, -0.1275185, 0.2174709, -9.781311, 0, 0, 0, 1, 1
GPS, 752789391, 3, 34197800, 1958, 12, 0.82, -34.0728696, 18.8399641, 76.60, 0.09055385, 263.6598, -0.4, 1
GPA, 752789391, 1.36, 2.75, 4.73, 0.81, 1, 752789
IMU, 752811892, -0.006389901, 0.001236546, 0.001247327, -0.1315046, 0.2257217, -9.769628, 0, 0, 0, 1, 1
RAD, 752844363, 187, 97, 68, 65, 76, 0, 0
CURR, 752849473, 11.72002, 0, 0.4753166
CUR2, 752849479, 11.74176, 0, 71.87245
MAG, 752849494, 76, 19, -241, -208, 24, -34, 0, 0, 0, 1, 752849486
MAG2, 752849494, 64, 81, -263, -121, 141, -76, 0, 0, 0, 1, 752849489
BARO, 752851881, -1.198412, 102035.9, 27.61, 0.3487352, 752851, 0
CTUN, 752851901, 0, 0, 0, 0.4812081, -0.7577339, -0.7577339, -1.19, 0.00, 0.00, 0, 0, 10
ATT, 752851962, 0.00, -0.99, 0.00, -2.54, 339.28, 338.78, 0.06, 0.13
NKF1, 752851967, -0.99, -2.54, 338.77, 0.1008733, -0.004961547, -0.1058414, 0, 3.949077, -1.808531, 0.7577339, -0.26, 0.11, 0.08
NKF2, 752851967, 2, 0.00, 0.00, 0.00, 0.00, 0.00, 74, 0, -237, 0, 0, 0, 0
NKF3, 752851967, 0.10, 0.08, 0.29, 0.42, 0.32, -0.55, 0, 0, 0, 14.26, 0.00
NKF4, 752851967, 0.06, 0.02, 0.03, 0.16, 0.00, 0.0003014766, 0, 0, 0, 16, 9087, 0, 0
NKF5, 752851967, 0, 0, 0, 0, 0.19, 0.96, 0.08, 0.09, 0.15, 0.002650194, 0.009993769, 0.02284928
AHR2, 752851995, -1.18, -2.45, 334.74, 74.68, -34.0728696, 18.8399641
POS, 752852002, -34.0728657, 18.8399676, 75.93999, -0.7577339
RATE, 752852005, -4.478166, -0.001402643, -0.01068193, 15.02576, 0.007646677, 0.03546307, 204.5254, -0.07299095, 0.6427131, -4286.399, -1.034355, 0
MOTB, 752852010, 1, 1, 0, 1
RCIN, 752852014, 1493, 1492, 982, 2002, 1550, 1494, 982, 982, 982, 982, 982, 982, 1494, 1494
RCOU, 752852018, 982, 982, 982, 982, 0, 0, 0, 0, 0, 0, 0, 0, 0, 0
VIBE, 752852026, 0.0196285, 0.02168187, 0.03289506, 0, 0, 0
CTRL, 752852029, 0.01075008, 0.0001822629, 0.03518445, 0.0001612963, 0.6427164
IMU, 752852038, -0.004671034, 0.002204226, 0.0001526901, -0.1255569, 0.2260974, -9.771795, 0, 0, 0, 1, 1
RAD, 752854370, 187, 97, 68, 65, 76, 0, 0
IMU, 752891864, -0.004524008, 0.001884091, -0.0005913322, -0.12013, 0.2161502, -9.785187, 0, 0, 0, 1, 1
IMU, 752931864, -0.00544375, 0.00177189, 0.0007055887, -0.1345727, 0.2151199, -9.783054, 0, 0, 0, 1, 1
CURR, 752949456, 11.74176, 0, 0.4753166
CUR2, 752949463, 11.74176, 0, 71.87245
MAG, 752949476, 75, 6, -242, -208, 24, -34, 0, 0, 0, 1, 752949469
MAG2, 752949476, 66, 71, -258, -121, 141, -76, 0, 0, 0, 1, 752949472
BARO, 752951865, -1.286369, 102036.9, 27.61, 0.350453, 752951, 0
CTUN, 752951882, 0, 0, 0, 0.4812081, -0.7517483, -0.7517483, -1.28, 0.00, 0.00, 0, 0, 10
ATT, 752951968, 0.00, -1.00, 0.00, -2.54, 339.25, 338.75, 0.06, 0.10
NKF1, 752951973, -1.00, -2.54, 338.74, 0.1001557, -0.01041034, -0.1070496, 0, 3.943782, -1.8261, 0.7517483, -0.26, 0.11, 0.08
NKF2, 752951973, 2, 0.00, 0.00, 0.00, 0.00, 0.00, 74, 0, -237, 0, 0, 0, 0
NKF3, 752951973, 0.10, 0.08, 0.29, 0.42, 0.32, -0.35, 0, 0, 0, 4.28, 0.00
NKF4, 752951973, 0.06, 0.02, 0.02, 0.04, 0.00, 0.0002828156, 0, 0, 0, 16, 9087, 0, 0
NKF5, 752951973, 0, 0, 0, 0, 0.19, 0.96, 0.08, 0.09, 0.15, 0.00233274, 0.002651421, 0.004504581
AHR2, 752951996, -1.11, -2.41, 334.64, 74.59, -34.0728696, 18.8399641
POS, 752952002, -34.0728657, 18.8399674, 75.93999, -0.7517483
RATE, 752952005, -4.441737, -0.04314641, -0.01025117, 15.05704, 0.02869884, 0.03528734, 204.5232, -0.03842155, 0.6426721, -4335.301, 0.6937027, 0
MOTB, 752952010, 1, 1, 0, 1
RCIN, 752952013, 1493, 1493, 982, 2002, 1550, 1494, 982, 982, 982, 982, 982, 982, 1494, 1494
RCOU, 752952018, 982, 982, 982, 982, 0, 0, 0, 0, 0, 0, 0, 0, 0, 0
VIBE, 752952024, 0.02029231, 0.01956734, 0.03007435, 0, 0, 0
CTRL, 752952028, 0.01067446, 0.0001688775, 0.03528699, 0.0001554101, 0.642725
IMU, 752971874, -0.004213817, 0.002258578, 0.0007805036, -0.1344652, 0.2238204, -9.770543, 0, 0, 0, 1, 1
GPS, 752989400, 3, 34198000, 1958, 12, 0.82, -34.0728697, 18.839964, 76.74, 0.1838478, 337.6199, -0.35, 1
GPA, 752989400, 1.36, 2.74, 4.73, 0.75, 1, 752989
IMU, 753011868, -0.003800986, 0.0027073, 0.0003061276, -0.1270968, 0.207989, -9.788186, 0, 0, 0, 1, 1
CURR, 753049469, 11.74176, 0, 0.4753166
CUR2, 753049476, 11.74176, 0, 71.87245
MAG, 753049490, 74, 7, -240, -208, 24, -34, 0, 0, 0, 1, 753049483
MAG2, 753049490, 60, 76, -261, -121, 141, -76, 0, 0, 0, 1, 753049486
BARO, 753051883, -1.330347, 102037.4, 27.62, 0.08761312, 753051, 0
CTUN, 753051901, 0, 0, 0, 0.4812081, -0.7454102, -0.7454102, -1.33, 0.00, 0.00, 0, 0, 10
ATT, 753051959, 0.00, -1.00, 0.00, -2.53, 339.22, 338.72, 0.06, 0.09
NKF1, 753051965, -1.00, -2.53, 338.71, 0.1000734, -0.01495665, -0.1085054, 0, 3.940885, -1.842346, 0.7454102, -0.26, 0.11, 0.08
NKF2, 753051965, 2, 0.00, 0.00, 0.00, 0.00, 0.00, 74, 0, -237, 0, 0, 0, 0
NKF3, 753051965, -0.07, 0.05, 0.24, 0.44, 0.30, -0.44, 0, 0, 0, 13.62, 0.00
NKF4, 753051965, 0.05, 0.02, 0.02, 0.15, 0.00, 0.0002580665, 0, 0, 0, 16, 9087, 0, 0
NKF5, 753051965, 0, 0, 0, 0, 0.20, 0.96, 0.09, 0.09, 0.15, 0.002368309, 0.005447221, 0.01395633
AHR2, 753051990, -1.05, -2.44, 334.64, 74.54, -34.0728697, 18.839964
POS, 753051995, -34.0728657, 18.8399673, 75.95, -0.7454102
RATE, 753051998, -4.40914, 0.008663268, -0.01055697, 15.06583, -0.05067419, 0.03583751, 204.5236, -0.08627349, 0.6427253, -4394.064, 2.158165, 0
MOTB, 753052003, 1, 1, 0, 1
RCIN, 753052006, 1493, 1493, 982, 2002, 1550, 1494, 982, 982, 982, 982, 982, 982, 1494, 1494
RCOU, 753052012, 982, 982, 982, 982, 0, 0, 0, 0, 0, 0, 0, 0, 0, 0
VIBE, 753052018, 0.01714577, 0.02049218, 0.02962835, 0, 0, 0
CTRL, 753052023, 0.01059658, 0.0001534782, 0.03532805, 0.0001621424, 0.6427148
IMU, 753052032, -0.004477353, 0.001178586, -8.265075E-05, -0.1315425, 0.2196778, -9.803816, 0, 0, 0, 1, 1
IMU, 753091883, -0.005840661, 0.001970526, 0.0009538392, -0.1121484, 0.2213504, -9.784517, 0, 0, 0, 1, 1
IMU, 753131928, -0.004787552, 0.002287581, 0.00124488, -0.1323271, 0.2103912, -9.787432, 0, 0, 0, 1, 1
CURR, 753149470, 11.74176, 0, 0.4753166
CUR2, 753149477, 11.72002, 0, 71.87245
MAG, 753149491, 75, 18, -238, -208, 24, -34, 0, 0, 0, 1, 753149483
MAG2, 753149491, 65, 81, -263, -121, 141, -76, 0, 0, 0, 1, 753149486
BARO, 753151875, -1.302861, 102037.1, 27.62, -0.314377, 753151, 0
CTUN, 753151893, 0, 0, 0, 0.4812081, -0.7386138, -0.7386138, -1.30, 0.00, 0.00, 0, 0, 10
ATT, 753151953, 0.00, -1.01, 0.00, -2.53, 339.19, 338.69, 0.06, 0.10
NKF1, 753151958, -1.01, -2.53, 338.68, 0.1019625, -0.01915776, -0.1099814, 0, 3.939762, -1.858699, 0.7386138, -0.26, 0.11, 0.08
NKF2, 753151958, 2, 0.00, 0.00, 0.00, 0.00, 0.00, 74, 0, -237, 0, 0, 0, 0
NKF3, 753151958, -0.07, 0.05, 0.24, 0.44, 0.30, -0.53, 0, 0, 0, 4.41, 0.00
NKF4, 753151958, 0.05, 0.02, 0.03, 0.05, 0.00, 0.0002186436, 0, 0, 0, 16, 9087, 0, 0
NKF5, 753151958, 0, 0, 0, 0, 0.20, 0.96, 0.09, 0.09, 0.15, 0.00203564, 0.004640419, 0.01113843
AHR2, 753151985, -0.99, -2.52, 334.63, 74.57, -34.0728697, 18.839964
POS, 753151991, -34.0728658, 18.8399671, 75.96, -0.7386138
RATE, 753151995, -4.36302, 0.02200735, -0.01047421, 15.08758, 0.04745558, 0.03522193, 204.5215, -0.07788409, 0.6426461, -4453.962, 0.1880646, 0
MOTB, 753151999, 1, 1, 0, 1
RCIN, 753152002, 1493, 1493, 982, 2002, 1550, 1494, 982, 982, 982, 982, 982, 982, 1494, 1494
RCOU, 753152007, 982, 982, 982, 982, 0, 0, 0, 0, 0, 0, 0, 0, 0, 0
VIBE, 753152013, 0.01761393, 0.02098879, 0.03109437, 0, 0, 0
CTRL, 753152017, 0.01049253, 0.000150238, 0.03539066, 0.0001655614, 0.6427138
IMU, 753171873, -0.004698778, 0.001987379, -0.0006287115, -0.114793, 0.2181207, -9.786561, 0, 0, 0, 1, 1
GPS, 753189420, 3, 34198200, 1958, 12, 0.82, -34.0728696, 18.8399639, 76.80, 0.07, 0, -0.4, 1
GPA, 753189420, 1.36, 2.74, 4.74, 0.78, 1, 753189
IMU, 753211879, -0.005142709, 0.001733435, -0.0003923176, -0.1232268, 0.2152374, -9.779697, 0, 0, 0, 1, 1
CURR, 753249461, 11.74176, 0, 0.4753166
CUR2, 753249468, 11.74176, 0, 71.87245
MAG, 753249482, 80, 1, -241, -208, 24, -34, 0, 0, 0, 1, 753249475
MAG2, 753249482, 66, 73, -259, -121, 141, -76, 0, 0, 0, 1, 753249478
DU32, 753249498, 7, 17163736
TERR, 753250905, 2, -34.0728658, 18.8399669, 100, 81.59621, 0.08448792, 0, 336
BARO, 753251925, -1.412807, 102038.4, 27.62, -0.4689886, 753251, 0
CTUN, 753251941, 0, 0, 0, 0.4812081, -0.7327038, -0.7327038, -1.41, 0.00, 0.00, 0, 0, 11
ATT, 753252023, 0.00, -1.02, 0.00, -2.53, 339.16, 338.66, 0.06, 0.09
NKF1, 753252028, -1.02, -2.53, 338.65, 0.1029489, -0.02256501, -0.110392, 0, 3.93839, -1.872626, 0.7327038, -0.26, 0.11, 0.08
NKF2, 753252028, 2, 0.00, 0.00, 0.00, 0.00, 0.00, 74, 0, -237, 0, 0, 0, 0
NKF3, 753252028, 0.02, -0.01, 0.29, 0.42, 0.30, -0.59, 0, 0, 0, 4.94, 0.00
NKF4, 753252028, 0.06, 0.02, 0.03, 0.05, 0.00, 0.0001887917, 0, 0, 0, 16, 9087, 0, 0
NKF5, 753252028, 0, 0, 0, 0, 0.20, 0.95, 0.12, 0.09, 0.15, 0.001746319, 0.006195646, 0.01076133
AHR2, 753252053, -0.96, -2.52, 334.54, 74.46, -34.0728696, 18.8399639
POS, 753252059, -34.0728658, 18.8399669, 75.96, -0.7327038
RATE, 753252062, -4.336211, -0.04843711, -0.009977674, 15.1117, 0.02534632, 0.03552354, 204.5216, 0.0145764, 0.642682, -4470.732, -1.532078, 0
MOTB, 753252067, 1, 1, 0, 1
RCIN, 753252070, 1493, 1493, 982, 2002, 1550, 1494, 982, 982, 982, 982, 982, 982, 1494, 1494
RCOU, 753252075, 982, 982, 982, 982, 0, 0, 0, 0, 0, 0, 0, 0, 0, 0
VIBE, 753252082, 0.01984888, 0.02079458, 0.03064284, 0, 0, 0
CTRL, 753252086, 0.01040997, 0.0001345203, 0.03546145, 0.0001570499, 0.6427314
IMU, 753252096, -0.005471845, 0.002504128, 0.001677819, -0.1237411, 0.209729, -9.767205, 0, 0, 0, 1, 1
IMU, 753291887, -0.004290398, 0.0014757, -0.0007996958, -0.116605, 0.2179219, -9.771881, 0, 0, 0, 1, 1
IMU, 753331871, -0.005055882, 0.002844245, 0.0006239369, -0.1294233, 0.2149146, -9.771517, 0, 0, 0, 1, 1
CURR, 753349475, 11.82874, 0, 0.4753166
CUR2, 753349482, 11.82874, 0, 71.87245
MAG, 753349497, 78, 19, -239, -208, 24, -34, 0, 0, 0, 1, 753349489
MAG2, 753349497, 61, 76, -254, -121, 141, -76, 0, 0, 0, 1, 753349492
BARO, 753351881, -1.159931, 102035.4, 27.63, -0.3075054, 753351, 0
CTUN, 753351900, 0, 0, 0, 0.4812081, -0.7263588, -0.7263588, -1.15, 0.00, 0.00, 0, 0, 11
ATT, 753351962, 0.00, -1.02, 0.00, -2.53, 339.14, 338.64, 0.06, 0.10
NKF1, 753351968, -1.02, -2.53, 338.63, 0.1040118, -0.02486878, -0.1112834, 0, 3.936376, -1.885393, 0.7263588, -0.26, 0.11, 0.08
NKF2, 753351968, 2, 0.00, 0.00, 0.00, 0.00, 0.00, 74, 0, -237, 0, 0, 0, 0
NKF3, 753351968, 0.02, -0.01, 0.29, 0.42, 0.30, -0.56, 0, 0, 0, 12.85, 0.00
NKF4, 753351968, 0.06, 0.02, 0.03, 0.14, 0.00, 0.0001611854, 0, 0, 0, 16, 9087, 0, 0
NKF5, 753351968, 0, 0, 0, 0, 0.20, 0.95, 0.12, 0.09, 0.15, 0.001760152, 0.007292439, 0.01603713
AHR2, 753351996, -0.94, -2.44, 334.57, 74.72, -34.0728696, 18.8399639
POS, 753352002, -34.0728658, 18.8399668, 75.97, -0.7263588
RATE, 753352006, -4.31234, -0.01294502, -0.01006734, 15.11862, 0.03642264, 0.03553978, 204.5195, 0.06565722, 0.6425939, -4506.805, 1.073742, 0
MOTB, 753352011, 1, 1, 0, 1
RCIN, 753352014, 1493, 1493, 982, 2002, 1550, 1494, 982, 982, 982, 982, 982, 982, 1494, 1494
RCOU, 753352020, 982, 982, 982, 982, 0, 0, 0, 0, 0, 0, 0, 0, 0, 0
VIBE, 753352026, 0.01996438, 0.02018995, 0.03364054, 0, 0, 0
CTRL, 753352031, 0.01034373, 0.0001254473, 0.03550809, 0.0001424449, 0.6427181
IMU, 753372115, -0.004958882, 0.001705992, 0.00073632, -0.1251263, 0.2128863, -9.766378, 0, 0, 0, 1, 1
GPS, 753389398, 3, 34198400, 1958, 12, 0.82, -34.0728696, 18.8399637, 76.81, 0.1252996, 241.3896, -0.38, 1
GPA, 753389398, 1.36, 2.73, 4.74, 0.76, 1, 753389
IMU, 753411879, -0.004837831, 0.001116688, 0.0004958903, -0.1245263, 0.2012843, -9.785868, 0, 0, 0, 1, 1
RAD, 753424346, 187, 96, 85, 64, 78, 0, 0
RAD, 753424358, 187, 96, 85, 64, 78, 0, 0
CURR, 753449468, 11.78525, 0, 0.4753166
CUR2, 753449474, 11.74176, 0, 71.87245
MAG, 753449488, 79, 19, -242, -208, 24, -34, 0, 0, 0, 1, 753449480
MAG2, 753449488, 64, 76, -261, -121, 141, -76, 0, 0, 0, 1, 753449483
BARO, 753451877, -1.269877, 102036.7, 27.63, 0.006871516, 753451, 0
CTUN, 753451895, 0, 0, 0, 0.4812081, -0.7208441, -0.7208441, -1.26, 0.00, 0.00, 0, 0, 11
ATT, 753451956, 0.00, -1.02, 0.00, -2.53, 339.12, 338.62, 0.07, 0.11
NKF1, 753451962, -1.02, -2.53, 338.61, 0.1034451, -0.0278629, -0.1115633, 0, 3.932208, -1.898701, 0.7208441, -0.26, 0.11, 0.08
NKF2, 753451962, 2, 0.00, 0.00, 0.00, 0.00, 0.00, 74, 0, -237, 0, 0, 0, 0
NKF3, 753451962, 0.16, 0.09, 0.26, 0.39, 0.28, -0.68, 0, 0, 0, 1.19, 0.00
NKF4, 753451962, 0.06, 0.02, 0.04, 0.01, 0.00, 0.0001722029, 0, 0, 0, 16, 9087, 0, 0
NKF5, 753451962, 0, 0, 0, 0, 0.21, 0.95, 0.12, 0.09, 0.15, 0.001492955, 0.0114804, 0.02285191
AHR2, 753451989, -0.99, -2.39, 334.47, 74.61, -34.0728696, 18.8399637
POS, 753451995, -34.0728658, 18.8399667, 75.97, -0.7208441
RATE, 753451999, -4.303931, 0.03153706, -0.01026534, 15.13976, 0.01769821, 0.03553825, 204.5175, -0.03187565, 0.6427007, -4518.164, -0.7073402, 0
MOTB, 753452004, 1, 1, 0, 1
RCIN, 753452007, 1493, 1493, 982, 2002, 1550, 1494, 982, 982, 982, 982, 982, 982, 1494, 1494
RCOU, 753452012, 982, 982, 982, 982, 0, 0, 0, 0, 0, 0, 0, 0, 0, 0
VIBE, 753452019, 0.01902045, 0.01942057, 0.03547893, 0, 0, 0
CTRL, 753452022, 0.01027741, 0.0001244242, 0.03557833, 0.0001452891, 0.642697
IMU, 753452031, -0.004077915, 0.002371002, 0.0008693455, -0.1130127, 0.2269515, -9.775249, 0, 0, 0, 1, 1
IMU, 753491868, -0.004687077, 0.001542976, 8.411104E-05, -0.1223912, 0.2063237, -9.774015, 0, 0, 0, 1, 1
IMU, 753531879, -0.004311204, 0.002721013, -0.000260347, -0.1303509, 0.2089368, -9.775237, 0, 0, 0, 1, 1
CURR, 753549484, 11.80699, 0, 0.4753166
CUR2, 753549490, 11.80699, 0, 71.87245
MAG, 753549504, 80, 24, -238, -208, 24, -34, 0, 0, 0, 1, 753549497
MAG2, 753549504, 67, 84, -262, -121, 141, -76, 0, 0, 0, 1, 753549500
BARO, 753551883, -1.154434, 102035.3, 27.63, 0.3401455, 753551, 0
CTUN, 753551902, 0, 0, 0, 0.4812081, -0.7151054, -0.7151054, -1.15, 0.00, 0.00, 0, 0, 11
ATT, 753551963, 0.00, -1.03, 0.00, -2.53, 339.10, 338.60, 0.07, 0.13
NKF1, 753551968, -1.03, -2.53, 338.59, 0.1008037, -0.03225009, -0.1122761, 0, 3.924578, -1.913962, 0.7151055, -0.26, 0.11, 0.08
NKF2, 753551968, 2, 0.00, 0.00, 0.00, 0.00, 0.00, 74, 0, -237, 0, 0, 0, 0
NKF3, 753551968, 0.16, 0.09, 0.26, 0.39, 0.28, -0.42, 0, 0, 0, 13.18, 0.00
NKF4, 753551968, 0.06, 0.02, 0.02, 0.15, 0.00, 0.000233087, 0, 0, 0, 16, 9087, 0, 0
NKF5, 753551968, 0, 0, 0, 0, 0.20, 0.95, 0.11, 0.09, 0.15, 0.00159681, 0.006370093, 0.01127258
AHR2, 753551994, -1.08, -2.35, 334.38, 74.72, -34.0728696, 18.8399637
POS, 753552000, -34.0728659, 18.8399665, 75.98, -0.7151055
RATE, 753552004, -4.279914, 0.01549602, -0.01009809, 15.14245, -0.001550133, 0.03577409, 204.52, -0.1046397, 0.6427404, -4547.062, -0.1246452, 0
MOTB, 753552009, 1, 1, 0, 1
RCIN, 753552012, 1493, 1493, 982, 2002, 1550, 1494, 982, 982, 982, 982, 982, 982, 1494, 1494
RCOU, 753552018, 982, 982, 982, 982, 0, 0, 0, 0, 0, 0, 0, 0, 0, 0
VIBE, 753552024, 0.02131608, 0.01929377, 0.03103725, 0, 0, 0
CTRL, 753552028, 0.01023284, 0.0001176774, 0.03561489, 0.0001440317, 0.6426815
IMU, 753571876, -0.004330213, 0.00126324, 0.0008555896, -0.125333, 0.2116939, -9.778829, 0, 0, 0, 1, 1
GPS, 753589444, 3, 34198600, 1958, 12, 0.82, -34.0728696, 18.8399634, 76.91, 0.08944272, 333.4349, -0.27, 1
GPA, 753589444, 1.36, 2.72, 4.73, 0.71, 1, 753589
IMU, 753611864, -0.003472474, 0.001250571, 0.0009473597, -0.1220083, 0.2215337, -9.757784, 0, 0, 0, 1, 1
CURR, 753649460, 11.80699, 0, 0.4753166
CUR2, 753649468, 11.78525, 0, 71.87245
MAG, 753649481, 79, 14, -242, -208, 24, -34, 0, 0, 0, 1, 753649473
MAG2, 753649481, 63, 80, -261, -121, 141, -76, 0, 0, 0, 1, 753649476
BARO, 753651874, -1.18192, 102035.7, 27.64, 0.4552454, 753651, 0
CTUN, 753651892, 0, 0, 0, 0.4812081, -0.7102255, -0.7102255, -1.18, 0.00, 0.00, 0, 0, 11
ATT, 753651947, 0.00, -1.03, 0.00, -2.53, 339.08, 338.58, 0.07, 0.12
NKF1, 753651951, -1.03, -2.53, 338.57, 0.0989792, -0.03536384, -0.112063, 0, 3.918345, -1.927839, 0.7102255, -0.26, 0.11, 0.08
NKF2, 753651951, 2, 0.00, 0.00, 0.00, 0.00, 0.00, 74, 0, -237, 0, 0, 0, 0
NKF3, 753651951, 0.00, 0.01, 0.15, 0.39, 0.29, -0.54, 0, 0, 0, 13.34, 0.00
NKF4, 753651951, 0.03, 0.02, 0.03, 0.15, 0.00, 0.0002435899, 0, 0, 0, 16, 9087, 0, 0
NKF5, 753651951, 0, 0, 0, 0, 0.21, 0.95, 0.11, 0.09, 0.15, 0.001759031, 0.006431272, 0.01341627
AHR2, 753651976, -1.07, -2.37, 334.26, 74.68999, -34.0728696, 18.8399634
POS, 753651982, -34.072866, 18.8399663, 75.98, -0.7102255
RATE, 753651986, -4.25179, -0.0625061, -0.009693577, 15.1546, 0.01582205, 0.03549176, 204.5207, 0.01125088, 0.6425387, -4538.516, 0.2795219, 0
MOTB, 753651991, 1, 1, 0, 1
RCIN, 753651994, 1493, 1493, 982, 2002, 1550, 1494, 982, 982, 982, 982, 982, 982, 1494, 1494
RCOU, 753651999, 982, 982, 982, 982, 0, 0, 0, 0, 0, 0, 0, 0, 0, 0
VIBE, 753652006, 0.01905563, 0.02308815, 0.0354793, 0, 0, 0
CTRL, 753652009, 0.01018489, 0.0001355558, 0.03566568, 0.0001329396, 0.6426753
IMU, 753652018, -0.005717122, 0.002337006, 0.00162419, -0.1311707, 0.22075, -9.784958, 0, 0, 0, 1, 1
IMU, 753691873, -0.004479965, 0.002518638, 0.0003534293, -0.1284244, 0.2103657, -9.762063, 0, 0, 0, 1, 1
IMU, 753731861, -0.004326012, 0.001030644, -5.965386E-05, -0.1150548, 0.2133012, -9.78007, 0, 0, 0, 1, 1
CURR, 753749503, 11.74176, 0, 0.4753166
CUR2, 753749510, 11.74176, 0, 71.87245
MAG, 753749524, 79, 6, -240, -208, 24, -34, 0, 0, 0, 1, 753749516
MAG2, 753749524, 65, 79, -260, -121, 141, -76, 0, 0, 0, 1, 753749519
BARO, 753751880, -1.379823, 102038, 27.64, 0.2731473, 753751, 0
CTUN, 753751897, 0, 0, 0, 0.4812081, -0.705315, -0.705315, -1.37, 0.00, 0.00, 0, 0, 11
ATT, 753751957, 0.00, -1.04, 0.00, -2.53, 339.06, 338.56, 0.07, 0.10
NKF1, 753751962, -1.04, -2.53, 338.55, 0.09803297, -0.03873418, -0.1119272, 0, 3.912979, -1.941602, 0.7053151, -0.26, 0.11, 0.08
NKF2, 753751962, 2, 0.00, 0.00, 0.00, 0.00, 0.00, 74, 0, -237, 0, 0, 0, 0
NKF3, 753751962, 0.00, 0.01, 0.15, 0.39, 0.29, -0.43, 0, 0, 0, 16.20, 0.00
NKF4, 753751962, 0.03, 0.02, 0.02, 0.18, 0.00, 0.0001944327, 0, 0, 0, 16, 9087, 0, 0
NKF5, 753751962, 0, 0, 0, 0, 0.21, 0.94, 0.12, 0.09, 0.15, 0.002016841, 0.006056385, 0.01398917
AHR2, 753751989, -1.00, -2.42, 334.20, 74.5, -34.0728696, 18.8399634
POS, 753751994, -34.072866, 18.8399662, 75.99, -0.7053151
RATE, 753751997, -4.216837, -0.04260565, -0.009670786, 15.15914, 0.01980014, 0.0354978, 204.5211, -0.1110536, 0.642764, -4533.094, -1.164436, 0
MOTB, 753752002, 1, 1, 0, 1
RCIN, 753752005, 1493, 1493, 982, 2002, 1550, 1494, 982, 982, 982, 982, 982, 982, 1494, 1494
RCOU, 753752009, 982, 982, 982, 982, 0, 0, 0, 0, 0, 0, 0, 0, 0, 0
VIBE, 753752016, 0.01994592, 0.02020192, 0.03453942, 0, 0, 0
CTRL, 753752020, 0.01010273, 0.0001363201, 0.03567433, 0.0001338351, 0.6426718
EV, 753754035, 57
IMU, 753771892, -0.00551261, 0.001611223, -0.0006003034, -0.1167314, 0.2051609, -9.787279, 0, 0, 0, 1, 1
GPS, 753789397, 3, 34198800, 1958, 12, 0.82, -34.0728694, 18.8399632, 76.94, 0.1044031, 343.3008, -0.24, 1
GPA, 753789397, 1.36, 2.71, 4.73, 0.69, 1, 753789
IMU, 753811868, -0.00439016, 0.002023742, 0.0007002733, -0.1292377, 0.2173909, -9.784186, 0, 0, 0, 1, 1
CURR, 753849457, 11.80699, 0, 0.4753166
CUR2, 753849464, 11.74176, 0, 71.87245
MAG, 753849478, 73, 19, -241, -208, 24, -34, 0, 0, 0, 1, 753849471
MAG2, 753849478, 63, 81, -263, -121, 141, -76, 0, 0, 0, 1, 753849473
BARO, 753851873, -1.473277, 102039.1, 27.65, -0.1563296, 753851, 0
CTUN, 753851892, 0, 0, 0, 0.4812081, -0.7009539, -0.7009539, -1.47, 0.00, 0.00, 0, 0, 11
ATT, 753851950, 0.00, -1.04, 0.00, -2.52, 339.03, 338.53, 0.06, 0.11
NKF1, 753851955, -1.04, -2.52, 338.52, 0.09760672, -0.04150973, -0.1125146, 0, 3.909205, -1.954191, 0.7009539, -0.26, 0.11, 0.08
NKF2, 753851955, 2, 0.00, 0.00, 0.00, 0.00, 0.00, 74, 0, -237, 0, 0, 0, 0
NKF3, 753851955, 0.00, 0.00, 0.12, 0.37, 0.29, -0.46, 0, 0, 0, 9.86, 0.00
NKF4, 753851955, 0.02, 0.02, 0.03, 0.11, 0.00, 0.0001554177, 0, 0, 0, 16, 9087, 0, 0
NKF5, 753851955, 0, 0, 0, 0, 0.22, 0.94, 0.12, 0.09, 0.15, 0.00208629, 0.005747098, 0.009384517
AHR2, 753851982, -0.96, -2.45, 334.20, 74.4, -34.0728694, 18.8399632
POS, 753851988, -34.072866, 18.8399661, 75.99, -0.7009539
RATE, 753851992, -4.180346, 0.04035236, -0.01020581, 15.15217, 0.05665181, 0.03561498, 204.5175, -0.03355483, 0.6426322, -4556.745, -0.1059532, 0
MOTB, 753851997, 1, 1, 0, 1
RCIN, 753852001, 1493, 1493, 982, 2002, 1550, 1494, 982, 982, 982, 982, 982, 982, 1494, 1494
RCOU, 753852005, 1011, 1011, 1011, 1011, 0, 0, 0, 0, 0, 0, 0, 0, 0, 0
VIBE, 753852013, 0.01864283, 0.01802322, 0.03345856, 0, 0, 0
CTRL, 753852017, 0.01002578, 0.0001318303, 0.03567225, 0.0001392263, 0.6426426
IMU, 753852027, -0.003933745, 0.003054636, 0.0008485698, -0.1180315, 0.2103177, -9.781457, 0, 0, 0, 1, 1
IMU, 753891866, -0.004891256, 0.002596835, 0.001058089, -0.1109191, 0.2044773, -9.792109, 0, 0, 0, 1, 1
IMU, 753931867, -0.003848758, 0.002934562, -0.0001895576, -0.1190888, 0.2135799, -9.797399, 0, 0, 0, 1, 1
CURR, 753949474, 11.74176, 0, 0.4753166
CUR2, 753949480, 11.74176, 0, 71.87245
MAG, 753949495, 79, 2, -240, -208, 24, -34, 0, 0, 0, 1, 753949487
MAG2, 753949495, 66, 73, -259, -121, 141, -76, 0, 0, 0, 1, 753949490
BARO, 753951878, -1.253385, 102036.5, 27.65, -0.6356255, 753951, 0
CTUN, 753951895, 0, 0, 0, 0.4812081, -0.6965005, -0.6965005, -1.25, 0.00, 0.00, 0, 0, 11
ATT, 753951955, 0.00, -1.05, 0.00, -2.52, 339.00, 338.50, 0.06, 0.10
NKF1, 753951960, -1.05, -2.52, 338.49, 0.09820081, -0.04410641, -0.1129627, 0, 3.906613, -1.966744, 0.6965005, -0.26, 0.11, 0.08
NKF2, 753951960, 2, 0.00, 0.00, 0.00, 0.00, 0.00, 74, 0, -237, 0, 0, 0, 0
NKF3, 753951960, 0.00, 0.00, 0.12, 0.37, 0.29, -0.66, 0, 0, 0, 4.13, 0.00
NKF4, 753951960, 0.02, 0.02, 0.04, 0.04, 0.00, 0.0001209729, 0, 0, 0, 16, 9087, 0, 0
NKF5, 753951960, 0, 0, 0, 0, 0.20, 0.93, 0.11, 0.09, 0.15, 0.001923837, 0.008172902, 0.02060704
AHR2, 753951988, -0.95, -2.45, 334.09, 74.62, -34.0728694, 18.8399632
POS, 753951993, -34.0728661, 18.8399659, 76, -0.6965005
RATE, 753951997, -4.150311, -0.05634177, -0.009185099, 15.15187, 0.0303647, 0.03561464, 204.5174, -0.04656579, 0.6427108, -4574.9, 0.4504204, 0
MOTB, 753952001, 1, 1, 0, 1
RCIN, 753952005, 1493, 1492, 982, 2002, 1550, 1494, 982, 982, 982, 982, 982, 982, 1494, 1494
RCOU, 753952010, 1041, 1041, 1041, 1041, 0, 0, 0, 0, 0, 0, 0, 0, 0, 0
VIBE, 753952016, 0.02051153, 0.01827969, 0.03386712, 0, 0, 0
CTRL, 753952019, 0.009961482, 0.0001403725, 0.03566877, 0.000136203, 0.6426551
IMU, 753971877, -0.005151247, 0.001983164, 0.000494164, -0.1211226, 0.2084956, -9.776712, 0, 0, 0, 1, 1
GPS, 753989385, 3, 34199000, 1958, 12, 0.82, -34.0728698, 18.8399631, 76.88, 0.286531, 209.2488, -0.25, 1
GPA, 753989385, 1.36, 2.70, 4.72, 0.85, 1, 753989
IMU, 754011876, -0.00363819, 0.001095407, 0.0008527276, -0.1269305, 0.2125091, -9.76682, 0, 0, 0, 1, 1
CURR, 754049471, 11.80699, 0, 0.4753166
CUR2, 754049478, 11.74176, 1.84, 71.92357
MAG, 754049492, 78, 12, -244, -208, 24, -34, 0, 0, 0, 1, 754049485
MAG2, 754049492, 67, 76, -258, -121, 141, -76, 0, 0, 0, 1, 754049488
BARO, 754051880, -1.165428, 102035.5, 27.65, -0.5462945, 754051, 0
CTUN, 754051899, 0, 0, 0, 0.4812081, -0.6950147, -0.6950147, -1.16, 0.00, 0.00, 0, 0, 11
ATT, 754051957, 0.00, -1.05, 0.00, -2.52, 338.97, 338.48, 0.08, 0.09
NKF1, 754051962, -1.05, -2.52, 338.47, 0.0957922, -0.04689618, -0.1120169, 0, 3.899383, -1.979961, 0.6950147, -0.26, 0.11, 0.08
NKF2, 754051962, 2, 0.00, 0.00, 0.00, 0.00, 0.00, 74, 0, -237, 0, 0, 0, 0
NKF3, 754051962, 0.34, 0.10, 0.13, 0.37, 0.26, -0.75, 0, 0, 0, 13.58, 0.00
NKF4, 754051962, 0.08, 0.02, 0.04, 0.15, 0.00, 0.0001482973, 0, 0, 0, 16, 9087, 0, 0
NKF5, 754051962, 0, 0, 0, 0, 0.20, 0.93, 0.11, 0.09, 0.15, 0.002138561, 0.01773391, 0.03659751
AHR2, 754051988, -1.03, -2.36, 334.12, 74.71, -34.0728698, 18.8399631
POS, 754051994, -34.0728661, 18.8399658, 76, -0.6950147
RATE, 754051997, -4.140986, 0.03349068, -0.00988839, 15.15105, 0.01502872, 0.03559696, 204.5174, -0.1031412, 0.6427137, -4536.801, 0.5377769, 0
MOTB, 754052002, 1, 1, 0, 1
RCIN, 754052005, 1493, 1493, 982, 2002, 1550, 1494, 982, 982, 982, 982, 982, 982, 1494, 1494
RCOU, 754052010, 1072, 1072, 1072, 1072, 0, 0, 0, 0, 0, 0, 0, 0, 0, 0
VIBE, 754052017, 0.01844984, 0.02027006, 0.03059725, 0, 0, 0
CTRL, 754052021, 0.009908966, 0.0001392484, 0.03569068, 0.000130893, 0.6426647
IMU, 754052030, -0.004043516, 0.002322724, -0.00036696, -0.1140774, 0.2121887, -9.787979, 0, 0, 0, 1, 1
IMU, 754091863, -0.004036968, 0.002099114, 0.0007969636, -0.1135571, 0.2098632, -9.768342, 0, 0, 0, 1, 1
IMU, 754131867, -0.004603206, 0.001965696, 0.0006112849, -0.1273497, 0.2149673, -9.805729, 0, 0, 0, 1, 1
CURR, 754149466, 11.78525, 0, 0.4753166
CUR2, 754149473, 11.80699, 0.92, 71.94913
MAG, 754149487, 75, 20, -241, -208, 24, -34, 0, 0, 0, 1, 754149480
MAG2, 754149487, 70, 77, -260, -121, 141, -76, 0, 0, 0, 1, 754149483
BARO, 754151874, -1.275374, 102036.8, 27.65, 0.1803803, 754151, 0
CTUN, 754151892, 0, 0, 0, 0.4812081, -0.6950006, -0.6950006, -1.27, 0.00, 0.00, 0, 0, 11
ATT, 754151948, 0.00, -1.05, 0.00, -2.51, 338.95, 338.45, 0.08, 0.11
NKF1, 754151953, -1.05, -2.51, 338.44, 0.09059127, -0.05042869, -0.1117828, 0, 3.886501, -1.995065, 0.6950006, -0.26, 0.11, 0.08
NKF2, 754151953, 2, 0.00, 0.00, 0.00, 0.00, 0.00, 74, 0, -237, 0, 0, 0, 0
NKF3, 754151953, 0.34, 0.10, 0.13, 0.37, 0.26, -0.52, 0, 0, 0, 1.17, 0.00
NKF4, 754151953, 0.08, 0.02, 0.03, 0.01, 0.00, 0.0002606062, 0, 0, 0, 16, 9087, 0, 0
NKF5, 754151953, 0, 0, 0, 0, 0.20, 0.93, 0.11, 0.09, 0.15, 0.001795541, 0.01111836, 0.02409938
AHR2, 754151978, -1.17, -2.20, 334.08, 74.6, -34.0728698, 18.8399631
POS, 754151983, -34.0728662, 18.8399656, 76, -0.6950006
RATE, 754151986, -4.103564, 0.03200963, -0.009906086, 15.14128, 0.005502237, 0.03557669, 204.5177, -0.0645366, 0.6426778, -4527.161, 0.9794235, 0
MOTB, 754151991, 1, 1, 0, 1
RCIN, 754151994, 1493, 1492, 982, 2002, 1550, 1494, 982, 982, 982, 982, 982, 982, 1494, 1494
RCOU, 754151999, 1084, 1084, 1084, 1084, 0, 0, 0, 0, 0, 0, 0, 0, 0, 0
VIBE, 754152006, 0.01903221, 0.02257955, 0.03229373, 0, 0, 0
CTRL, 754152010, 0.009851932, 0.0001309073, 0.03568981, 0.0001153185, 0.6426741
IMU, 754171871, -0.003928557, 0.002486556, 0.0001735235, -0.1232687, 0.2168418, -9.76851, 0, 0, 0, 1, 1
GPS, 754189386, 3, 34199200, 1958, 12, 0.82, -34.0728703, 18.8399628, 76.89, 0.1941649, 214.5085, -0.21, 1
GPA, 754189386, 1.36, 2.70, 4.72, 0.83, 1, 754189
IMU, 754211872, -0.004644928, 0.001706207, 0.00110896, -0.1134409, 0.2111965, -9.759974, 0, 0, 0, 1, 1
CURR, 754249485, 11.82874, 0, 0.4753166
CUR2, 754249494, 11.74176, 0, 71.94913
MAG, 754249508, 73, 27, -245, -208, 24, -34, 0, 0, 0, 1, 754249501
MAG2, 754249508, 59, 79, -264, -121, 141, -76, 0, 0, 0, 1, 754249504
DU32, 754249525, 7, 386520
TERR, 754250940, 2, -34.0728664, 18.8399655, 100, 81.59115, 0.1295547, 0, 336
BARO, 754251926, -1.022498, 102033.8, 27.66, 0.6613942, 754251, 0
CTUN, 754251942, 0, 0, 0, 0.4812081, -0.6953744, -0.6953744, -1.02, 0.00, 0.00, 0, 0, 11
ATT, 754252026, 0.00, -1.06, 0.00, -2.51, 338.93, 338.43, 0.07, 0.13
NKF1, 754252031, -1.06, -2.51, 338.42, 0.08502585, -0.05423713, -0.1100124, 0, 3.872316, -2.009976, 0.6953745, -0.26, 0.11, 0.08
NKF2, 754252031, 2, 0.00, 0.00, 0.00, 0.00, 0.00, 74, 0, -237, 0, 0, 0, 0
NKF3, 754252031, 0.23, 0.06, 0.10, 0.40, 0.26, -0.44, 0, 0, 0, 8.30, 0.00
NKF4, 754252031, 0.05, 0.02, 0.02, 0.09, 0.00, 0.0003271967, 0, 0, 0, 16, 9087, 0, 0
NKF5, 754252031, 0, 0, 0, 0, 0.20, 0.93, 0.10, 0.09, 0.15, 0.001860405, 0.02132626, 0.04443866
AHR2, 754252058, -1.21, -2.16, 333.98, 74.85, -34.0728703, 18.8399628
POS, 754252065, -34.0728664, 18.8399655, 76, -0.6953745
RATE, 754252068, -4.057716, 0.04764929, -0.00987141, 15.13089, -0.01754869, 0.03581685, 204.5179, -0.100603, 0.6427194, -4455.683, 0.8337975, 0
MOTB, 754252074, 1, 1, 0, 1
RCIN, 754252076, 1493, 1492, 982, 2002, 1550, 1494, 982, 982, 982, 982, 982, 982, 1494, 1494
RCOU, 754252082, 1084, 1084, 1084, 1084, 0, 0, 0, 0, 0, 0, 0, 0, 0, 0
VIBE, 754252089, 0.02252685, 0.02115707, 0.04096415, 0, 0, 0
CTRL, 754252093, 0.009774577, 0.0001399652, 0.03567244, 0.0001333495, 0.6426746
IMU, 754252103, -0.003813055, 0.001760801, -0.0003163419, -0.1077599, 0.2103092, -9.791001, 0, 0, 0, 1, 1
IMU, 754291883, -0.004548958, 0.001835529, -0.000314135, -0.1182394, 0.2254438, -9.776947, 0, 0, 0, 1, 1
IMU, 754331864, -0.003685556, 0.002648766, 0.0004378087, -0.1261511, 0.2034521, -9.790956, 0, 0, 0, 1, 1
CURR, 754349474, 11.80699, 0, 0.4753166
CUR2, 754349482, 11.74176, 0, 71.94913
MAG, 754349497, 74, 20, -243, -208, 24, -34, 0, 0, 0, 1, 754349489
MAG2, 754349497, 63, 82, -261, -121, 141, -76, 0, 0, 0, 1, 754349492
BARO, 754351871, -1.379823, 102038, 27.66, 0.5291154, 754351, 0
CTUN, 754351892, 0, 0, 0, 0.4812081, -0.6949332, -0.6949332, -1.37, 0.00, 0.00, 0, 0, 10
ATT, 754351951, 0.00, -1.06, 0.00, -2.50, 338.90, 338.41, 0.07, 0.14
NKF1, 754351956, -1.06, -2.50, 338.40, 0.07860589, -0.05780098, -0.1091206, 0, 3.855199, -2.02621, 0.6949332, -0.26, 0.11, 0.08
NKF2, 754351956, 2, 0.00, 0.00, 0.00, 0.00, 0.00, 74, 0, -237, 0, 0, 0, 0
NKF3, 754351956, 0.23, 0.06, 0.10, 0.40, 0.26, -0.55, 0, 0, 0, 13.98, 0.00
NKF4, 754351956, 0.05, 0.02, 0.03, 0.16, 0.00, 0.0003475714, 0, 0, 0, 16, 9087, 0, 0
NKF5, 754351956, 0, 0, 0, 0, 0.19, 0.93, 0.10, 0.09, 0.15, 0.001917793, 0.01301404, 0.02741639
AHR2, 754351983, -1.16, -2.20, 333.83, 74.5, -34.0728703, 18.8399628
POS, 754351989, -34.0728665, 18.8399653, 76, -0.6949332
RATE, 754351993, -4.007844, 0.07725813, -0.009737305, 15.10442, 0.01245852, 0.03575059, 204.5185, -0.02955291, 0.6427235, -4419.548, 0.2783775, 0
MOTB, 754351998, 1, 1, 0, 1
RCIN, 754352001, 1493, 1492, 982, 2002, 1550, 1494, 982, 982, 982, 982, 982, 982, 1494, 1494
RCOU, 754352006, 1084, 1084, 1084, 1084, 0, 0, 0, 0, 0, 0, 0, 0, 0, 0
VIBE, 754352014, 0.02038389, 0.01977829, 0.03679014, 0, 0, 0
CTRL, 754352018, 0.009707635, 0.0001231856, 0.03565044, 0.0001281807, 0.642709
GPS, 754369403, 3, 34199400, 1958, 12, 0.82, -34.0728704, 18.8399626, 77.00, 0.0781025, 39.80557, -0.24, 1
GPA, 754369403, 1.36, 2.69, 4.71, 0.69, 1, 754369
IMU, 754371895, -0.004743852, 0.002859572, 0.001039197, -0.1184315, 0.2244057, -9.788831, 0, 0, 0, 1, 1
IMU, 754411876, -0.004259693, 0.002848313, 0.0004714462, -0.1181215, 0.2129392, -9.770655, 0, 0, 0, 1, 1
CURR, 754449466, 11.78525, 0, 0.4753166
CUR2, 754449474, 11.74176, 0.92, 71.97469
MAG, 754449489, 75, 15, -240, -208, 24, -34, 0, 0, 0, 1, 754449481
MAG2, 754449489, 71, 61, -263, -121, 141, -76, 0, 0, 0, 1, 754449484
BARO, 754451884, -1.297364, 102037, 27.67, 0.1202535, 754451, 0
CTUN, 754451903, 0, 0, 0, 0.4812081, -0.6942169, -0.6942169, -1.29, 0.00, 0.00, 0, 0, 10
ATT, 754451966, 0.00, -1.07, 0.00, -2.49, 338.88, 338.38, 0.09, 0.13
NKF1, 754451971, -1.07, -2.49, 338.37, 0.07326281, -0.05996167, -0.10813, 0, 3.839726, -2.039673, 0.6942169, -0.26, 0.11, 0.08
NKF2, 754451971, 2, 0.00, 0.00, 0.00, 0.00, 0.00, 74, 0, -237, 0, 0, 0, 0
NKF3, 754451971, 0.00, -0.10, 0.13, 0.40, 0.27, -0.30, 0, 0, 0, 18.98, 0.00
NKF4, 754451971, 0.03, 0.02, 0.02, 0.22, 0.00, 0.0003147848, 0, 0, 0, 16, 9087, 0, 0
NKF5, 754451971, 0, 0, 0, 0, 0.20, 0.92, 0.11, 0.09, 0.15, 0.002155343, 0.01300332, 0.02739691
AHR2, 754451997, -1.03, -2.27, 333.72, 74.58, -34.0728704, 18.8399626
POS, 754452004, -34.0728667, 18.8399651, 76, -0.6942169
RATE, 754452007, -3.952909, -0.005735064, -0.00909074, 15.08265, -0.02919119, 0.03562983, 204.519, -0.09360051, 0.642766, -4379.302, 1.723099, 0
MOTB, 754452012, 1, 1, 0, 1
RCIN, 754452015, 1493, 1493, 982, 2002, 1550, 1494, 982, 982, 982, 982, 982, 982, 1494, 1494
RCOU, 754452020, 1084, 1084, 1084, 1084, 0, 0, 0, 0, 0, 0, 0, 0, 0, 0
VIBE, 754452027, 0.02089146, 0.02062773, 0.03443013, 0, 0, 0
CTRL, 754452031, 0.009608882, 0.0001285333, 0.03560812, 0.0001377333, 0.642704
IMU, 754452040, -0.004684874, 0.001530175, -0.0002094792, -0.1311438, 0.2062271, -9.799892, 0, 0, 0, 1, 1
IMU, 754491864, -0.003741983, 0.002343173, 0.000355354, -0.1170289, 0.2171587, -9.769685, 0, 0, 0, 1, 1
IMU, 754531877, -0.00466655, 0.001962583, -7.123307E-05, -0.117998, 0.2217788, -9.768782, 0, 0, 0, 1, 1
CURR, 754549467, 11.78525, 0, 0.4753166
CUR2, 754549475, 11.80699, 0, 71.97469
MAG, 754549489, 76, 11, -243, -208, 24, -34, 0, 0, 0, 1, 754549481
MAG2, 754549489, 61, 69, -261, -121, 141, -76, 0, 0, 0, 1, 754549485
BARO, 754551878, -1.192915, 102035.8, 27.67, -0.3092233, 754551, 0
CTUN, 754551898, 0, 0, 0, 0.4812081, -0.6931641, -0.6931641, -1.19, 0.00, 0.00, 0, 0, 10
ATT, 754551959, 0.00, -1.07, 0.00, -2.48, 338.85, 338.35, 0.09, 0.12
NKF1, 754551964, -1.07, -2.48, 338.34, 0.06936926, -0.0605855, -0.1062915, 0, 3.827571, -2.05047, 0.6931641, -0.26, 0.11, 0.08
NKF2, 754551964, 2, 0.00, 0.00, 0.00, 0.00, 0.00, 74, 0, -237, 0, 0, 0, 0
NKF3, 754551964, 0.00, -0.10, 0.13, 0.40, 0.27, -0.66, 0, 0, 0, 13.95, 0.00
NKF4, 754551964, 0.03, 0.02, 0.04, 0.16, 0.00, 0.0002575617, 0, 0, 0, 16, 9087, 0, 0
NKF5, 754551964, 0, 0, 0, 0, 0.19, 0.92, 0.11, 0.09, 0.15, 0.002290674, 0.01109237, 0.02660173
AHR2, 754551989, -0.88, -2.35, 333.65, 74.68, -34.0728704, 18.8399626
POS, 754551995, -34.0728668, 18.839965, 76, -0.6931641
RATE, 754551999, -3.914103, -0.006435559, -0.009095845, 15.06792, 0.001475307, 0.03540692, 204.5193, -0.07803807, 0.6427485, -4305.113, -0.3868103, 0
MOTB, 754552004, 1, 1, 0, 1
RCIN, 754552007, 1493, 1493, 982, 2002, 1550, 1494, 982, 982, 982, 982, 982, 982, 1494, 1494
RCOU, 754552011, 1084, 1084, 1084, 1084, 0, 0, 0, 0, 0, 0, 0, 0, 0, 0
VIBE, 754552018, 0.02006923, 0.02008278, 0.03191471, 0, 0, 0
CTRL, 754552022, 0.009500246, 0.0001373332, 0.03557758, 0.0001324217, 0.642719
IMU, 754571892, -0.004698913, 0.0009198503, 0.000735626, -0.1312727, 0.2173166, -9.775626, 0, 0, 0, 1, 1
GPS, 754589396, 3, 34199600, 1958, 12, 0.82, -34.0728706, 18.8399626, 77.01, 0.0781025, 219.8056, 0.02, 1
GPA, 754589396, 1.36, 2.68, 4.71, 0.79, 1, 754589
IMU, 754612125, -0.005048145, 0.00248971, 0.001346493, -0.1236401, 0.2045147, -9.793417, 0, 0, 0, 1, 1
CURR, 754649461, 11.78525, 0, 0.4753166
CUR2, 754649467, 11.74176, 1.84, 72.02579
MAG, 754649482, 77, 23, -244, -208, 24, -34, 0, 0, 0, 1, 754649475
