FMT, 128, 89, FMT, BBnNZ, Type,Length,Name,Format,Columns
FMT, 129, 31, PARM, QNf, TimeUS,Name,Value
FMT, 130, 46, GPS, QBIHBcLLefffB, TimeUS,Status,GMS,GWk,NSats,HDop,Lat,Lng,Alt,Spd,GCrs,VZ,U
FMT, 131, 46, GPS2, QBIHBcLLefffB, TimeUS,Status,GMS,GWk,NSats,HDop,Lat,Lng,Alt,Spd,GCrs,VZ,U
FMT, 196, 24, GPA, QCCCCBI, TimeUS,VDop,HAcc,VAcc,SAcc,VV,SMS
FMT, 197, 24, GPA2, QCCCCBI, TimeUS,VDop,HAcc,VAcc,SAcc,VV,SMS
FMT, 132, 49, IMU, QffffffIIfBB, TimeUS,GyrX,GyrY,GyrZ,AccX,AccY,AccZ,ErrG,ErrA,Temp,GyHlt,AcHlt
FMT, 133, 75, MSG, QZ, TimeUS,Message
FMT, 134, 39, RCIN, QHHHHHHHHHHHHHH, TimeUS,C1,C2,C3,C4,C5,C6,C7,C8,C9,C10,C11,C12,C13,C14
FMT, 135, 39, RCOU, QHHHHHHHHHHHHHH, TimeUS,C1,C2,C3,C4,C5,C6,C7,C8,C9,C10,C11,C12,C13,C14
FMT, 136, 15, RSSI, Qf, TimeUS,RXRSSI
FMT, 138, 33, BARO, QffcfIf, TimeUS,Alt,Press,Temp,CRt,SMS,Offset
FMT, 139, 21, POWR, QffH, TimeUS,Vcc,VServo,Flags
FMT, 146, 45, CMD, QHHHfffffff, TimeUS,CTot,CNum,CId,Prm1,Prm2,Prm3,Prm4,Lat,Lng,Alt
FMT, 147, 20, RAD, QBBBBBHH, TimeUS,RSSI,RemRSSI,TxBuf,Noise,RemNoise,RxErrors,Fixed
FMT, 149, 43, CAM, QIHLLeeeccC, TimeUS,GPSTime,GPSWeek,Lat,Lng,Alt,RelAlt,GPSAlt,Roll,Pitch,Yaw
FMT, 218, 43, TRIG, QIHLLeeeccC, TimeUS,GPSTime,GPSWeek,Lat,Lng,Alt,RelAlt,GPSAlt,Roll,Pitch,Yaw
FMT, 166, 30, ARSP, QffcffB, TimeUS,Airspeed,DiffPress,Temp,RawPress,Offset,U
FMT, 168, 23, CURR, Qfff, TimeUS,Volt,Curr,CurrTot
FMT, 169, 23, CUR2, Qfff, TimeUS,Volt,Curr,CurrTot
FMT, 167, 27, ATT, QccccCCCC, TimeUS,DesRoll,Roll,DesPitch,Pitch,DesYaw,Yaw,ErrRP,ErrYaw
FMT, 170, 34, MAG, QhhhhhhhhhBI, TimeUS,MagX,MagY,MagZ,OfsX,OfsY,OfsZ,MOfsX,MOfsY,MOfsZ,Health,S
FMT, 173, 14, MODE, QMBB, TimeUS,Mode,ModeNum,Rsn
FMT, 198, 15, RFND, QCC, TimeUS,Dist1,Dist2
FMT, 209, 33, DMS, IIIIIBBBBBBBBBB, TimeMS,N,Dp,RT,RS,Er,Fa,Fmn,Fmx,Pa,Pmn,Pmx,Sa,Smn,Smx
FMT, 137, 49, IMU2, QffffffIIfBB, TimeUS,GyrX,GyrY,GyrZ,AccX,AccY,AccZ,ErrG,ErrA,Temp,GyHlt,AcHlt
FMT, 150, 49, IMU3, QffffffIIfBB, TimeUS,GyrX,GyrY,GyrZ,AccX,AccY,AccZ,ErrG,ErrA,Temp,GyHlt,AcHlt
FMT, 140, 29, AHR2, QccCfLL, TimeUS,Roll,Pitch,Yaw,Alt,Lat,Lng
FMT, 184, 27, POS, QLLff, TimeUS,Lat,Lng,Alt,RelAlt
FMT, 141, 29, SIM, QccCfLL, TimeUS,Roll,Pitch,Yaw,Alt,Lat,Lng
FMT, 142, 51, EKF1, QccCfffffffccc, TimeUS,Roll,Pitch,Yaw,VN,VE,VD,dPD,PN,PE,PD,GX,GY,GZ
FMT, 143, 30, EKF2, Qbbbcchhhhhh, TimeUS,Ratio,AZ1bias,AZ2bias,VWN,VWE,MN,ME,MD,MX,MY,MZ
FMT, 144, 31, EKF3, Qcccccchhhc, TimeUS,IVN,IVE,IVD,IPN,IPE,IPD,IMX,IMY,IMZ,IVT
FMT, 145, 34, EKF4, QcccccccbbHBHH, TimeUS,SV,SP,SH,SMX,SMY,SMZ,SVT,OFN,OFE,FS,TS,SS,GPS
FMT, 164, 28, EKF5, QBhhhcccCC, TimeUS,NI,FIX,FIY,AFI,HAGL,offset,RI,rng,Herr
FMT, 200, 51, NKF1, QccCfffffffccc, TimeUS,Roll,Pitch,Yaw,VN,VE,VD,dPD,PN,PE,PD,GX,GY,GZ
FMT, 201, 35, NKF2, QbccccchhhhhhB, TimeUS,AZbias,GSX,GSY,GSZ,VWN,VWE,MN,ME,MD,MX,MY,MZ,MI
FMT, 202, 33, NKF3, Qcccccchhhcc, TimeUS,IVN,IVE,IVD,IPN,IPE,IPD,IMX,IMY,IMZ,IYAW,IVT
FMT, 203, 35, NKF4, QcccccfbbHBHHb, TimeUS,SV,SP,SH,SM,SVT,errRP,OFN,OFE,FS,TS,SS,GPS,PI
FMT, 204, 40, NKF5, QBhhhcccCCfff, TimeUS,NI,FIX,FIY,AFI,HAGL,offset,RI,rng,Herr,eAng,eVel,ePos
FMT, 205, 51, NKF6, QccCfffffffccc, TimeUS,Roll,Pitch,Yaw,VN,VE,VD,dPD,PN,PE,PD,GX,GY,GZ
FMT, 206, 35, NKF7, QbccccchhhhhhB, TimeUS,AZbias,GSX,GSY,GSZ,VWN,VWE,MN,ME,MD,MX,MY,MZ,MI
FMT, 207, 33, NKF8, Qcccccchhhcc, TimeUS,IVN,IVE,IVD,IPN,IPE,IPD,IMX,IMY,IMZ,IYAW,IVT
FMT, 208, 35, NKF9, QcccccfbbHBHHb, TimeUS,SV,SP,SH,SM,SVT,errRP,OFN,OFE,FS,TS,SS,GPS,PI
FMT, 151, 34, TERR, QBLLHffHH, TimeUS,Status,Lat,Lng,Spacing,TerrH,CHeight,Pending,Loaded
FMT, 152, 18, UBX1, QBHBBH, TimeUS,Instance,noisePerMS,jamInd,aPower,agcCnt
FMT, 153, 16, UBX2, QBbBbB, TimeUS,Instance,ofsI,magI,ofsQ,magQ
FMT, 154, 18, UBY1, QBHBBH, TimeUS,Instance,noisePerMS,jamInd,aPower,agcCnt
FMT, 155, 16, UBY2, QBbBbB, TimeUS,Instance,ofsI,magI,ofsQ,magQ
FMT, 174, 42, GRAW, QIHBBddfBbB, TimeUS,WkMS,Week,numSV,sv,cpMes,prMes,doMes,mesQI,cno,lli
FMT, 175, 24, GRXH, QdHbBB, TimeUS,rcvTime,week,leapS,numMeas,recStat
FMT, 176, 41, GRXS, QddfBBBHBBBBB, TimeUS,prMes,cpMes,doMes,gnss,sv,freq,lock,cno,prD,cpD,doD,trk
FMT, 177, 63, SBFE, QIHBBdddfffff, TimeUS,TOW,WN,Mode,Err,Lat,Lng,Height,Undul,Vn,Ve,Vu,COG
FMT, 156, 19, ESC1, Qcccc, TimeUS,RPM,Volt,Curr,Temp
FMT, 157, 19, ESC2, Qcccc, TimeUS,RPM,Volt,Curr,Temp
FMT, 158, 19, ESC3, Qcccc, TimeUS,RPM,Volt,Curr,Temp
FMT, 159, 19, ESC4, Qcccc, TimeUS,RPM,Volt,Curr,Temp
FMT, 160, 19, ESC5, Qcccc, TimeUS,RPM,Volt,Curr,Temp
FMT, 161, 19, ESC6, Qcccc, TimeUS,RPM,Volt,Curr,Temp
FMT, 162, 19, ESC7, Qcccc, TimeUS,RPM,Volt,Curr,Temp
FMT, 163, 19, ESC8, Qcccc, TimeUS,RPM,Volt,Curr,Temp
FMT, 171, 34, MAG2, QhhhhhhhhhBI, TimeUS,MagX,MagY,MagZ,OfsX,OfsY,OfsZ,MOfsX,MOfsY,MOfsZ,Health,S
FMT, 172, 34, MAG3, QhhhhhhhhhBI, TimeUS,MagX,MagY,MagZ,OfsX,OfsY,OfsZ,MOfsX,MOfsY,MOfsZ,Health,S
FMT, 178, 31, ACC1, QQfff, TimeUS,SampleUS,AccX,AccY,AccZ
FMT, 179, 31, ACC2, QQfff, TimeUS,SampleUS,AccX,AccY,AccZ
FMT, 180, 31, ACC3, QQfff, TimeUS,SampleUS,AccX,AccY,AccZ
FMT, 181, 31, GYR1, QQfff, TimeUS,SampleUS,GyrX,GyrY,GyrZ
FMT, 182, 31, GYR2, QQfff, TimeUS,SampleUS,GyrX,GyrY,GyrZ
FMT, 183, 31, GYR3, QQfff, TimeUS,SampleUS,GyrX,GyrY,GyrZ
FMT, 185, 35, PIDR, Qffffff, TimeUS,Des,P,I,D,FF,AFF
FMT, 186, 35, PIDP, Qffffff, TimeUS,Des,P,I,D,FF,AFF
FMT, 187, 35, PIDY, Qffffff, TimeUS,Des,P,I,D,FF,AFF
FMT, 188, 35, PIDA, Qffffff, TimeUS,Des,P,I,D,FF,AFF
FMT, 189, 35, PIDS, Qffffff, TimeUS,Des,P,I,D,FF,AFF
FMT, 165, 33, BAR2, QffcfIf, TimeUS,Alt,Press,Temp,CRt,SMS,Offset
FMT, 199, 33, BAR3, QffcfI, TimeUS,Alt,Press,Temp,CRt,SMS
FMT, 190, 35, VIBE, QfffIII, TimeUS,VibeX,VibeY,VibeZ,Clip0,Clip1,Clip2
FMT, 191, 47, IMT, Qfffffffff, TimeUS,DelT,DelvT,DelaT,DelAX,DelAY,DelAZ,DelVX,DelVY,DelVZ
FMT, 192, 47, IMT2, Qfffffffff, TimeUS,DelT,DelvT,DelaT,DelAX,DelAY,DelAZ,DelVX,DelVY,DelVZ
FMT, 193, 47, IMT3, Qfffffffff, TimeUS,DelT,DelvT,DelaT,DelAX,DelAY,DelAZ,DelVX,DelVY,DelVZ
FMT, 194, 24, ORGN, QBLLe, TimeUS,Type,Lat,Lng,Alt
FMT, 195, 19, RPM, Qff, TimeUS,rpm1,rpm2
FMT, 219, 47, GMB1, Iffffffffff, TimeMS,dt,dax,day,daz,dvx,dvy,dvz,jx,jy,jz
FMT, 220, 44, GMB2, IBfffffffff, TimeMS,es,ex,ey,ez,rx,ry,rz,tx,ty,tz
FMT, 221, 13, GMB3, Ihhh, TimeMS,rl_torque_cmd,el_torque_cmd,az_torque_cmd
FMT, 222, 59, RATE, Qffffffffffff, TimeUS,RDes,R,ROut,PDes,P,POut,YDes,Y,YOut,ADes,A,AOut
FMT, 223, 23, RALY, QBBLLh, TimeUS,Tot,Seq,Lat,Lng,Alt
FMT, 210, 23, SBPH, QIII, TimeUS,CrcError,LastInject,IARhyp
FMT, 215, 80, SBR1, QHHBZ, TimeUS,msg_type,sender_id,msg_len,d1
FMT, 216, 205, SBR2, QHZZZ, TimeUS,msg_type,d2,d3,d4
FMT, 25, 41, ATUN, QBBfffffff, TimeUS,Axis,TuneStep,Targ,Min,Max,RP,RD,SP,ddt
FMT, 26, 19, ATDE, Qff, TimeUS,Angle,Rate
FMT, 31, 22, PTUN, QBfHHH, TimeUS,Param,TunVal,CtrlIn,TunLo,TunHi
FMT, 12, 28, OF, QBffff, TimeUS,Qual,flowX,flowY,bodyX,bodyY
FMT, 5, 51, NTUN, Qffffffffff, TimeUS,DPosX,DPosY,PosX,PosY,DVelX,DVelY,VelX,VelY,DAccX,DAccY
FMT, 4, 51, CTUN, Qffffffeccfhh, TimeUS,ThI,ABst,ThO,ThH,DAlt,Alt,BAlt,DSAlt,SAlt,TAlt,DCRt,CRt
FMT, 6, 28, PM, QHHIhBHI, TimeUS,NLon,NLoop,MaxT,PMT,I2CErr,INSErr,LogDrop
FMT, 30, 27, MOTB, Qffff, TimeUS,LiftMax,BatVolt,BatRes,ThLimit
FMT, 13, 12, EV, QB, TimeUS,Id
FMT, 20, 14, D16, QBh, TimeUS,Id,Value
FMT, 21, 14, DU16, QBH, TimeUS,Id,Value
FMT, 22, 16, D32, QBi, TimeUS,Id,Value
FMT, 23, 16, DU32, QBI, TimeUS,Id,Value
FMT, 24, 16, DFLT, QBf, TimeUS,Id,Value
FMT, 19, 13, ERR, QBB, TimeUS,Subsys,ECode
FMT, 32, 19, HELI, Qff, TimeUS,DRRPM,ERRPM
FMT, 33, 29, PL, QBBffff, TimeUS,Heal,TAcq,pX,pY,vX,vY
FMT, 34, 36, GUID, QBffffff, TimeUS,Type,pX,pY,pZ,vX,vY,vZ
FMT, 35, 32, THRO, QBffffbbbb, TimeUS,Stage,Vel,VelZ,Acc,AccEfZ,Throw,AttOk,HgtOk,PosOk
FMT, 36, 44, PRX, QBffffffff, TimeUS,Health,D0,D45,D90,D135,D180,D225,D270,D315
EV, 56932713, 10
MODE, 56932719, Stabilize, 0, 1
FMT, 254, 31, CTRL, Qfffff, TimeUS,RMSRollP,RMSRollD,RMSPitchP,RMSPitchD,RMSYaw
MSG, 57007990, APM:Copter V3.4.6 (5221448a)
MSG, 57007994, New mission
MSG, 57007997, Frame: QUAD
MODE, 57008000, Stabilize, 0, 1
CURR, 57030551, 16.39498, 0, 0.02416901
CUR2, 57030558, 16.35149, 1.84, 6.798306
MAG, 57030575, 118, 19, -235, -178, 31, -17, 0, 0, 0, 1, 57030567
MAG2, 57030575, 115, 2, -216, -79, 78, -34, 0, 0, 0, 1, 57030570
IMU, 57030600, -0.000551994, 0.0001715933, 0.0001070588, 0.5340577, 0.0529726, -9.773952, 0, 0, 0, 1, 1
BARO, 57032893, -0.02779906, 102036.5, 31.01, -0.5878629, 57032, 0
CTUN, 57032913, 0, 0, 0, 0.3347042, 0, 0.06961489, -0.02, 0.00, 0.00, 0, 0, 1
ATT, 57032973, -0.16, -0.16, 1.66, 1.66, 315.80, 315.81, 0.02, 0.05
NKF1, 57032978, -0.16, 1.66, 315.80, -0.02780423, 0.0479878, -0.01559686, 0, 1.464539, -0.5186955, -0.06961489, -0.05, -0.01, 0.46
NKF2, 57032978, 2, 0.00, 0.00, 0.00, 0.00, 0.00, 107, 0, -232, 0, 0, 0, 0
NKF3, 57032978, 0.00, 0.01, -0.13, -0.26, 0.01, -0.14, 0, 0, 0, -3.48, 0.00
NKF4, 57032978, 0.02, 0.01, 0.00, 0.04, 0.00, 0.0002907657, 0, -1, 0, 16, 9087, 0, 0
NKF5, 57032978, 0, 0, 0, 0, 0.16, 0.10, 0.07, 0.09, 0.15, 0.002699394, 0.007681692, 0.01558612
AHR2, 57033007, -0.29, 1.72, 321.48, 75.42, -34.0728876, 18.839992
POS, 57033014, -34.0728901, 18.8399924, 75.45, 0.06961489
RATE, 57033018, 0.01626445, 0.01626445, 2.933643E-05, 0.03865184, 0.03865184, -3.389013E-05, -0.4751561, -0.4751561, 9.769708E-06, 0, 0.5070686, 0
MOTB, 57033023, 1, 1, 0, 1
RCIN, 57033027, 1491, 1497, 982, 2002, 1167, 982, 982, 982, 982, 982, 982, 982, 1494, 1494
RCOU, 57033033, 982, 982, 982, 982, 0, 0, 0, 0, 0, 0, 0, 0, 0, 0
VIBE, 57033039, 0.01976687, 0.01938454, 0.02994925, 0, 0, 0
CTRL, 57033044, 2.398361E-05, 5.881972E-05, 2.537513E-05, 6.463569E-05, 7.489219E-06
IMU, 57070410, -0.001251545, 0.001313014, 0.0002306174, 0.5471452, 0.04361838, -9.754747, 0, 0, 0, 1, 1
IMU, 57110430, -0.0003095474, -0.0006126317, -0.0005590221, 0.5380358, 0.04942787, -9.766204, 0, 0, 0, 1, 1
CURR, 57130509, 16.39498, 0, 0.02416901
CUR2, 57130515, 16.39498, 0, 6.798306
MAG, 57130531, 116, 40, -230, -178, 31, -17, 0, 0, 0, 1, 57130523
MAG2, 57130531, 111, 12, -215, -79, 78, -34, 0, 0, 0, 1, 57130526
BARO, 57132881, -0.05559812, 102036.8, 31.01, -0.645857, 57132, 0
CTUN, 57132900, 0, 0, 0, 0.3347042, 0, 0.06688151, -0.05, 0.00, 0.00, 0, 0, 1
ATT, 57132963, -0.16, -0.16, 1.66, 1.66, 315.79, 315.80, 0.02, 0.06
NKF1, 57132967, -0.16, 1.66, 315.79, -0.02567424, 0.04994799, -0.01441685, 0, 1.473084, -0.5122503, -0.06688151, -0.05, -0.01, 0.46
NKF2, 57132967, 2, 0.00, 0.00, 0.00, 0.00, 0.00, 107, 0, -232, 0, 0, 0, 0
NKF3, 57132967, 0.00, 0.01, -0.13, -0.26, 0.01, -0.12, 0, 0, 0, -4.20, 0.00
NKF4, 57132967, 0.02, 0.01, 0.00, 0.04, 0.00, 0.0002144578, 0, -1, 0, 16, 9087, 0, 0
NKF5, 57132967, 0, 0, 0, 0, 0.16, 0.10, 0.07, 0.09, 0.15, 0.002688634, 0.004704766, 0.01022617
AHR2, 57132996, -0.41, 1.83, 321.52, 75.39, -34.0728876, 18.839992
POS, 57133002, -34.07289, 18.8399925, 75.45, 0.06688151
RATE, 57133005, 0.0182462, 0.0182462, 9.208301E-05, 0.03208236, 0.03208236, -4.538244E-05, -0.4720531, -0.4720531, -2.935549E-06, 0, 0.2187729, 0
MOTB, 57133011, 1, 1, 0, 1
RCIN, 57133014, 1491, 1497, 982, 2002, 1167, 982, 982, 982, 982, 982, 982, 982, 1494, 1494
RCOU, 57133019, 982, 982, 982, 982, 0, 0, 0, 0, 0, 0, 0, 0, 0, 0
VIBE, 57133026, 0.02117101, 0.01904296, 0.0321188, 0, 0, 0
CTRL, 57133030, 2.228533E-05, 5.52265E-05, 2.734758E-05, 6.850516E-05, 7.270612E-06
GPS, 57150435, 3, 36283200, 1958, 13, 0.81, -34.0728877, 18.8399918, 77.76, 0.1552417, 165.0686, 0.14, 1
GPA, 57150435, 1.52, 2.68, 5.01, 0.85, 1, 57150
IMU, 57150457, -0.0003345832, -0.0001357066, -0.0001453831, 0.5494159, 0.04567147, -9.770788, 0, 0, 0, 1, 1
IMU, 57190425, -0.000760816, 0.0006427314, -0.0009708683, 0.5346318, 0.04420991, -9.756344, 0, 0, 0, 1, 1
CURR, 57230504, 16.39498, 0, 0.02416901
CUR2, 57230513, 16.308, 0.92, 6.823862
MAG, 57230527, 119, 21, -233, -178, 31, -17, 0, 0, 0, 1, 57230519
MAG2, 57230527, 109, 18, -213, -79, 78, -34, 0, 0, 0, 1, 57230522
IMU, 57230546, -0.0007899601, 0.0003421891, -0.0006014818, 0.5393356, 0.0498884, -9.767344, 0, 0, 0, 1, 1
BARO, 57232893, -0.1723542, 102038.1, 31.02, -0.2936472, 57232, 0
CTUN, 57232913, 0, 0, 0, 0.3347042, 0, 0.06239371, -0.17, 0.00, 0.00, 0, 0, 1
ATT, 57232972, -0.16, -0.16, 1.66, 1.66, 315.77, 315.78, 0.03, 0.06
NKF1, 57232976, -0.16, 1.66, 315.77, -0.02544065, 0.05148634, -0.01268442, 0, 1.4781, -0.5069954, -0.06239371, -0.05, -0.01, 0.46
NKF2, 57232976, 2, 0.00, 0.00, 0.00, 0.00, 0.00, 107, 0, -232, 0, 0, 0, 0
NKF3, 57232976, 0.13, 0.00, -0.15, -0.26, 0.04, -0.07, 0, 0, 0, -9.73, 0.00
NKF4, 57232976, 0.04, 0.01, 0.00, 0.11, 0.00, 0.0001824939, 0, -1, 0, 16, 9087, 0, 0
NKF5, 57232976, 0, 0, 0, 0, 0.14, 0.10, 0.06, 0.09, 0.15, 0.003469116, 0.007517001, 0.01820411
AHR2, 57233007, -0.47, 1.90, 321.44, 75.27, -34.0728877, 18.8399918
POS, 57233014, -34.07289, 18.8399926, 75.46, 0.06239371
RATE, 57233018, 0.002669513, 0.002669513, -3.163211E-05, 0.03989342, 0.03989342, -3.171244E-05, -0.4953174, -0.4953174, -1.038294E-07, 0, 0.006198883, 0
MOTB, 57233023, 1, 1, 0, 1
RCIN, 57233026, 1491, 1497, 982, 1999, 1167, 982, 982, 982, 982, 982, 982, 982, 1494, 1494
RCOU, 57233031, 982, 982, 982, 982, 0, 0, 0, 0, 0, 0, 0, 0, 0, 0
VIBE, 57233038, 0.01886888, 0.01926965, 0.0281198, 0, 0, 0
CTRL, 57233043, 2.432972E-05, 5.880624E-05, 2.989914E-05, 7.326377E-05, 6.654287E-06
IMU, 57270421, -0.0006800729, 0.0003856932, 0.0002799857, 0.5367183, 0.03785043, -9.763525, 0, 0, 0, 1, 1
IMU, 57310422, 0.0001197761, 0.0003606943, 0.0001708746, 0.549039, 0.05180039, -9.754136, 0, 0, 0, 1, 1
CURR, 57330507, 16.39498, 0, 0.02416901
CUR2, 57330514, 16.39498, 0, 6.823862
MAG, 57330529, 116, 18, -230, -178, 31, -17, 0, 0, 0, 1, 57330520
MAG2, 57330529, 110, 0, -214, -79, 78, -34, 0, 0, 0, 1, 57330524
BARO, 57332871, -0.1334355, 102037.7, 31.01, -0.1928248, 57332, 0
CTUN, 57332891, 0, 0, 0, 0.3347042, 0, 0.0575671, -0.13, 0.00, 0.00, 0, 0, 1
ATT, 57332944, -0.15, -0.15, 1.66, 1.66, 315.77, 315.78, 0.03, 0.07
NKF1, 57332948, -0.15, 1.66, 315.77, -0.02676113, 0.05325684, -0.0100645, 0, 1.480242, -0.5021377, -0.0575671, -0.05, -0.01, 0.46
NKF2, 57332948, 2, 0.00, 0.00, 0.00, 0.00, 0.00, 107, 0, -232, 0, 0, 0, 0
NKF3, 57332948, 0.13, 0.00, -0.15, -0.26, 0.04, -0.10, 0, 0, 0, 1.32, 0.00
NKF4, 57332948, 0.04, 0.01, 0.00, 0.01, 0.00, 0.0001744648, 0, -1, 0, 16, 9087, 0, 0
NKF5, 57332948, 0, 0, 0, 0, 0.14, 0.10, 0.06, 0.09, 0.15, 0.002805086, 0.006961788, 0.01912072
AHR2, 57332979, -0.51, 1.97, 321.47, 75.31, -34.0728877, 18.8399918
POS, 57332985, -34.07289, 18.8399926, 75.45, 0.0575671
RATE, 57332988, -0.01241347, -0.01241347, -4.587077E-05, 0.0282142, 0.0282142, -4.885584E-05, -0.4701535, -0.4701535, -1.574382E-06, 0, -0.7711411, 0
MOTB, 57332994, 1, 1, 0, 1
RCIN, 57332997, 1491, 1497, 982, 1989, 1167, 982, 982, 982, 982, 982, 982, 982, 1494, 1494
RCOU, 57333001, 982, 982, 982, 982, 0, 0, 0, 0, 0, 0, 0, 0, 0, 0
VIBE, 57333009, 0.02044583, 0.01931501, 0.02854332, 0, 0, 0
CTRL, 57333013, 2.321259E-05, 5.616917E-05, 2.665738E-05, 6.643014E-05, 6.675573E-06
GPS, 57350432, 3, 36283400, 1958, 13, 0.81, -34.0728878, 18.8399915, 77.78, 0.05385165, 338.1986, 0.12, 1
GPA, 57350432, 1.52, 2.69, 5.03, 0.79, 1, 57350
IMU, 57350453, -0.0009133316, 0.0001493728, -0.0003543753, 0.5407774, 0.05753671, -9.778267, 0, 0, 0, 1, 1
IMU, 57390423, -0.000302256, 9.938075E-05, 0.0005527528, 0.5434968, 0.04368807, -9.739462, 0, 0, 0, 1, 1
CURR, 57430503, 16.41672, 0, 0.02416901
CUR2, 57430510, 16.37323, 0.92, 6.849419
MAG, 57430526, 117, 33, -232, -178, 31, -17, 0, 0, 0, 1, 57430518
MAG2, 57430526, 110, 16, -210, -79, 78, -34, 0, 0, 0, 1, 57430522
IMU, 57430545, -0.000952458, -0.0003223754, -0.0001496317, 0.5333338, 0.05030453, -9.772762, 0, 0, 0, 1, 1
BARO, 57432880, -0.1945934, 102038.4, 31.01, -0.3510741, 57432, 0
CTUN, 57432899, 0, 0, 0, 0.3347042, 0, 0.05134357, -0.19, 0.00, 0.00, 0, 0, 0
ATT, 57432953, -0.16, -0.16, 1.66, 1.66, 315.75, 315.76, 0.05, 0.06
NKF1, 57432958, -0.16, 1.66, 315.75, -0.02621372, 0.05391588, -0.00748041, 0, 1.48527, -0.4997906, -0.05134357, -0.05, -0.01, 0.46
NKF2, 57432958, 2, 0.00, 0.00, 0.00, 0.00, 0.00, 107, 0, -232, 0, 0, 0, 0
NKF3, 57432958, -0.07, 0.06, -0.12, -0.23, 0.06, -0.20, 0, 0, 0, -8.61, 0.00
NKF4, 57432958, 0.03, 0.01, 0.01, 0.09, 0.00, 0.0001771931, 0, -1, 0, 16, 9087, 0, 0
NKF5, 57432958, 0, 0, 0, 0, 0.13, 0.10, 0.03, 0.09, 0.15, 0.003456507, 0.01038985, 0.02752923
AHR2, 57432987, -0.48, 1.89, 321.52, 75.25, -34.0728878, 18.8399915
POS, 57432996, -34.0728899, 18.8399926, 75.46, 0.05134357
RATE, 57432999, -0.00143487, -0.00143487, -4.269563E-05, -0.01432375, -0.01432375, 0.0001591332, -0.4791906, -0.4791906, 6.862178E-06, 0, 0.7055283, 0
MOTB, 57433005, 1, 1, 0, 1
RCIN, 57433008, 1491, 1497, 982, 1979, 1167, 982, 982, 982, 982, 982, 982, 982, 1494, 1494
RCOU, 57433012, 982, 982, 982, 982, 0, 0, 0, 0, 0, 0, 0, 0, 0, 0
VIBE, 57433020, 0.0198685, 0.01982355, 0.02898115, 0, 0, 0
CTRL, 57433024, 2.308748E-05, 5.379338E-05, 2.850577E-05, 7.232535E-05, 6.493191E-06
IMU, 57470410, 0.000502163, -0.001856553, 0.0004989289, 0.539416, 0.05395158, -9.757535, 0, 0, 0, 1, 1
IMU, 57510409, 0.0002404439, 0.0001932933, -0.0003465634, 0.5416714, 0.04652067, -9.754411, 0, 0, 0, 1, 1
CURR, 57530500, 16.37323, 0, 0.02416901
CUR2, 57530509, 16.37323, 0, 6.849419
MAG, 57530524, 120, 29, -233, -178, 31, -17, 0, 0, 0, 1, 57530516
MAG2, 57530524, 114, 17, -215, -79, 78, -34, 0, 0, 0, 1, 57530519
BARO, 57532918, 0.07505747, 102035.3, 31.01, -0.2874754, 57532, 0
CTUN, 57532937, 0, 0, 0, 0.3347042, 0, 0.0441034, 0.07, 0.00, 0.00, 0, 0, 0
ATT, 57532997, -0.15, -0.15, 1.65, 1.65, 315.75, 315.76, 0.05, 0.05
NKF1, 57533001, -0.15, 1.65, 315.75, -0.02506391, 0.0538693, -0.004821919, 0, 1.490593, -0.4986194, -0.0441034, -0.05, -0.01, 0.45
NKF2, 57533001, 2, 0.00, 0.00, 0.00, 0.00, 0.00, 107, 0, -232, 0, 0, 0, 0
NKF3, 57533001, -0.07, 0.06, -0.12, -0.23, 0.06, -0.16, 0, 0, 0, -10.06, 0.00
NKF4, 57533001, 0.03, 0.01, 0.01, 0.11, 0.00, 0.0001853784, 0, -1, 0, 16, 9087, 0, 0
NKF5, 57533001, 0, 0, 0, 0, 0.12, 0.10, 0.03, 0.09, 0.15, 0.004229954, 0.008335038, 0.02404063
AHR2, 57533030, -0.43, 1.77, 321.48, 75.52, -34.0728878, 18.8399915
POS, 57533036, -34.0728899, 18.8399926, 75.45, 0.0441034
RATE, 57533040, 0.08876339, 0.08876339, 2.865037E-05, 0.0504795, 0.0504795, 5.260204E-06, -0.4518049, -0.4518049, -4.975738E-06, 0, 0.08745193, 0
MOTB, 57533045, 1, 1, 0, 1
RCIN, 57533047, 1491, 1497, 982, 1947, 1167, 982, 982, 982, 982, 982, 982, 982, 1494, 1494
RCOU, 57533052, 982, 982, 982, 982, 0, 0, 0, 0, 0, 0, 0, 0, 0, 0
VIBE, 57533059, 0.019845, 0.0192151, 0.03282186, 0, 0, 0
CTRL, 57533062, 2.271967E-05, 5.347129E-05, 2.617784E-05, 6.512747E-05, 6.645159E-06
GPS, 57550418, 3, 36283600, 1958, 13, 0.81, -34.0728873, 18.8399916, 77.65, 0.3324154, 353.0888, -0.03, 1
GPA, 57550418, 1.52, 2.69, 5.05, 0.85, 1, 57550
IMU, 57550439, -0.0003411185, -0.0002240261, 0.0002586713, 0.537928, 0.04522733, -9.780077, 0, 0, 0, 1, 1
IMU, 57590420, 0.0003020802, -0.001306779, 0.0002266271, 0.5354062, 0.04327137, -9.75888, 0, 0, 0, 1, 1
CURR, 57630503, 16.41672, 0, 0.02416901
CUR2, 57630511, 16.48195, 0, 6.849419
MAG, 57630527, 119, 34, -234, -178, 31, -17, 0, 0, 0, 1, 57630519
MAG2, 57630527, 108, 17, -214, -79, 78, -34, 0, 0, 0, 1, 57630522
IMU, 57630546, -0.0006342264, -0.0001674935, 0.0001069643, 0.54026, 0.04823951, -9.762451, 0, 0, 0, 1, 1
BARO, 57632879, -0.2446317, 102038.9, 31.02, 0.06081044, 57632, 0
CTUN, 57632901, 0, 0, 0, 0.3347042, 0, 0.03760512, -0.24, 0.00, 0.00, 0, 0, 0
ATT, 57633054, -0.15, -0.15, 1.65, 1.65, 315.75, 315.76, 0.06, 0.05
NKF1, 57633059, -0.15, 1.65, 315.75, -0.0200217, 0.05314451, -0.003141566, 0, 1.505114, -0.4993871, -0.03760512, -0.05, -0.01, 0.45
NKF2, 57633059, 2, 0.00, 0.00, 0.00, 0.00, 0.00, 107, 0, -232, 0, 0, 0, 0
NKF3, 57633059, -0.35, 0.08, 0.02, -0.23, 0.05, -0.22, 0, 0, 0, -1.93, 0.00
NKF4, 57633059, 0.07, 0.01, 0.01, 0.02, 0.00, 0.0002644068, 0, -1, 0, 16, 9087, 0, 0
NKF5, 57633059, 0, 0, 0, 0, 0.12, 0.10, 0.03, 0.09, 0.15, 0.003874563, 0.02295031, 0.04709107
AHR2, 57633088, -0.35, 1.65, 321.48, 75.2, -34.0728873, 18.8399916
POS, 57633096, -34.0728897, 18.8399926, 75.45, 0.03760512
RATE, 57633100, 0.01456891, 0.01456891, -4.233003E-06, 0.009006551, 0.009006551, -3.198713E-05, -0.4536017, -0.4536017, 1.655575E-06, 0, -0.5252838, 0
MOTB, 57633105, 1, 1, 0, 1
RCIN, 57633108, 1491, 1497, 982, 1927, 1167, 982, 982, 982, 982, 982, 982, 982, 1494, 1494
RCOU, 57633112, 982, 982, 982, 982, 0, 0, 0, 0, 0, 0, 0, 0, 0, 0
VIBE, 57633117, 0.02079914, 0.01768496, 0.03203647, 0, 0, 0
CTRL, 57633121, 2.295632E-05, 5.548365E-05, 3.310741E-05, 8.314855E-05, 5.94295E-06
IMU, 57670433, -0.0014075, 0.0005057162, -0.0003392426, 0.5447506, 0.04567573, -9.776572, 0, 0, 0, 1, 1
IMU, 57710431, -0.0001738283, 0.0009047451, -0.000266528, 0.5385613, 0.04089657, -9.752589, 0, 0, 0, 1, 1
CURR, 57730498, 16.37323, 0, 0.02416901
CUR2, 57730504, 16.41672, 0, 6.849419
MAG, 57730520, 120, 34, -233, -178, 31, -17, 0, 0, 0, 1, 57730511
MAG2, 57730520, 108, 14, -213, -79, 78, -34, 0, 0, 0, 1, 57730515
BARO, 57732878, 0.06671774, 102035.4, 31.02, 0.273647, 57732, 0
CTUN, 57732897, 0, 0, 0, 0.3347042, 0, 0.03165372, 0.06, 0.00, 0.00, 0, 0, 0
ATT, 57732949, -0.15, -0.15, 1.65, 1.65, 315.75, 315.76, 0.06, 0.05
NKF1, 57732954, -0.15, 1.65, 315.75, -0.01354637, 0.05171837, -0.001980592, 0, 1.522361, -0.5007067, -0.03165372, -0.05, -0.01, 0.45
NKF2, 57732954, 2, 0.00, 0.00, 0.00, 0.00, 0.00, 107, 0, -232, 0, 0, 0, 0
NKF3, 57732954, -0.35, 0.08, 0.02, -0.23, 0.05, 0.05, 0, 0, 0, -4.44, 0.00
NKF4, 57732954, 0.07, 0.01, 0.00, 0.05, 0.00, 0.0003648683, 0, -1, 0, 16, 9087, 0, 0
NKF5, 57732954, 0, 0, 0, 0, 0.12, 0.09, 0.02, 0.09, 0.15, 0.003879353, 0.01494453, 0.02999834
AHR2, 57732983, -0.27, 1.52, 321.44, 75.50999, -34.0728873, 18.8399916
POS, 57732990, -34.0728896, 18.8399926, 75.45, 0.03165372
RATE, 57732994, 0.03105725, 0.03105725, -4.483526E-05, 0.1068531, 0.1068531, 0.0001823529, -0.4389696, -0.4389696, -3.919111E-06, 0, -0.2943039, 0
MOTB, 57732999, 1, 1, 0, 1
RCIN, 57733002, 1491, 1497, 982, 1909, 1167, 982, 982, 982, 982, 982, 982, 982, 1494, 1494
RCOU, 57733006, 982, 982, 982, 982, 0, 0, 0, 0, 0, 0, 0, 0, 0, 0
VIBE, 57733012, 0.01985189, 0.0200415, 0.03460027, 0, 0, 0
CTRL, 57733016, 2.192539E-05, 5.3761E-05, 3.002953E-05, 7.580445E-05, 6.055212E-06
GPS, 57750410, 3, 36283800, 1958, 13, 0.81, -34.072887, 18.8399914, 77.66, 0.06324555, 341.5651, 0.02, 1
GPA, 57750410, 1.52, 2.70, 5.07, 0.84, 1, 57750
IMU, 57750429, -0.0004465157, 0.0007714916, 0.0005530894, 0.5394124, 0.05306968, -9.771699, 0, 0, 0, 1, 1
IMU, 57790412, -0.0002164962, 0.0006086421, 0.001091957, 0.5315359, 0.05201481, -9.773492, 0, 0, 0, 1, 1
CURR, 57830492, 16.37323, 0, 0.02416901
CUR2, 57830498, 16.37323, 0, 6.849419
MAG, 57830511, 121, 23, -234, -178, 31, -17, 0, 0, 0, 1, 57830504
MAG2, 57830511, 108, 7, -208, -79, 78, -34, 0, 0, 0, 1, 57830507
DU32, 57830527, 7, 17163736
TERR, 57831956, 2, -34.0728894, 18.8399926, 100, 81.3889, -0.007476807, 0, 336
IMU, 57831981, 0.0001099476, -0.0006588453, 0.0007565967, 0.5443231, 0.04322222, -9.75656, 0, 0, 0, 1, 1
BARO, 57832887, -0.1167561, 102037.5, 31.02, 0.1893811, 57832, 0
CTUN, 57832902, 0, 0, 0, 0.3347042, 0, 0.02687239, -0.11, 0.00, 0.00, 0, 0, 0
ATT, 57832971, -0.15, -0.15, 1.64, 1.64, 315.75, 315.76, 0.08, 0.05
NKF1, 57832977, -0.15, 1.64, 315.75, -0.00788244, 0.05016771, -0.0005145853, 0, 1.53933, -0.5032449, -0.02687238, -0.05, -0.01, 0.45
NKF2, 57832977, 2, 0.00, 0.00, 0.00, 0.00, 0.00, 107, 0, -232, 0, 0, 0, 0
NKF3, 57832977, -0.05, 0.06, -0.02, -0.25, 0.06, -0.26, 0, 0, 0, -1.82, 0.00
NKF4, 57832977, 0.01, 0.01, 0.01, 0.02, 0.00, 0.0003603701, 0, -1, 0, 16, 9087, 0, 0
NKF5, 57832977, 0, 0, 0, 0, 0.11, 0.09, 0.02, 0.09, 0.15, 0.003424366, 0.0166923, 0.03798104
AHR2, 57833005, -0.32, 1.60, 321.40, 75.33, -34.072887, 18.8399914
POS, 57833011, -34.0728894, 18.8399926, 75.45, 0.02687238
RATE, 57833014, 0.06633224, 0.06633224, 2.513858E-05, -0.01426249, -0.01426249, -2.973928E-05, -0.4199244, -0.4199244, -1.805752E-06, 0, -1.061916, 0
MOTB, 57833019, 1, 1, 0, 1
RCIN, 57833022, 1491, 1497, 982, 1883, 1167, 982, 982, 982, 982, 982, 982, 982, 1494, 1494
RCOU, 57833027, 982, 982, 982, 982, 0, 0, 0, 0, 0, 0, 0, 0, 0, 0
VIBE, 57833034, 0.01962524, 0.02048786, 0.03303103, 0, 0, 0
CTRL, 57833037, 2.493216E-05, 5.951436E-05, 2.783806E-05, 6.962795E-05, 5.473819E-06
IMU, 57870413, -0.00147885, -0.0002850221, -0.001069436, 0.5351637, 0.04961564, -9.765377, 0, 0, 0, 1, 1
RAD, 57877904, 189, 97, 23, 64, 82, 0, 0
RAD, 57877915, 189, 97, 23, 64, 82, 0, 0
IMU, 57910412, -0.0005125265, -0.0002722416, 0.0002411661, 0.5347329, 0.04367391, -9.750578, 0, 0, 0, 1, 1
CURR, 57930510, 16.32974, 0, 0.02416901
CUR2, 57930516, 16.35149, 0, 6.849419
MAG, 57930531, 122, 22, -232, -178, 31, -17, 0, 0, 0, 1, 57930523
MAG2, 57930531, 110, 5, -212, -79, 78, -34, 0, 0, 0, 1, 57930526
BARO, 57932880, -0.1945934, 102038.4, 31.02, 0.06515403, 57932, 0
CTUN, 57932899, 0, 0, 0, 0.3347042, 0, 0.02154462, -0.19, 0.00, 0.00, 0, 0, 0
ATT, 57932961, -0.15, -0.15, 1.64, 1.64, 315.74, 315.75, 0.08, 0.05
NKF1, 57932965, -0.15, 1.64, 315.74, -0.003106242, 0.04911146, 0.0005672147, 0, 1.554513, -0.505491, -0.02154462, -0.05, -0.01, 0.45
NKF2, 57932965, 2, 0.00, 0.00, 0.00, 0.00, 0.00, 107, 0, -232, 0, 0, 0, 0
NKF3, 57932965, -0.05, 0.06, -0.02, -0.25, 0.06, 0.04, 0, 0, 0, -2.18, 0.00
NKF4, 57932965, 0.01, 0.01, 0.00, 0.02, 0.00, 0.000299602, 0, -1, 0, 16, 9087, 0, 0
NKF5, 57932965, 0, 0, 0, 0, 0.11, 0.09, 0.01, 0.09, 0.15, 0.002955112, 0.01079675, 0.02460288
AHR2, 57932992, -0.41, 1.73, 321.42, 75.25, -34.072887, 18.8399914
POS, 57932999, -34.0728893, 18.8399926, 75.45, 0.02154462
RATE, 57933002, 0.02228289, 0.02228289, 4.339955E-05, 0.03872585, 0.03872585, 4.826059E-05, -0.4265746, -0.4265746, -3.032231E-06, 0, 0.5712509, 0
MOTB, 57933007, 1, 1, 0, 1
RCIN, 57933009, 1491, 1497, 982, 1865, 1167, 982, 982, 982, 982, 982, 982, 982, 1494, 1494
RCOU, 57933014, 982, 982, 982, 982, 0, 0, 0, 0, 0, 0, 0, 0, 0, 0
VIBE, 57933022, 0.0166932, 0.01981457, 0.02959353, 0, 0, 0
CTRL, 57933026, 2.344832E-05, 5.692247E-05, 2.712471E-05, 6.884251E-05, 6.167033E-06
GPS, 57950407, 3, 36284000, 1958, 13, 0.81, -34.0728868, 18.8399914, 77.68, 0.1749285, 59.03624, 0.07, 1
GPA, 57950407, 1.52, 2.71, 5.09, 0.72, 1, 57950
IMU, 57950428, -0.002068035, -0.001042507, -0.0001793429, 0.5389105, 0.06000494, -9.77278, 0, 0, 0, 1, 1
IMU, 57990415, -5.962937E-05, -0.0002223497, 0.0006040437, 0.5352447, 0.04012713, -9.7792, 0, 0, 0, 1, 1
CURR, 58030498, 16.74288, 0, 0.02416901
CUR2, 58030506, 16.41672, 0, 6.849419
MAG, 58030521, 119, 35, -232, -178, 31, -17, 0, 0, 0, 1, 58030513
MAG2, 58030521, 117, 13, -221, -79, 78, -34, 0, 0, 0, 1, 58030517
IMU, 58030539, 0.0001355311, 0.0004409824, -0.000580032, 0.5420718, 0.04942705, -9.776109, 0, 0, 0, 1, 1
BARO, 58032975, -0.06115793, 102036.9, 31.02, -0.09555928, 58032, 0
CTUN, 58032995, 0, 0, 0, 0.3347042, 0, 0.01682733, -0.06, 0.00, 0.00, 0, 0, 0
ATT, 58033052, -0.14, -0.14, 1.63, 1.63, 315.72, 315.73, 0.08, 0.05
NKF1, 58033057, -0.14, 1.63, 315.72, 0.001813929, 0.04978357, 0.001295613, 0, 1.570894, -0.5040613, -0.01682733, -0.05, -0.01, 0.45
NKF2, 58033057, 2, 0.00, 0.00, 0.00, 0.00, 0.00, 107, 0, -232, 0, 0, 0, 0
NKF3, 58033057, -0.08, -0.11, -0.06, -0.24, 0.08, -0.13, 0, 0, 0, -7.81, 0.00
NKF4, 58033057, 0.03, 0.01, 0.00, 0.09, 0.00, 0.000272719, 0, -1, 0, 16, 9087, 0, 0
NKF5, 58033057, 0, 0, 0, 0, 0.10, 0.09, 0.01, 0.09, 0.15, 0.003235164, 0.0102833, 0.02312435
AHR2, 58033088, -0.35, 1.79, 321.45, 75.38, -34.0728868, 18.8399914
POS, 58033095, -34.0728891, 18.8399926, 75.45, 0.01682733
RATE, 58033099, 0.06020031, 0.06020031, 3.459417E-05, 0.04071378, 0.04071378, 2.74611E-05, -0.4974262, -0.4974262, 1.200601E-05, 0, 1.14212, 0
MOTB, 58033104, 1, 1, 0, 1
RCIN, 58033108, 1491, 1497, 982, 1828, 1167, 982, 982, 982, 982, 982, 982, 982, 1494, 1494
RCOU, 58033113, 982, 982, 982, 982, 0, 0, 0, 0, 0, 0, 0, 0, 0, 0
VIBE, 58033121, 0.01866436, 0.01989898, 0.02838549, 0, 0, 0
CTRL, 58033125, 2.354127E-05, 5.624993E-05, 2.539218E-05, 6.398177E-05, 6.248525E-06
IMU, 58070437, 4.542409E-05, -0.0008300515, 0.0004117363, 0.5317767, 0.04794662, -9.76453, 0, 0, 0, 1, 1
IMU, 58110421, -0.0002079739, -0.0003686613, -0.0006774014, 0.5445203, 0.04300106, -9.76858, 0, 0, 0, 1, 1
CURR, 58130515, 16.41672, 0, 0.02416901
CUR2, 58130521, 16.37323, 0, 6.849419
MAG, 58130536, 116, 32, -232, -178, 31, -17, 0, 0, 0, 1, 58130528
MAG2, 58130536, 111, 16, -213, -79, 78, -34, 0, 0, 0, 1, 58130531
BARO, 58132869, -0.1111962, 102037.4, 31.02, -0.2371608, 58132, 0
CTUN, 58132889, 0, 0, 0, 0.3347042, 0, 0.01162558, -0.11, 0.00, 0.00, 0, 0, 0
ATT, 58132941, -0.14, -0.14, 1.63, 1.63, 315.72, 315.73, 0.08, 0.05
NKF1, 58132946, -0.14, 1.63, 315.72, 0.006334864, 0.05133099, 0.002051332, 0, 1.586032, -0.5006041, -0.01162558, -0.05, -0.01, 0.45
NKF2, 58132946, 2, 0.00, 0.00, 0.00, 0.00, 0.00, 107, 0, -232, 0, 0, 0, 0
NKF3, 58132946, -0.08, -0.11, -0.06, -0.24, 0.08, -0.20, 0, 0, 0, -8.27, 0.00
NKF4, 58132946, 0.03, 0.01, 0.01, 0.09, 0.00, 0.0002653112, 0, -1, 0, 16, 9087, 0, 0
NKF5, 58132946, 0, 0, 0, 0, 0.10, 0.09, 0.00, 0.09, 0.15, 0.003645474, 0.005248731, 0.01286346
AHR2, 58132975, -0.26, 1.84, 321.41, 75.33, -34.0728868, 18.8399914
POS, 58132981, -34.072889, 18.8399926, 75.45, 0.01162558
RATE, 58132984, 0.05400066, 0.05400066, 4.166652E-05, 0.08154649, 0.08154649, 2.379546E-06, -0.4748605, -0.4748605, 4.571098E-06, 0, 0.8165359, 0
MOTB, 58132989, 1, 1, 0, 1
RCIN, 58132992, 1491, 1497, 982, 1817, 1167, 982, 982, 982, 982, 982, 982, 982, 1494, 1494
RCOU, 58132997, 982, 982, 982, 982, 0, 0, 0, 0, 0, 0, 0, 0, 0, 0
VIBE, 58133003, 0.01830273, 0.01970263, 0.02763415, 0, 0, 0
CTRL, 58133007, 2.51541E-05, 6.179653E-05, 2.741257E-05, 6.809918E-05, 6.196225E-06
GPS, 58150413, 3, 36284200, 1958, 13, 0.81, -34.0728866, 18.8399915, 77.64, 0.03605551, 33.69007, -0.01, 1
GPA, 58150413, 1.52, 2.72, 5.11, 0.77, 1, 58150
IMU, 58150433, -0.0003258984, -0.0001397944, 0.0001620154, 0.5568472, 0.04774937, -9.778299, 0, 0, 0, 1, 1
IMU, 58190414, -0.001078591, 0.0008694275, -0.0006773511, 0.5323316, 0.04847948, -9.740679, 0, 0, 0, 1, 1
CURR, 58230487, 16.37323, 0, 0.02416901
CUR2, 58230493, 16.48195, 0, 6.849419
MAG, 58230507, 118, 31, -229, -178, 31, -17, 0, 0, 0, 1, 58230500
MAG2, 58230507, 109, 20, -216, -79, 78, -34, 0, 0, 0, 1, 58230503
IMU, 58230526, -0.0008097, -0.0003748471, -0.0002343668, 0.5340063, 0.04681555, -9.758596, 0, 0, 0, 1, 1
BARO, 58232873, -0.2168327, 102038.6, 31.02, -0.1268332, 58232, 0
CTUN, 58232892, 0, 0, 0, 0.3347042, 0, 0.006501039, -0.21, 0.00, 0.00, 0, 0, 0
ATT, 58232949, -0.14, -0.14, 1.62, 1.62, 315.71, 315.72, 0.08, 0.05
NKF1, 58232954, -0.14, 1.62, 315.71, 0.01050694, 0.05212947, 0.003820972, 0, 1.600572, -0.4985151, -0.006501039, -0.05, -0.01, 0.45
NKF2, 58232954, 2, 0.00, 0.00, 0.00, 0.00, 0.00, 107, 0, -232, 0, 0, 0, 0
NKF3, 58232954, -0.01, 0.02, 0.01, -0.25, 0.07, -0.06, 0, 0, 0, -1.57, 0.00
NKF4, 58232954, 0.00, 0.01, 0.00, 0.01, 0.00, 0.0002322986, 0, -1, 0, 16, 9087, 0, 0
NKF5, 58232954, 0, 0, 0, 0, 0.10, 0.09, 0.00, 0.09, 0.15, 0.003286692, 0.005977461, 0.01713781
AHR2, 58232984, -0.31, 1.84, 321.37, 75.23, -34.0728866, 18.8399915
POS, 58232991, -34.0728889, 18.8399926, 75.43999, 0.006501039
RATE, 58232994, 0.008542718, 0.008542718, 7.837883E-06, -0.001188214, -0.001188214, -1.654438E-05, -0.4734171, -0.4734171, -3.018132E-07, 0, -0.7637024, 0
MOTB, 58232999, 1, 1, 0, 1
RCIN, 58233002, 1491, 1497, 982, 1778, 1167, 982, 982, 982, 982, 982, 982, 982, 1494, 1494
RCOU, 58233007, 982, 982, 982, 982, 0, 0, 0, 0, 0, 0, 0, 0, 0, 0
VIBE, 58233013, 0.01987947, 0.01952879, 0.03102846, 0, 0, 0
CTRL, 58233017, 2.211113E-05, 5.413229E-05, 2.864447E-05, 7.110635E-05, 5.827314E-06
IMU, 58270407, 0.000364195, 0.0001970359, 0.0003670323, 0.5400823, 0.05640573, -9.756764, 0, 0, 0, 1, 1
IMU, 58310413, -0.0003702022, -9.140675E-05, -0.001144521, 0.5406445, 0.05441865, -9.766283, 0, 0, 0, 1, 1
CURR, 58330499, 16.41672, 0, 0.02416901
CUR2, 58330504, 16.48195, 0, 6.849419
MAG, 58330519, 118, 37, -233, -178, 31, -17, 0, 0, 0, 1, 58330511
MAG2, 58330519, 111, 14, -216, -79, 78, -34, 0, 0, 0, 1, 58330514
BARO, 58332890, 0, 102036.1, 31.02, -0.01563697, 58332, 0
CTUN, 58332910, 0, 0, 0, 0.3347042, 0, 0.002065124, 0.00, 0.00, 0.00, 0, 0, 0
ATT, 58332966, -0.13, -0.13, 1.62, 1.62, 315.70, 315.71, 0.08, 0.05
NKF1, 58332972, -0.13, 1.62, 315.70, 0.01376483, 0.05304078, 0.00531173, 0, 1.613418, -0.4964987, -0.002065124, -0.05, -0.01, 0.45
NKF2, 58332972, 2, 0.00, 0.00, 0.00, 0.00, 0.00, 107, 0, -232, 0, 0, 0, 0
NKF3, 58332972, -0.01, 0.02, 0.01, -0.25, 0.07, -0.11, 0, 0, 0, -2.56, 0.00
NKF4, 58332972, 0.00, 0.01, 0.00, 0.02, 0.00, 0.0001893684, 0, -1, 0, 16, 9087, 0, 0
NKF5, 58332972, 0, 0, 0, 0, 0.10, 0.09, 0.00, 0.09, 0.15, 0.003072721, 0.003277692, 0.01099816
AHR2, 58333001, -0.38, 1.82, 321.34, 75.45, -34.0728866, 18.8399915
POS, 58333007, -34.0728888, 18.8399927, 75.43999, 0.002065124
RATE, 58333010, -0.00367091, -0.00367091, 2.461972E-05, 0.02062554, 0.02062554, -9.398886E-07, -0.506158, -0.506158, 3.4279E-06, 0, -0.00667572, 0
MOTB, 58333015, 1, 1, 0, 1
RCIN, 58333018, 1491, 1497, 982, 1730, 1167, 982, 982, 982, 982, 982, 982, 982, 1494, 1494
RCOU, 58333023, 982, 982, 982, 982, 0, 0, 0, 0, 0, 0, 0, 0, 0, 0
VIBE, 58333029, 0.01851927, 0.01922404, 0.03070171, 0, 0, 0
CTRL, 58333033, 2.216773E-05, 5.431193E-05, 2.874617E-05, 7.111167E-05, 6.372072E-06
GPS, 58350413, 3, 36284400, 1958, 13, 0.81, -34.0728865, 18.8399912, 77.68, 0.1077033, 291.8014, -0.01, 1
GPA, 58350413, 1.52, 2.73, 5.14, 0.76, 1, 58350
IMU, 58350432, -0.0006873916, 0.0003971893, -7.912711E-06, 0.5361512, 0.05363512, -9.757177, 0, 0, 0, 1, 1
IMU, 58390415, -0.0004420473, -0.0005702897, -0.0002782113, 0.5406159, 0.04589295, -9.789783, 0, 0, 0, 1, 1
CURR, 58430487, 16.39498, 0, 0.02416901
CUR2, 58430495, 16.46021, 0, 6.849419
MAG, 58430511, 116, 31, -239, -178, 31, -17, 0, 0, 0, 1, 58430501
MAG2, 58430511, 107, 11, -213, -79, 78, -34, 0, 0, 0, 1, 58430506
IMU, 58430531, -0.0003537356, -5.057771E-05, -0.0001844353, 0.5583516, 0.05889264, -9.76596, 0, 0, 0, 1, 1
BARO, 58432874, -0.3447084, 102040.1, 31.02, -0.07123513, 58432, 0
CTUN, 58432894, 0, 0, 0, 0.3347042, 0, -0.002268722, -0.34, 0.00, 0.00, 0, 0, 0
ATT, 58432945, -0.13, -0.13, 1.62, 1.62, 315.69, 315.70, 0.07, 0.05
NKF1, 58432949, -0.13, 1.62, 315.69, 0.01708675, 0.05103825, 0.005863593, 0, 1.626478, -0.4993917, 0.002268722, -0.05, -0.01, 0.44
NKF2, 58432949, 2, 0.00, 0.00, 0.00, 0.00, 0.00, 107, 0, -232, 0, 0, 0, 0
NKF3, 58432949, -0.02, 0.14, 0.01, -0.24, 0.08, -0.21, 0, 0, 0, -3.22, 0.00
NKF4, 58432949, 0.03, 0.01, 0.01, 0.03, 0.00, 0.0001951917, 0, -1, 0, 16, 9087, 0, 0
NKF5, 58432949, 0, 0, 0, 0, 0.10, 0.10, 0.00, 0.09, 0.15, 0.002880686, 0.01352874, 0.03192354
AHR2, 58432976, -0.44, 1.78, 321.28, 75.1, -34.0728865, 18.8399912
POS, 58432983, -34.0728886, 18.8399926, 75.43, -0.002268722
RATE, 58432986, 0.05134806, 0.05134806, -0.0001312801, 0.02755454, 0.02755454, -6.822847E-05, -0.4768226, -0.4768226, 6.903927E-06, 0, 0.3292084, 0
MOTB, 58432991, 1, 1, 0, 1
RCIN, 58432994, 1491, 1497, 982, 1688, 1167, 982, 982, 982, 982, 982, 982, 982, 1494, 1494
RCOU, 58432999, 982, 982, 982, 982, 0, 0, 0, 0, 0, 0, 0, 0, 0, 0
VIBE, 58433006, 0.01989705, 0.02109673, 0.03002967, 0, 0, 0
CTRL, 58433010, 2.083015E-05, 5.234963E-05, 2.816917E-05, 7.127188E-05, 6.125931E-06
IMU, 58470405, 0.0001759979, 0.0005198005, -0.000280338, 0.5346516, 0.05954093, -9.769341, 0, 0, 0, 1, 1
IMU, 58510425, -0.0008485403, -0.0004861263, -1.323956E-05, 0.5379939, 0.05421855, -9.782845, 0, 0, 0, 1, 1
CURR, 58530535, 16.39498, 0, 0.02416901
CUR2, 58530543, 16.37323, 0, 6.849419
MAG, 58530558, 115, 34, -235, -178, 31, -17, 0, 0, 0, 1, 58530549
MAG2, 58530558, 109, 11, -211, -79, 78, -34, 0, 0, 0, 1, 58530553
BARO, 58532891, -0.355828, 102040.3, 31.03, -0.2310797, 58532, 0
CTUN, 58532913, 0, 0, 0, 0.3347042, 0, -0.006683524, -0.35, 0.00, 0.00, 0, 0, 0
ATT, 58532966, -0.13, -0.13, 1.62, 1.62, 315.68, 315.69, 0.07, 0.05
NKF1, 58532971, -0.13, 1.62, 315.68, 0.01974489, 0.04884163, 0.005468124, 0, 1.638155, -0.5040992, 0.006683524, -0.05, -0.01, 0.45
NKF2, 58532971, 2, 0.00, 0.00, 0.00, 0.00, 0.00, 107, 0, -232, 0, 0, 0, 0
NKF3, 58532971, -0.02, 0.14, 0.01, -0.24, 0.08, 0.00, 0, 0, 0, -0.56, 0.00
NKF4, 58532971, 0.03, 0.01, 0.00, 0.00, 0.00, 0.0002253309, 0, -1, 0, 16, 9087, 0, 0
NKF5, 58532971, 0, 0, 0, 0, 0.10, 0.10, 0.00, 0.09, 0.15, 0.002319699, 0.009721722, 0.0238959
AHR2, 58532999, -0.49, 1.73, 321.26, 75.09, -34.0728865, 18.8399912
POS, 58533005, -34.0728885, 18.8399926, 75.43, -0.006683524
RATE, 58533009, -0.008677982, -0.008677982, 2.026679E-05, 0.1182299, 0.1182299, 3.629172E-05, -0.4623999, -0.4623999, 1.484816E-06, 0, 1.356316, 0
MOTB, 58533014, 1, 1, 0, 1
RCIN, 58533019, 1491, 1497, 982, 1649, 1167, 982, 982, 982, 982, 982, 982, 982, 1494, 1494
RCOU, 58533023, 982, 982, 982, 982, 0, 0, 0, 0, 0, 0, 0, 0, 0, 0
VIBE, 58533031, 0.01943299, 0.01860661, 0.02993725, 0, 0, 0
CTRL, 58533035, 2.120712E-05, 5.355715E-05, 2.792666E-05, 6.771772E-05, 5.506658E-06
GPS, 58550413, 3, 36284600, 1958, 13, 0.81, -34.0728864, 18.8399905, 77.81, 0.02828427, 315, 0.01, 1
GPA, 58550413, 1.52, 2.74, 5.16, 0.79, 1, 58550
IMU, 58550432, -0.0001740279, -4.599694E-06, 0.0003462391, 0.5291834, 0.04891011, -9.753069, 0, 0, 0, 1, 1
IMU, 58590412, -0.0007551038, -0.0006308838, -8.456914E-05, 0.5376234, 0.04350358, -9.771425, 0, 0, 0, 1, 1
CURR, 58630492, 16.41672, 0, 0.02416901
CUR2, 58630499, 16.39498, 0, 6.849419
MAG, 58630513, 112, 36, -232, -178, 31, -17, 0, 0, 0, 1, 58630506
MAG2, 58630513, 113, 20, -213, -79, 78, -34, 0, 0, 0, 1, 58630509
IMU, 58630534, 0.0005674133, 0.0002159716, 0.0007721801, 0.5489033, 0.04938252, -9.771479, 0, 0, 0, 1, 1
BARO, 58632885, 0.1389953, 102034.5, 31.02, -0.4430475, 58632, 0
CTUN, 58632904, 0, 0, 0, 0.3347042, 0, -0.0106045, 0.13, 0.00, 0.00, 0, 0, 0
ATT, 58632961, -0.13, -0.13, 1.61, 1.61, 315.66, 315.67, 0.06, 0.05
NKF1, 58632966, -0.13, 1.61, 315.66, 0.02171762, 0.04600113, 0.00599683, 0, 1.649513, -0.5098084, 0.0106045, -0.05, -0.01, 0.45
NKF2, 58632966, 2, 0.00, 0.00, 0.00, 0.00, 0.00, 107, 0, -232, 0, 0, 0, 0
NKF3, 58632966, 0.00, 0.05, 0.00, -0.24, 0.14, -0.33, 0, 0, 0, -3.02, 0.00
NKF4, 58632966, 0.01, 0.01, 0.02, 0.03, 0.00, 0.0002162873, 0, -1, 0, 16, 9087, 0, 0
NKF5, 58632966, 0, 0, 0, 0, 0.10, 0.11, 0.00, 0.09, 0.15, 0.002146839, 0.01199718, 0.03112451
AHR2, 58632994, -0.48, 1.74, 321.22, 75.58, -34.0728864, 18.8399905
POS, 58633000, -34.0728884, 18.8399925, 75.43, -0.0106045
RATE, 58633004, 0.0833382, 0.0833382, 5.007284E-05, 0.03657198, 0.03657198, -6.07629E-05, -0.4074928, -0.4074928, -5.067179E-06, 0, 0.565052, 0
MOTB, 58633008, 1, 1, 0, 1
RCIN, 58633011, 1491, 1497, 982, 1597, 1167, 982, 982, 982, 982, 982, 982, 982, 1494, 1494
RCOU, 58633016, 982, 982, 982, 982, 0, 0, 0, 0, 0, 0, 0, 0, 0, 0
VIBE, 58633023, 0.01989296, 0.020577, 0.03069043, 0, 0, 0
CTRL, 58633027, 2.24897E-05, 5.711319E-05, 2.682893E-05, 6.489213E-05, 5.815306E-06
IMU, 58670403, -0.0006834691, -0.0006039586, 0.0001322965, 0.539847, 0.04170488, -9.757488, 0, 0, 0, 1, 1
IMU, 58710403, -0.0009906143, -0.0001112577, -0.000463146, 0.5440949, 0.04932542, -9.76747, 0, 0, 0, 1, 1
CURR, 58730502, 16.28626, 0, 0.02416901
CUR2, 58730509, 16.308, 0, 6.849419
MAG, 58730524, 115, 22, -232, -178, 31, -17, 0, 0, 0, 1, 58730516
MAG2, 58730524, 111, 6, -210, -79, 78, -34, 0, 0, 0, 1, 58730520
BARO, 58732873, -0.088957, 102037.2, 31.02, -0.1042465, 58732, 0
CTUN, 58732891, 0, 0, 0, 0.3347042, 0, -0.01648836, -0.08, 0.00, 0.00, 0, 0, 0
ATT, 58732943, -0.13, -0.13, 1.61, 1.61, 315.64, 315.65, 0.06, 0.05
NKF1, 58732947, -0.13, 1.61, 315.64, 0.0233024, 0.04365113, 0.007315689, 0, 1.659586, -0.5152073, 0.01648836, -0.05, -0.01, 0.44
NKF2, 58732947, 2, 0.00, 0.00, 0.00, 0.00, 0.00, 107, 0, -232, 0, 0, 0, 0
NKF3, 58732947, 0.00, 0.05, 0.00, -0.24, 0.14, -0.34, 0, 0, 0, -1.58, 0.00
NKF4, 58732947, 0.01, 0.01, 0.02, 0.01, 0.00, 0.0001867199, 0, -1, 0, 16, 9087, 0, 0
NKF5, 58732947, 0, 0, 0, 0, 0.10, 0.12, 0.00, 0.09, 0.15, 0.001810593, 0.009232811, 0.02636089
AHR2, 58732973, -0.45, 1.78, 321.16, 75.36, -34.0728864, 18.8399905
POS, 58732979, -34.0728883, 18.8399925, 75.43, -0.01648836
RATE, 58732982, 0.08339045, 0.08339045, 9.644937E-05, 0.05649177, 0.05649177, 0.0001149113, -0.3859553, -0.3859553, -1.434423E-05, 0, -0.6285667, 0
MOTB, 58732986, 1, 1, 0, 1
RCIN, 58732989, 1491, 1497, 982, 1543, 1167, 982, 982, 982, 982, 982, 982, 982, 1494, 1494
RCOU, 58732993, 982, 982, 982, 982, 0, 0, 0, 0, 0, 0, 0, 0, 0, 0
VIBE, 58733000, 0.01997348, 0.02023867, 0.0288834, 0, 0, 0
CTRL, 58733003, 2.298552E-05, 5.686067E-05, 2.679043E-05, 6.415552E-05, 6.080718E-06
GPS, 58750409, 3, 36284800, 1958, 13, 0.81, -34.0728865, 18.8399904, 77.84, 0.1931321, 158.7495, -0.03, 1
GPA, 58750409, 1.52, 2.75, 5.18, 0.84, 1, 58750
IMU, 58750430, -0.0002320573, -0.0007246809, 0.0003857782, 0.5462456, 0.05606699, -9.786099, 0, 0, 0, 1, 1
IMU, 58790406, -0.001293337, 0.0005205892, -0.0005765359, 0.53497, 0.0417489, -9.759525, 0, 0, 0, 1, 1
CURR, 58830491, 16.41672, 0, 0.02416901
CUR2, 58830498, 16.41672, 0, 6.849419
MAG, 58830513, 114, 37, -229, -178, 31, -17, 0, 0, 0, 1, 58830505
MAG2, 58830513, 110, 15, -214, -79, 78, -34, 0, 0, 0, 1, 58830509
DU32, 58830529, 7, 17163736
TERR, 58831948, 2, -34.0728883, 18.8399924, 100, 81.39884, -0.03741455, 0, 336
IMU, 58831974, -0.001032975, -0.0005781662, 0.001060989, 0.5483809, 0.05556157, -9.783114, 0, 0, 0, 1, 1
BARO, 58832887, 0.07505747, 102035.3, 31.02, 0.7358063, 58832, 0
CTUN, 58832902, 0, 0, 0, 0.3347042, 0, -0.02230844, 0.07, 0.00, 0.00, 0, 0, 0
ATT, 58832967, -0.14, -0.14, 1.61, 1.61, 315.62, 315.63, 0.07, 0.06
NKF1, 58832971, -0.14, 1.61, 315.62, 0.02211089, 0.04217549, 0.007742422, 0, 1.664178, -0.5192819, 0.02230844, -0.05, -0.01, 0.45
NKF2, 58832971, 2, 0.00, 0.00, 0.00, 0.00, 0.00, 107, 0, -232, 0, 0, 0, 0
NKF3, 58832971, 0.20, -0.03, 0.03, -0.23, 0.15, 0.16, 0, 0, 0, 0.02, 0.00
NKF4, 58832971, 0.04, 0.01, 0.01, 0.00, 0.00, 0.0001928924, 0, -1, 0, 16, 9087, 0, 0
NKF5, 58832971, 0, 0, 0, 0, 0.10, 0.12, 0.00, 0.09, 0.15, 0.001392244, 0.01467604, 0.0326927
AHR2, 58832999, -0.47, 1.88, 321.19, 75.52, -34.0728865, 18.8399904
POS, 58833006, -34.0728883, 18.8399924, 75.43, -0.02230844
RATE, 58833008, 0.006673014, 0.006673014, -7.645215E-05, -0.01515142, -0.01515142, -4.296029E-06, -0.4106484, -0.4106484, 9.163591E-07, 0, 1.471233, 0
MOTB, 58833013, 1, 1, 0, 1
RCIN, 58833016, 1491, 1497, 982, 1496, 1167, 982, 982, 982, 982, 982, 982, 982, 1494, 1494
RCOU, 58833021, 982, 982, 982, 982, 0, 0, 0, 0, 0, 0, 0, 0, 0, 0
VIBE, 58833027, 0.01892753, 0.0193778, 0.0270553, 0, 0, 0
CTRL, 58833031, 2.176819E-05, 5.341095E-05, 2.467897E-05, 5.914486E-05, 7.61774E-06
IMU, 58870415, -6.056295E-05, 3.911416E-05, -0.0001093544, 0.5461842, 0.0522945, -9.762746, 0, 0, 0, 1, 1
IMU, 58910405, -0.0003331378, 0.001001281, -0.000205424, 0.5443802, 0.06625826, -9.765187, 0, 0, 0, 1, 1
CURR, 58930513, 16.39498, 0, 0.02416901
CUR2, 58930520, 16.39498, 0, 6.849419
MAG, 58930534, 115, 13, -228, -178, 31, -17, 0, 0, 0, 1, 58930526
MAG2, 58930534, 120, 1, -215, -79, 78, -34, 0, 0, 0, 1, 58930530
BARO, 58932881, 0.04169859, 102035.7, 31.02, 0.954724, 58932, 0
CTUN, 58932900, 0, 0, 0, 0.3347042, 0, -0.02548892, 0.04, 0.00, 0.00, 0, 0, 0
ATT, 58932954, -0.14, -0.14, 1.61, 1.61, 315.59, 315.60, 0.07, 0.07
NKF1, 58932959, -0.14, 1.61, 315.59, 0.0202757, 0.04161372, 0.008298635, 0, 1.66576, -0.5216768, 0.02548892, -0.05, -0.01, 0.44
NKF2, 58932959, 2, 0.00, 0.00, 0.00, 0.00, 0.00, 107, 0, -232, 0, 0, 0, 0
NKF3, 58932959, 0.20, -0.03, 0.03, -0.23, 0.15, -0.06, 0, 0, 0, -7.69, 0.00
NKF4, 58932959, 0.04, 0.01, 0.00, 0.08, 0.00, 0.0002167923, 0, -1, 0, 16, 9087, 0, 0
NKF5, 58932959, 0, 0, 0, 0, 0.10, 0.12, 0.00, 0.09, 0.15, 0.001987335, 0.01255631, 0.03071529
AHR2, 58932987, -0.50, 2.00, 321.13, 75.49, -34.0728865, 18.8399904
POS, 58932994, -34.0728883, 18.8399924, 75.43, -0.02548892
RATE, 58932998, 0.002725566, 0.002725566, 5.349288E-06, -0.0107926, -0.0107926, -8.098472E-05, -0.4379984, -0.4379984, -1.139835E-06, 0, -0.3774643, 0
MOTB, 58933002, 1, 1, 0, 1
RCIN, 58933005, 1491, 1497, 982, 1492, 1167, 982, 982, 982, 982, 982, 982, 982, 1494, 1494
RCOU, 58933010, 982, 982, 982, 982, 0, 0, 0, 0, 0, 0, 0, 0, 0, 0
VIBE, 58933017, 0.01853577, 0.01899057, 0.03031218, 0, 0, 0
CTRL, 58933021, 2.107085E-05, 5.162468E-05, 2.905719E-05, 7.054652E-05, 6.961495E-06
EV, 58935084, 57
GPS, 58950418, 3, 36285000, 1958, 13, 0.81, -34.0728866, 18.8399907, 77.73, 0.1431782, 167.9052, -0.01, 1
GPA, 58950418, 1.52, 2.75, 5.19, 0.82, 1, 58950
IMU, 58950438, -7.694861E-05, 0.0007126774, 0.000422394, 0.5387663, 0.05156891, -9.762998, 0, 0, 0, 1, 1
IMU, 58990423, 0.000235221, -0.0006288622, 0.001138376, 0.5471464, 0.04875346, -9.766569, 0, 0, 0, 1, 1
CURR, 59030515, 16.43846, 0, 0.02416901
CUR2, 59030523, 16.41672, 0, 6.849419
MAG, 59030538, 115, 36, -233, -178, 31, -17, 0, 0, 0, 1, 59030530
MAG2, 59030538, 113, 21, -212, -79, 78, -34, 0, 0, 0, 1, 59030533
IMU, 59030558, -0.0003404078, 0.0006988253, -0.0006024631, 0.5336444, 0.04197303, -9.777117, 0, 0, 0, 1, 1
BARO, 59032892, -0.1278757, 102037.6, 31.02, 0.4647656, 59032, 0
CTUN, 59032911, 0, 0, 0, 0.3347042, 0, -0.02791863, -0.12, 0.00, 0.00, 0, 0, 0
ATT, 59032972, -0.15, -0.15, 1.61, 1.61, 315.57, 315.58, 0.06, 0.07
NKF1, 59032977, -0.15, 1.61, 315.57, 0.01629493, 0.04082821, 0.008226062, 0, 1.664658, -0.5242275, 0.02791863, -0.05, -0.01, 0.44
NKF2, 59032977, 2, 0.00, 0.00, 0.00, 0.00, 0.00, 107, 0, -232, 0, 0, 0, 0
NKF3, 59032977, 0.14, 0.00, 0.01, -0.23, 0.12, 0.09, 0, 0, 0, 0.06, 0.00
NKF4, 59032977, 0.03, 0.01, 0.00, 0.00, 0.00, 0.0002211025, 0, -1, 0, 16, 9087, 0, 0
NKF5, 59032977, 0, 0, 0, 0, 0.10, 0.12, 0.00, 0.09, 0.15, 0.001714324, 0.01767567, 0.03889485
AHR2, 59033006, -0.50, 2.00, 321.21, 75.32, -34.0728866, 18.8399907
POS, 59033013, -34.0728883, 18.8399924, 75.43, -0.02791863
RATE, 59033017, 0.03241597, 0.03241597, 1.552935E-05, 0.06084572, 0.06084572, 2.384029E-05, -0.481334, -0.481334, 6.68377E-06, 0, 0.6954193, 0
MOTB, 59033022, 1, 1, 0, 1
RCIN, 59033025, 1491, 1497, 982, 1490, 1167, 982, 982, 982, 982, 982, 982, 982, 1494, 1494
RCOU, 59033030, 1011, 1011, 1011, 1011, 0, 0, 0, 0, 0, 0, 0, 0, 0, 0
VIBE, 59033037, 0.01962193, 0.02034369, 0.02687667, 0, 0, 0
CTRL, 59033040, 2.067706E-05, 5.114246E-05, 2.74639E-05, 6.682752E-05, 7.586024E-06
IMU, 59070403, -0.0006951496, 0.0008108871, -0.0007458189, 0.5442651, 0.04901294, -9.751696, 0, 0, 0, 1, 1
IMU, 59110404, 0.0003544921, -0.0007066154, -0.0008587202, 0.5386526, 0.05016077, -9.779035, 0, 0, 0, 1, 1
CURR, 59130509, 16.41672, 0, 0.02416901
CUR2, 59130517, 16.43846, 0, 6.849419
MAG, 59130532, 119, 32, -226, -178, 31, -17, 0, 0, 0, 1, 59130524
MAG2, 59130532, 110, 16, -213, -79, 78, -34, 0, 0, 0, 1, 59130527
BARO, 59132909, -0.01111962, 102036.3, 31.01, -0.021718, 59132, 0
CTUN, 59132929, 0, 0, 0, 0.3347042, 0, -0.0289228, -0.01, 0.00, 0.00, 0, 0, 0
ATT, 59132985, -0.15, -0.15, 1.62, 1.62, 315.54, 315.55, 0.06, 0.06
NKF1, 59132990, -0.15, 1.62, 315.54, 0.01228554, 0.04028433, 0.008392111, 0, 1.66209, -0.5259639, 0.0289228, -0.05, -0.01, 0.44
NKF2, 59132990, 2, 0.00, 0.00, 0.00, 0.00, 0.00, 107, 0, -232, 0, 0, 0, 0
NKF3, 59132990, 0.14, 0.00, 0.01, -0.23, 0.12, 0.06, 0, 0, 0, -13.01, 0.00
NKF4, 59132990, 0.03, 0.01, 0.00, 0.15, 0.00, 0.0002150386, 0, -1, 0, 16, 9087, 0, 0
NKF5, 59132990, 0, 0, 0, 0, 0.10, 0.12, 0.00, 0.09, 0.15, 0.003087807, 0.01458358, 0.03619492
AHR2, 59133020, -0.50, 1.96, 321.16, 75.43, -34.0728866, 18.8399907
POS, 59133027, -34.0728883, 18.8399923, 75.43, -0.0289228
RATE, 59133030, 0.0266629, 0.0266629, -3.739842E-05, 0.04069054, 0.04069054, 8.425447E-05, -0.4333466, -0.4333466, -8.646771E-06, 0, 1.483727, 0
MOTB, 59133034, 1, 1, 0, 1
RCIN, 59133038, 1491, 1497, 982, 1489, 1167, 982, 982, 982, 982, 982, 982, 982, 1494, 1494
RCOU, 59133042, 1042, 1042, 1042, 1042, 0, 0, 0, 0, 0, 0, 0, 0, 0, 0
VIBE, 59133049, 0.02081392, 0.01856267, 0.02732619, 0, 0, 0
CTRL, 59133053, 2.183841E-05, 5.482035E-05, 3.142273E-05, 7.58225E-05, 8.531604E-06
GPS, 59150415, 3, 36285200, 1958, 13, 0.81, -34.0728867, 18.8399911, 77.64, 0.3538361, 132.7094, 0, 1
GPA, 59150415, 1.52, 2.76, 5.21, 0.79, 1, 59150
IMU, 59150434, -0.0005820503, -0.0002888347, -0.0005877645, 0.5490781, 0.0459998, -9.769737, 0, 0, 0, 1, 1
IMU, 59190404, 0.0001466016, 0.0006241234, 0.0002499591, 0.5537104, 0.05508946, -9.772729, 0, 0, 0, 1, 1
CURR, 59230483, 16.41672, 0, 0.02416901
CUR2, 59230491, 16.46021, 0, 6.849419
MAG, 59230506, 117, 36, -230, -178, 31, -17, 0, 0, 0, 1, 59230498
MAG2, 59230506, 111, 25, -212, -79, 78, -34, 0, 0, 0, 1, 59230502
IMU, 59230525, -0.002083442, 0.0002459796, -0.001082172, 0.5445862, 0.0471899, -9.772047, 0, 0, 0, 1, 1
BARO, 59232894, -0.1167561, 102037.5, 31.00, -0.2997087, 59232, 0
CTUN, 59232914, 0, 0, 0, 0.3347042, 0, -0.02939943, -0.11, 0.00, 0.00, 0, 0, 0
ATT, 59232992, -0.15, -0.15, 1.62, 1.62, 315.53, 315.54, 0.07, 0.06
NKF1, 59232997, -0.15, 1.62, 315.53, 0.00593851, 0.04300068, 0.007681745, 0, 1.654789, -0.5209583, 0.02939943, -0.05, -0.01, 0.44
NKF2, 59232997, 2, 0.00, 0.00, 0.00, 0.00, 0.00, 107, 0, -232, 0, 0, 0, 0
NKF3, 59232997, 0.23, -0.22, 0.00, -0.24, 0.12, -0.11, 0, 0, 0, -0.65, 0.00
NKF4, 59232997, 0.07, 0.01, 0.00, 0.00, 0.00, 0.0002640223, 0, -1, 0, 16, 9087, 0, 0
NKF5, 59232997, 0, 0, 0, 0, 0.10, 0.12, 0.00, 0.09, 0.15, 0.00300752, 0.02668664, 0.05245866
AHR2, 59233023, -0.45, 2.05, 321.13, 75.33, -34.0728867, 18.8399911
POS, 59233029, -34.0728884, 18.8399924, 75.43, -0.02939943
RATE, 59233032, -0.06893055, -0.06893055, -5.928834E-05, 0.0350184, 0.0350184, 2.567168E-05, -0.5076501, -0.5076501, 1.294051E-05, 0, 0.442791, 0
MOTB, 59233037, 1, 1, 0, 1
RCIN, 59233039, 1491, 1497, 982, 1489, 1167, 982, 982, 982, 982, 982, 982, 982, 1494, 1494
RCOU, 59233044, 1073, 1073, 1073, 1073, 0, 0, 0, 0, 0, 0, 0, 0, 0, 0
VIBE, 59233051, 0.02231482, 0.01864835, 0.03079106, 0, 0, 0
CTRL, 59233054, 2.613733E-05, 5.940654E-05, 2.813171E-05, 6.739657E-05, 8.009692E-06
IMU, 59270410, 0.0003128536, 0.0002382311, 0.0004807627, 0.5405007, 0.0451417, -9.775198, 0, 0, 0, 1, 1
IMU, 59310425, -0.0008137804, -0.0003572659, 0.0007759827, 0.5426015, 0.04589237, -9.749007, 0, 0, 0, 1, 1
CURR, 59330525, 16.39498, 0, 0.02416901
CUR2, 59330530, 16.37323, 1.84, 6.900556
MAG, 59330545, 118, 35, -230, -178, 31, -17, 0, 0, 0, 1, 59330538
MAG2, 59330545, 110, 14, -216, -79, 78, -34, 0, 0, 0, 1, 59330541
BARO, 59332894, 0.07783737, 102035.2, 31.00, -0.2701721, 59332, 0
CTUN, 59332914, 0, 0, 0, 0.3347042, 0, -0.03041315, 0.07, 0.00, 0.00, 0, 0, 0
ATT, 59332968, -0.16, -0.16, 1.63, 1.63, 315.53, 315.54, 0.07, 0.06
NKF1, 59332973, -0.16, 1.63, 315.53, -0.001427904, 0.04692974, 0.007788131, 0, 1.645451, -0.5127557, 0.03041315, -0.05, -0.01, 0.44
NKF2, 59332973, 2, 0.00, 0.00, 0.00, 0.00, 0.00, 107, 0, -232, 0, 0, 0, 0
NKF3, 59332973, 0.23, -0.22, 0.00, -0.24, 0.12, 0.00, 0, 0, 0, -3.30, 0.00
NKF4, 59332973, 0.07, 0.01, 0.00, 0.03, 0.00, 0.0003381138, 0, -1, 0, 16, 9087, 0, 0
NKF5, 59332973, 0, 0, 0, 0, 0.10, 0.12, 0.00, 0.09, 0.15, 0.003085237, 0.02036301, 0.04541201
AHR2, 59333002, -0.38, 2.18, 321.09, 75.52, -34.0728867, 18.8399911
POS, 59333010, -34.0728885, 18.8399925, 75.42, -0.03041315
RATE, 59333014, 0.03468022, 0.03468022, 8.448597E-06, 0.03215343, 0.03215343, 1.282895E-05, -0.4096441, -0.4096441, 4.78012E-07, 0, 0.7411957, 0
MOTB, 59333018, 1, 1, 0, 1
RCIN, 59333022, 1491, 1497, 982, 1490, 1167, 982, 982, 982, 982, 982, 982, 982, 1494, 1494
RCOU, 59333026, 1084, 1084, 1084, 1084, 0, 0, 0, 0, 0, 0, 0, 0, 0, 0
VIBE, 59333032, 0.02254661, 0.0192376, 0.03231798, 0, 0, 0
CTRL, 59333036, 2.575451E-05, 6.02074E-05, 2.459265E-05, 5.926157E-05, 7.384303E-06
GPS, 59350415, 3, 36285400, 1958, 13, 0.81, -34.0728871, 18.8399911, 77.69, 0.235372, 167.7352, 0.15, 1
GPA, 59350415, 1.52, 2.77, 5.23, 0.84, 1, 59350
IMU, 59350434, -0.0002897556, 0.000506184, -0.0005258939, 0.5525827, 0.04275919, -9.763074, 0, 0, 0, 1, 1
RAD, 59357913, 189, 97, 10, 66, 86, 0, 0
RAD, 59367860, 189, 97, 10, 66, 86, 0, 0
IMU, 59390410, -0.001270618, 0.001126389, 0.0002380497, 0.5410943, 0.04939703, -9.765457, 0, 0, 0, 1, 1
CURR, 59430494, 16.35149, 0, 0.02416901
CUR2, 59430502, 16.39498, 0, 6.900556
MAG, 59430515, 118, 19, -230, -178, 31, -17, 0, 0, 0, 1, 59430508
MAG2, 59430515, 111, 3, -213, -79, 78, -34, 0, 0, 0, 1, 59430511
IMU, 59430536, -0.0001299524, -0.0003662733, -0.0001559956, 0.5435979, 0.05527819, -9.759235, 0, 0, 0, 1, 1
BARO, 59432872, 0.03891869, 102035.7, 30.99, 0.05125451, 59432, 0
CTUN, 59432890, 0, 0, 0, 0.3347042, 0, -0.03306364, 0.03, 0.00, 0.00, 0, 0, 0
ATT, 59432943, -0.16, -0.16, 1.64, 1.64, 315.52, 315.53, 0.08, 0.07
NKF1, 59432948, -0.16, 1.64, 315.52, -0.009339316, 0.04984001, 0.008563317, 0, 1.633625, -0.5063834, 0.03306364, -0.05, -0.01, 0.44
NKF2, 59432948, 2, 0.00, 0.00, 0.00, 0.00, 0.00, 107, 0, -232, 0, 0, 0, 0
NKF3, 59432948, 0.21, 0.00, -0.14, -0.21, 0.12, -0.08, 0, 0, 0, -1.17, 0.00
NKF4, 59432948, 0.05, 0.01, 0.00, 0.01, 0.00, 0.0003507592, 0, -1, 0, 16, 9087, 0, 0
NKF5, 59432948, 0, 0, 0, 0, 0.10, 0.13, 0.00, 0.09, 0.15, 0.002889185, 0.02489662, 0.05202181
AHR2, 59432975, -0.44, 2.13, 321.04, 75.48, -34.0728871, 18.8399911
POS, 59432981, -34.0728886, 18.8399926, 75.42, -0.03306364
RATE, 59432985, 0.04769296, 0.04769296, -1.036245E-05, 0.002615447, 0.002615447, -5.248709E-05, -0.4617639, -0.4617639, 6.657311E-06, 0, -0.7957458, 0
MOTB, 59432989, 1, 1, 0, 1
RCIN, 59432992, 1491, 1497, 982, 1490, 1167, 982, 982, 982, 982, 982, 982, 982, 1494, 1494
RCOU, 59432997, 1084, 1084, 1084, 1084, 0, 0, 0, 0, 0, 0, 0, 0, 0, 0
VIBE, 59433004, 0.01937111, 0.02013014, 0.03264633, 0, 0, 0
CTRL, 59433007, 2.270528E-05, 5.34898E-05, 2.329981E-05, 5.69696E-05, 7.449971E-06
IMU, 59470415, 0.0004515403, -4.970703E-05, -0.0008522311, 0.5330611, 0.05235436, -9.767085, 0, 0, 0, 1, 1
UBX1, 59490404, 0, 106, 19, 1, 312
IMU, 59510409, 3.760458E-05, 8.712206E-05, 0.0004159068, 0.5364727, 0.04556077, -9.769394, 0, 0, 0, 1, 1
CURR, 59530497, 16.35149, 0, 0.02416901
CUR2, 59530503, 16.35149, 0, 6.900556
MAG, 59530518, 114, 25, -230, -178, 31, -17, 0, 0, 0, 1, 59530510
MAG2, 59530518, 116, 4, -211, -79, 78, -34, 0, 0, 0, 1, 59530513
BARO, 59532867, -0.005559812, 102036.2, 30.99, 0.33272, 59532, 0
CTUN, 59532886, 0, 0, 0, 0.3347042, 0, -0.03647377, 0.00, 0.00, 0.00, 0, 0, 0
ATT, 59532938, -0.16, -0.16, 1.65, 1.65, 315.51, 315.52, 0.08, 0.06
NKF1, 59532944, -0.16, 1.65, 315.51, -0.01755139, 0.05286656, 0.009228135, 0, 1.621066, -0.5007833, 0.03647377, -0.05, -0.01, 0.44
NKF2, 59532944, 2, 0.00, 0.00, 0.00, 0.00, 0.00, 107, 0, -232, 0, 0, 0, 0
NKF3, 59532944, 0.21, 0.00, -0.14, -0.21, 0.12, 0.11, 0, 0, 0, -1.43, 0.00
NKF4, 59532944, 0.05, 0.01, 0.00, 0.01, 0.00, 0.0003310979, 0, -1, 0, 16, 9087, 0, 0
NKF5, 59532944, 0, 0, 0, 0, 0.10, 0.13, 0.00, 0.09, 0.15, 0.002467965, 0.01866964, 0.04415944
AHR2, 59532973, -0.53, 2.04, 321.08, 75.43999, -34.0728871, 18.8399911
POS, 59532980, -34.0728887, 18.8399926, 75.42, -0.03647377
RATE, 59532983, 0.09390844, 0.09390844, -6.365357E-06, 0.02744596, 0.02744596, 6.350909E-05, -0.4439942, -0.4439942, -2.424622E-06, 0, -0.9267807, 0
MOTB, 59532988, 1, 1, 0, 1
RCIN, 59532991, 1491, 1497, 982, 1510, 1167, 982, 982, 982, 982, 982, 982, 982, 1494, 1494
RCOU, 59532996, 1084, 1084, 1084, 1084, 0, 0, 0, 0, 0, 0, 0, 0, 0, 0
VIBE, 59533003, 0.01688006, 0.01848695, 0.03048336, 0, 0, 0
CTRL, 59533007, 2.079285E-05, 4.97236E-05, 2.459387E-05, 6.140417E-05, 7.211333E-06
GPS, 59550422, 3, 36285600, 1958, 13, 0.81, -34.0728874, 18.839991, 77.73, 0.2236068, 153.435, 0.05, 1
GPA, 59550422, 1.52, 2.77, 5.25, 0.85, 1, 59550
IMU, 59550441, -0.0004952943, 0.000969042, 0.0006078915, 0.5382169, 0.04321633, -9.74854, 0, 0, 0, 1, 1
IMU, 59590409, 5.11352E-05, -0.0009985934, -0.000574166, 0.5541415, 0.04486307, -9.767125, 0, 0, 0, 1, 1
CURR, 59630490, 16.32974, 0, 0.02416901
CUR2, 59630497, 16.32974, 2.76, 6.977224
MAG, 59630511, 114, 37, -230, -178, 31, -17, 0, 0, 0, 1, 59630503
MAG2, 59630511, 110, 13, -220, -79, 78, -34, 0, 0, 0, 1, 59630507
IMU, 59630530, -0.001560848, 0.0003437288, 0.0001114428, 0.5276552, 0.04717138, -9.764423, 0, 0, 0, 1, 1
BARO, 59632902, -0.2779906, 102039.3, 30.98, 0.2032806, 59632, 0
CTUN, 59632924, 0, 0, 0, 0.3347042, 0, -0.03883078, -0.27, 0.00, 0.00, 0, 0, -1
ATT, 59632977, -0.17, -0.17, 1.66, 1.66, 315.49, 315.50, 0.07, 0.06
NKF1, 59632982, -0.17, 1.66, 315.49, -0.02561126, 0.0553481, 0.01083557, 0, 1.607561, -0.4951749, 0.03883078, -0.05, -0.01, 0.44
NKF2, 59632982, 2, 0.00, 0.00, 0.00, 0.00, 0.00, 107, 0, -232, 0, 0, 0, 0
NKF3, 59632982, 0.16, -0.04, -0.04, -0.20, 0.14, 0.07, 0, 0, 0, -9.81, 0.00
NKF4, 59632982, 0.03, 0.01, 0.00, 0.11, 0.00, 0.0003056144, 0, -1, 0, 16, 9087, 0, 0
NKF5, 59632982, 0, 0, 0, 0, 0.10, 0.13, 0.00, 0.09, 0.15, 0.00318486, 0.02158932, 0.04724753
AHR2, 59633010, -0.52, 2.02, 321.09, 75.17, -34.0728874, 18.839991
POS, 59633016, -34.0728888, 18.8399927, 75.42, -0.03883078
RATE, 59633019, -0.04892848, -0.04892848, 2.688135E-05, 0.03592863, 0.03592863, 4.181347E-05, -0.4529943, -0.4529943, 3.135063E-06, 0, -0.3587723, 0
MOTB, 59633024, 1, 1, 0, 1
RCIN, 59633027, 1491, 1497, 982, 1518, 1167, 982, 982, 982, 982, 982, 982, 982, 1494, 1494
RCOU, 59633032, 1084, 1084, 1084, 1084, 0, 0, 0, 0, 0, 0, 0, 0, 0, 0
VIBE, 59633037, 0.02113684, 0.0200088, 0.03093265, 0, 0, 0
CTRL, 59633041, 2.198175E-05, 5.177975E-05, 2.355438E-05, 5.718851E-05, 6.967302E-06
IMU, 59670417, -0.0002368731, 0.0007996819, 0.0001761593, 0.542202, 0.03406098, -9.759584, 0, 0, 0, 1, 1
IMU, 59710421, -0.001083482, 0.001159921, -8.419417E-05, 0.5492374, 0.04592233, -9.75621, 0, 0, 0, 1, 1
CURR, 59730496, 16.41672, 0, 0.02416901
CUR2, 59730501, 16.35149, 0, 6.977224
MAG, 59730516, 119, 20, -230, -178, 31, -17, 0, 0, 0, 1, 59730508
MAG2, 59730516, 117, 2, -215, -79, 78, -34, 0, 0, 0, 1, 59730512
BARO, 59732877, -0.1445551, 102037.8, 30.98, -0.3735499, 59732, 0
CTUN, 59732895, 0, 0, 0, 0.3347042, 0, -0.04067291, -0.14, 0.00, 0.00, 0, 0, -1
ATT, 59732950, -0.17, -0.17, 1.68, 1.68, 315.48, 315.49, 0.07, 0.07
NKF1, 59732954, -0.17, 1.68, 315.48, -0.03382057, 0.05720482, 0.01264755, 0, 1.593963, -0.4893824, 0.04067291, -0.05, -0.01, 0.44
NKF2, 59732954, 2, 0.00, 0.00, 0.00, 0.00, 0.00, 107, 0, -232, 0, 0, 0, 0
NKF3, 59732954, 0.16, -0.04, -0.04, -0.20, 0.14, 0.02, 0, 0, 0, -6.25, 0.00
NKF4, 59732954, 0.03, 0.01, 0.00, 0.07, 0.00, 0.0002797154, 0, -1, 0, 16, 9087, 0, 0
NKF5, 59732954, 0, 0, 0, 0, 0.10, 0.13, 0.00, 0.09, 0.15, 0.003402115, 0.01596001, 0.03976069
AHR2, 59732981, -0.49, 2.02, 321.03, 75.3, -34.0728874, 18.839991
POS, 59732987, -34.0728889, 18.8399927, 75.41, -0.04067291
RATE, 59732990, 0.04245169, 0.04245169, 0.0001516602, 0.09363734, 0.09363734, 2.140969E-05, -0.5276577, -0.5276577, 1.316556E-05, 0, -1.273441, 0
MOTB, 59732995, 1, 1, 0, 1
RCIN, 59732998, 1491, 1497, 982, 1508, 1167, 982, 982, 982, 982, 982, 982, 982, 1494, 1494
RCOU, 59733003, 1084, 1084, 1084, 1084, 0, 0, 0, 0, 0, 0, 0, 0, 0, 0
VIBE, 59733009, 0.02125981, 0.02168294, 0.02914735, 0, 0, 0
CTRL, 59733013, 2.445015E-05, 6.027214E-05, 2.276681E-05, 5.661563E-05, 6.894988E-06
GPS, 59750408, 3, 36285800, 1958, 13, 0.81, -34.0728876, 18.8399911, 77.69, 0.1711724, 173.2902, 0.04, 1
GPA, 59750408, 1.52, 2.78, 5.27, 0.85, 1, 59750
IMU, 59750428, 0.0002558672, 0.0008250898, -0.001535539, 0.5381976, 0.0341423, -9.762055, 0, 0, 0, 1, 1
IMU, 59790412, -0.001605939, -0.00154617, 0.0008212809, 0.5428883, 0.03600021, -9.749435, 0, 0, 0, 1, 1
CURR, 59830489, 16.37323, 0, 0.02416901
CUR2, 59830496, 16.39498, 0, 6.977224
MAG, 59830510, 116, 19, -228, -178, 31, -17, 0, 0, 0, 1, 59830503
MAG2, 59830510, 114, 0, -217, -79, 78, -34, 0, 0, 0, 1, 59830506
DU32, 59830527, 7, 386520
TERR, 59831940, 2, -34.0728891, 18.8399928, 100, 81.39139, -0.0499649, 0, 336
IMU, 59831966, -0.0005750274, -0.0002892723, -0.00080482, 0.5409809, 0.05135022, -9.760529, 0, 0, 0, 1, 1
BARO, 59832891, -0.1945934, 102038.4, 30.97, -0.7974856, 59832, 0
CTUN, 59832905, 0, 0, 0, 0.3347042, 0, -0.04298234, -0.19, 0.00, 0.00, 0, 0, -1
